[{"lat":39.2704724,"lng":26.6692242,"name":"Akın Eczanesi","address1":"Kahramanlar Mah, Millet Cd., 10400 Ayvalık/Balıkesir, Turkey","address2":"balıkesir/ayvalık/akın eczanesi","direction":"https://www.google.com.tr/maps/dir/My+Location/39.2704724,26.6692242"},{"lat":39.2704724,"lng":26.6692242,"name":"Akın Eczanesi","address1":"Kahramanlar Mah, Millet Cd., 10400 Ayvalık/Balıkesir, Turkey","address2":"balıkesir/ayvalık/akın eczanesi","direction":"https://www.google.com.tr/maps/dir/My+Location/39.2704724,26.6692242"},{"lat":39.3207849,"lng":26.6929225,"name":"Aras Eczanesi","address1":"Sakarya, Atatürk Blv. No:135, 10400 Ayvalık/Balıkesir, Turkey","address2":"balıkesir/ayvalık/aras eczanesi","direction":"https://www.google.com.tr/maps/dir/My+Location/39.3207849,26.6929225"},{"lat":39.220099,"lng":26.787534,"name":"Aslı Eczanesi","address1":"Altınova, İnönü Cd. 142/A, 10280 AYVALIK/Ayvalık/Balıkesir, Turkey","address2":"balıkesir/ayvalık/aslı eczanesi","direction":"https://www.google.com.tr/maps/dir/My+Location/39.220099,26.787534"},{"lat":39.2200438,"lng":26.7872735,"name":"Aslı Eczanesi","address1":"Altınova, İnönü Cd. No:1 D:1, 10400 Ayvalık/Balıkesir, Turkey","address2":"balıkesir/ayvalık/aslı eczanesi","direction":"https://www.google.com.tr/maps/dir/My+Location/39.2200438,26.7872735"},{"lat":39.2220172,"lng":26.782356,"name":"Aysun Eczanesi","address1":"Altınova, İnönü Cad./2. Sok. 88/A, 10400 Ayvalık/Balıkesir, Turkey","address2":"balıkesir/ayvalık/aysun eczanesi","direction":"https://www.google.com.tr/maps/dir/My+Location/39.2220172,26.782356"},{"lat":39.3186129,"lng":26.6934132,"name":"Ayvalık Eczanesi","address1":"Fevzipaşa-vehbibey, Muradiye Çarşısı No:18 D:No:18, 10400 Ayvalık/Balıkesir, Turkey","address2":"balıkesir/ayvalık/ayvalık eczanesi","direction":"https://www.google.com.tr/maps/dir/My+Location/39.3186129,26.6934132"},{"lat":39.315738,"lng":26.6907913,"name":"Bağış Eczanesi","address1":"Hayrettinpaşa, Atatürk Blv. 100/B, 10400 Ayvalık/Balıkesir, Turkey","address2":"balıkesir/ayvalık/bağış eczanesi","direction":"https://www.google.com.tr/maps/dir/My+Location/39.315738,26.6907913"},{"lat":39.318817,"lng":26.692677,"name":"Bedesten Eczanesi","address1":"Fevzipaşa-vehbibey Mh, Bedesten Sk. Pk:10400, 10400 Ayvalık/Balıkesir, Turkey","address2":"balıkesir/ayvalık/bedesten eczanesi","direction":"https://www.google.com.tr/maps/dir/My+Location/39.318817,26.692677"},{"lat":39.3180671,"lng":26.6921199,"name":"Bizim Eczanesi","address1":"Fevzipaşa-vehbibey, Cumhuriyet Myd. No:138/A, 10400 Ayvalık/Balıkesir, Turkey","address2":"balıkesir/ayvalık/bizim eczanesi","direction":"https://www.google.com.tr/maps/dir/My+Location/39.3180671,26.6921199"},{"lat":39.3180671,"lng":26.6921199,"name":"Bizim Eczanesi","address1":"Fevzipaşa-vehbibey, Cumhuriyet Myd. No:138/A, 10400 Ayvalık/Balıkesir, Turkey","address2":"balıkesir/ayvalık/bizim eczanesi","direction":"https://www.google.com.tr/maps/dir/My+Location/39.3180671,26.6921199"},{"lat":39.3188232,"lng":26.6935062,"name":"Büyük Eczanesi","address1":"Fevzipaşa-vehbibey, Muradiye Çarşısı No:7, 10400 Ayvalık/Balıkesir, Turkey","address2":"balıkesir/ayvalık/büyük eczanesi","direction":"https://www.google.com.tr/maps/dir/My+Location/39.3188232,26.6935062"},{"lat":39.338727,"lng":26.707491,"name":"Can Eczanesi","address1":"Ali Çetinkaya, Onursal Cd. No:3, 10400 Ayvalık/Balıkesir, Turkey","address2":"balıkesir/ayvalık/can eczanesi","direction":"https://www.google.com.tr/maps/dir/My+Location/39.338727,26.707491"},{"lat":39.319185,"lng":26.692387,"name":"Deniz Eczanesi","address1":"Ayvalık, Balıkesir, Turkey","address2":"balıkesir/ayvalık/deniz eczanesi","direction":"https://www.google.com.tr/maps/dir/My+Location/39.319185,26.692387"},{"lat":39.2699818,"lng":26.6865782,"name":"Deniz Eczanesi","address1":"Küçükköy, Sarımsaklı Bulvarı, 10410 Ayvalık/Balıkesir, Turkey","address2":"balıkesir/ayvalık/deniz eczanesi","direction":"https://www.google.com.tr/maps/dir/My+Location/39.2699818,26.6865782"},{"lat":39.31967,"lng":26.692718,"name":"Erol Eczanesi","address1":"Fevzipaşa-vehbibey, Atatürk Blv. No:168, 10400 Ayvalık/Balıkesir, Turkey","address2":"balıkesir/ayvalık/erol eczanesi","direction":"https://www.google.com.tr/maps/dir/My+Location/39.31967,26.692718"},{"lat":39.3183859,"lng":26.6935409,"name":"Ethemin Eczanesi","address1":"Fevzipaşa-vehbibey, Talat Paşa Cad. 18/A, 10400 Ayvalık/Balıkesir, Turkey","address2":"balıkesir/ayvalık/ethemin eczanesi","direction":"https://www.google.com.tr/maps/dir/My+Location/39.3183859,26.6935409"},{"lat":39.3183859,"lng":26.6935409,"name":"Ethemin Eczanesi","address1":"Fevzipaşa-vehbibey, Talat Paşa Cad. 18/A, 10400 Ayvalık/Balıkesir, Turkey","address2":"balıkesir/ayvalık/ethemin eczanesi","direction":"https://www.google.com.tr/maps/dir/My+Location/39.3183859,26.6935409"},{"lat":39.3182176,"lng":26.6921089,"name":"Gültekin Eczanesi","address1":"Fevzipaşa-vehbibey, Cumhuriyet Myd. No:9 D:3, 10400 Ayvalık/Balıkesir, Turkey","address2":"balıkesir/ayvalık/gültekin eczanesi","direction":"https://www.google.com.tr/maps/dir/My+Location/39.3182176,26.6921089"},{"lat":39.319056,"lng":26.69234,"name":"Hayat Eczanesi","address1":"Fevzipaşa-vehbibey, Atatürk Blv. No 89, 10400 Ayvalık/Balıkesir, Turkey","address2":"balıkesir/ayvalık/hayat eczanesi","direction":"https://www.google.com.tr/maps/dir/My+Location/39.319056,26.69234"},{"lat":39.332511,"lng":26.7022249,"name":"Mine Eczanesi","address1":"150 Evler, Atatürk Blv. No:406, 10400 Ayvalık/Balıkesir, Turkey","address2":"balıkesir/ayvalık/mine eczanesi","direction":"https://www.google.com.tr/maps/dir/My+Location/39.332511,26.7022249"},{"lat":39.5795806,"lng":26.7394784,"name":"Murat Eczanesi","address1":"Altınoluk, Mimar Sinan Cd. No:128, 10870 Edremit/Balıkesir, Turkey","address2":"balıkesir/edremit/murat eczanesi","direction":"https://www.google.com.tr/maps/dir/My+Location/39.5795806,26.7394784"},{"lat":39.3354774,"lng":26.7032403,"name":"Sevı Eczanesi","address1":"Ali Çetinkaya, Abdi İpekçi Cd., 10400 Ayvalık/Balıkesir, Turkey","address2":"balıkesir/ayvalık/sevı eczanesi","direction":"https://www.google.com.tr/maps/dir/My+Location/39.3354774,26.7032403"},{"lat":39.318351,"lng":26.693226,"name":"Tayanç Eczanesi","address1":"Fevzipaşa-vehbibey, Talatpaşa Cd. No:27, 10400 Ayvalık/Balıkesir, Turkey","address2":"balıkesir/ayvalık/tayanç eczanesi","direction":"https://www.google.com.tr/maps/dir/My+Location/39.318351,26.693226"},{"lat":39.2197173,"lng":26.7880258,"name":"Yaşar Eczanesi","address1":"Selimiye Mahallesi, Cumhuriyet Caddesi, Atatürk Bulvarı, NO:4 Altınova, Altınova, Balıkesir, 10280 Ayvalık/Balıkesir, Turkey","address2":"balıkesir/ayvalık/yaşar eczanesi","direction":"https://www.google.com.tr/maps/dir/My+Location/39.2197173,26.7880258"},{"lat":39.2197173,"lng":26.7880258,"name":"Yaşar Eczanesi","address1":"Selimiye Mahallesi, Cumhuriyet Caddesi, Atatürk Bulvarı, NO:4 Altınova, Altınova, Balıkesir, 10280 Ayvalık/Balıkesir, Turkey","address2":"balıkesir/ayvalık/yaşar eczanesi","direction":"https://www.google.com.tr/maps/dir/My+Location/39.2197173,26.7880258"},{"lat":39.5726223,"lng":26.7472647,"name":"Yasemin Eczanesi","address1":"Altinoluk, Edremit/Balıkesir, Turkey","address2":"balıkesir/edremit/yasemin eczanesi","direction":"https://www.google.com.tr/maps/dir/My+Location/39.5726223,26.7472647"},{"lat":39.31967,"lng":26.692718,"name":"Yeni Erol Eczanesi","address1":"Fevzipaşa-vehbibey, Atatürk Blv. No:168, 10400 Ayvalık/Balıkesir, Turkey","address2":"balıkesir/ayvalık/yeni erol eczanesi","direction":"https://www.google.com.tr/maps/dir/My+Location/39.31967,26.692718"},{"lat":39.3325643,"lng":26.7034818,"name":"Yorgun Eczanesi","address1":"Hayrettinpaşa, Atatürk Blv. Ayyıldız Apt. 382/B, 10400 Ayvalık/Balıkesir, Turkey","address2":"balıkesir/ayvalık/yorgun eczanesi","direction":"https://www.google.com.tr/maps/dir/My+Location/39.3325643,26.7034818"},{"lat":40.3388685,"lng":27.9968266,"name":"100.Yıl Eczanesi","address1":"no:A, 100. Yıl, 1548. Sk. No:39, 10200 Bandırma/Balıkesir, Turkey","address2":"balıkesir/bandırma/100.yıl eczanesi","direction":"https://www.google.com.tr/maps/dir/My+Location/40.3388685,27.9968266"},{"lat":40.3530171,"lng":27.9742986,"name":"Acungan Eczanesi","address1":"İhsaniye, İstiklal Cd No:78, 10200 Bandırma/Balıkesir, Turkey","address2":"balıkesir/bandırma/acungan eczanesi","direction":"https://www.google.com.tr/maps/dir/My+Location/40.3530171,27.9742986"},{"lat":40.3545655,"lng":27.9717492,"name":"Akgul Eczanesi","address1":"Hacı Yusuf, 10230 Bandırma/Balıkesir, Turkey","address2":"balıkesir/bandırma/akgul eczanesi","direction":"https://www.google.com.tr/maps/dir/My+Location/40.3545655,27.9717492"},{"lat":40.348654,"lng":27.979412,"name":"Aksakal Eczanesi","address1":"17 Eylül, Sanayi Sk. No:46, 10200 Bandırma/Balıkesir, Turkey","address2":"balıkesir/bandırma/aksakal eczanesi","direction":"https://www.google.com.tr/maps/dir/My+Location/40.348654,27.979412"},{"lat":40.350447,"lng":27.968701,"name":"Altunbas Eczanesi","address1":"Paşabayır, Ordu Cad. No:15, 10200 Bandırma/Balıkesir, Turkey","address2":"balıkesir/bandırma/altunbas eczanesi","direction":"https://www.google.com.tr/maps/dir/My+Location/40.350447,27.968701"},{"lat":40.3402893,"lng":27.9658855,"name":"Ardıç Eczanesi","address1":"Paşakonak, Sağlık Cd., 10200 Bandırma/Balıkesir, Turkey","address2":"balıkesir/bandırma/ardıç eczanesi","direction":"https://www.google.com.tr/maps/dir/My+Location/40.3402893,27.9658855"},{"lat":40.3533569,"lng":27.9718636,"name":"Atlı Eczanesi","address1":"Haydar Çavuş, İsmet İnönü Cd. No:75, 10200 Bandırma/Balıkesir, Turkey","address2":"balıkesir/bandırma/atlı eczanesi","direction":"https://www.google.com.tr/maps/dir/My+Location/40.3533569,27.9718636"},{"lat":40.3401334,"lng":27.9383173,"name":"Ayaz Eczanesi","address1":"Yeni Mah. Gönen Asfaltı Fakülte Yolu No:71/2, Yeni, 10200 Bandırma/Balıkesir, Turkey","address2":"balıkesir/bandırma/ayaz eczanesi","direction":"https://www.google.com.tr/maps/dir/My+Location/40.3401334,27.9383173"},{"lat":40.3490634,"lng":27.975439,"name":"Bandırma Eczanesi","address1":"17 Eylül, Atatürk Cd. No:171, 10200 Bandırma/Balıkesir, Turkey","address2":"balıkesir/bandırma/bandırma eczanesi","direction":"https://www.google.com.tr/maps/dir/My+Location/40.3490634,27.975439"},{"lat":40.3529372,"lng":27.9696358,"name":"Bılgı Eczanesi","address1":"Haydar Çavuş, İsmet İnönü Cd. No:23/A, 10200 Bandırma/Balıkesir, Turkey","address2":"balıkesir/bandırma/bılgı eczanesi","direction":"https://www.google.com.tr/maps/dir/My+Location/40.3529372,27.9696358"},{"lat":40.3524507,"lng":27.9757582,"name":"Çırpanlı Eczanesi","address1":"İhsaniye, 44. Sk. No:10, 10200 Bandırma/Balıkesir, Turkey","address2":"balıkesir/bandırma/çırpanlı eczanesi","direction":"https://www.google.com.tr/maps/dir/My+Location/40.3524507,27.9757582"},{"lat":40.347148,"lng":27.968802,"name":"Coskun Eczanesi","address1":"NO, Sunullah, Ordu Cd. No:101, 10200 Bandırma/Balıkesir, Turkey","address2":"balıkesir/bandırma/coskun eczanesi","direction":"https://www.google.com.tr/maps/dir/My+Location/40.347148,27.968802"},{"lat":40.3484524,"lng":27.9789594,"name":"Defne Eczanesi","address1":"17 Eylül, Şht. Mezarlık Sokagi No:15, 10200 Bandırma/Balıkesir, Turkey","address2":"balıkesir/bandırma/defne eczanesi","direction":"https://www.google.com.tr/maps/dir/My+Location/40.3484524,27.9789594"},{"lat":40.353707,"lng":27.971405,"name":"Defne Eczanesi","address1":"Bandırma, Balıkesir, Turkey","address2":"balıkesir/bandırma/defne eczanesi","direction":"https://www.google.com.tr/maps/dir/My+Location/40.353707,27.971405"},{"lat":40.3534847,"lng":27.9739388,"name":"Gizem Eczanesi","address1":"İhsaniye, İstiklal Cd NO:63, 10200 Bandırma/Balıkesir, Turkey","address2":"balıkesir/bandırma/gizem eczanesi","direction":"https://www.google.com.tr/maps/dir/My+Location/40.3534847,27.9739388"},{"lat":40.353616,"lng":27.973691,"name":"Günaydın Eczanesi","address1":"Günaydın, İstiklal Cd no:58, 10200 Bandırma/Balıkesir, Turkey","address2":"balıkesir/bandırma/günaydın eczanesi","direction":"https://www.google.com.tr/maps/dir/My+Location/40.353616,27.973691"},{"lat":40.3522593,"lng":27.9691296,"name":"Gurer Eczanesi","address1":"Dere, General Halit Cd. No:7, 10200 Bandırma/Balıkesir, Turkey","address2":"balıkesir/bandırma/gurer eczanesi","direction":"https://www.google.com.tr/maps/dir/My+Location/40.3522593,27.9691296"},{"lat":40.3521541,"lng":27.9752568,"name":"Guven Eczanesi","address1":"İhsaniye, Hastane Sk. No:3/B, 10200 Bandırma/Balıkesir, Turkey","address2":"balıkesir/bandırma/guven eczanesi","direction":"https://www.google.com.tr/maps/dir/My+Location/40.3521541,27.9752568"},{"lat":40.3443818,"lng":27.9594956,"name":"Havacılar Eczanesi","address1":"Paşa Kent Mah., Mehmetçik Cad. Erdamla Ap. 158/B, 10200 Bandırma/Balıkesir, Turkey","address2":"balıkesir/bandırma/havacılar eczanesi","direction":"https://www.google.com.tr/maps/dir/My+Location/40.3443818,27.9594956"},{"lat":40.347752,"lng":27.968989,"name":"İhsaniye Eczanesi","address1":"Sunullah, Ordu Cd. No:89/A, 10200 Bandırma/Balıkesir, Turkey","address2":"balıkesir/bandırma/ihsaniye eczanesi","direction":"https://www.google.com.tr/maps/dir/My+Location/40.347752,27.968989"},{"lat":40.3411134,"lng":27.9529286,"name":"İrem Eczanesi","address1":"paşakonak mah, 1046. Sk. A1/5, 10200 Bandırma/Balıkesir, Turkey","address2":"balıkesir/bandırma/irem eczanesi","direction":"https://www.google.com.tr/maps/dir/My+Location/40.3411134,27.9529286"},{"lat":40.3540378,"lng":27.9732036,"name":"Istıklal Eczanesi","address1":"Günaydın, İstiklal Cd No:25/A, 10200 Bandırma/Balıkesir, Turkey","address2":"balıkesir/bandırma/istıklal eczanesi","direction":"https://www.google.com.tr/maps/dir/My+Location/40.3540378,27.9732036"},{"lat":40.3415337,"lng":27.9678942,"name":"Kapıdağsağlık Eczanesi","address1":"Sunullah, Hacı Cafer Yaşbek Cd. No:5, 10200 Bandırma/Balıkesir, Turkey","address2":"balıkesir/bandırma/kapıdağsağlık eczanesi","direction":"https://www.google.com.tr/maps/dir/My+Location/40.3415337,27.9678942"},{"lat":40.3521125,"lng":27.9830773,"name":"Kıvanç Eczanesi","address1":"İhsaniye, Servet Çırpan Cd. No:33, 10200 Bandırma/Balıkesir, Turkey","address2":"balıkesir/bandırma/kıvanç eczanesi","direction":"https://www.google.com.tr/maps/dir/My+Location/40.3521125,27.9830773"},{"lat":40.3531543,"lng":27.9736329,"name":"Melıh Eczanesi","address1":"İhsaniye, Kaşif Acar Cd. NO:79-A, 10200 Bandırma/Balıkesir, Turkey","address2":"balıkesir/bandırma/melıh eczanesi","direction":"https://www.google.com.tr/maps/dir/My+Location/40.3531543,27.9736329"},{"lat":40.3531543,"lng":27.9736329,"name":"Melih Eczanesi","address1":"İhsaniye, Kaşif Acar Cd. NO:79-A, 10200 Bandırma/Balıkesir, Turkey","address2":"balıkesir/bandırma/melih eczanesi","direction":"https://www.google.com.tr/maps/dir/My+Location/40.3531543,27.9736329"},{"lat":40.35229,"lng":27.969096,"name":"Nazar Eczanesi","address1":"Dere, İsmet İnönü Cd. 10/A, 10200 Bandırma/Balıkesir, Turkey","address2":"balıkesir/bandırma/nazar eczanesi","direction":"https://www.google.com.tr/maps/dir/My+Location/40.35229,27.969096"},{"lat":40.3531178,"lng":27.9733644,"name":"Nurgun Eczanesi","address1":"17 Eylül, Kaşif Acar Cd. No:54, 10200 Bandırma/Balıkesir, Turkey","address2":"balıkesir/bandırma/nurgun eczanesi","direction":"https://www.google.com.tr/maps/dir/My+Location/40.3531178,27.9733644"},{"lat":40.3531178,"lng":27.9733644,"name":"Nurgün Eczanesi","address1":"17 Eylül, Kaşif Acar Cd. No:54, 10200 Bandırma/Balıkesir, Turkey","address2":"balıkesir/bandırma/nurgün eczanesi","direction":"https://www.google.com.tr/maps/dir/My+Location/40.3531178,27.9733644"},{"lat":40.35442,"lng":27.971593,"name":"Oya Eczanesi","address1":"Haydar Çavuş, İsmet İnönü Cd. No:81, 10200 Bandırma/Balıkesir, Turkey","address2":"balıkesir/bandırma/oya eczanesi","direction":"https://www.google.com.tr/maps/dir/My+Location/40.35442,27.971593"},{"lat":40.340215,"lng":27.9385034,"name":"Ozyurtlu Eczanesi","address1":"1, Yenimahalle Gönen asfalti Fakulte yolu,Yeni devlet hastanesi yanı 71, Yeni, 10200 Bandırma/Balıkesir, Turkey","address2":"balıkesir/bandırma/ozyurtlu eczanesi","direction":"https://www.google.com.tr/maps/dir/My+Location/40.340215,27.9385034"},{"lat":40.340215,"lng":27.9385034,"name":"Özyurtlu Eczanesi","address1":"1, Yenimahalle Gönen asfalti Fakulte yolu,Yeni devlet hastanesi yanı 71, Yeni, 10200 Bandırma/Balıkesir, Turkey","address2":"balıkesir/bandırma/özyurtlu eczanesi","direction":"https://www.google.com.tr/maps/dir/My+Location/40.340215,27.9385034"},{"lat":40.3417364,"lng":27.9676757,"name":"Serap Eczanesi","address1":"Sunullah, Ordu Cd. No:151, 10200 Bandırma/Balıkesir, Turkey","address2":"balıkesir/bandırma/serap eczanesi","direction":"https://www.google.com.tr/maps/dir/My+Location/40.3417364,27.9676757"},{"lat":40.3534299,"lng":27.9737281,"name":"Serıntuna Eczanesi","address1":"Günaydın, Hal Cd. No:37, 10200 Bandırma/Balıkesir, Turkey","address2":"balıkesir/bandırma/serıntuna eczanesi","direction":"https://www.google.com.tr/maps/dir/My+Location/40.3534299,27.9737281"},{"lat":40.343856,"lng":27.9592796,"name":"Sıteler Tanıl Eczanesi","address1":"Paşakonak Mahallesi Eski Edincik Cad, Paşakonak, Selin Apt 151/B, 10200 Bandırma/Balıkesir, Turkey","address2":"balıkesir/bandırma/sıteler tanıl eczanesi","direction":"https://www.google.com.tr/maps/dir/My+Location/40.343856,27.9592796"},{"lat":40.340251,"lng":27.965814,"name":"Ulkar Eczanesi","address1":"Paşakonak, Sağlık Cd. No:20, 10200 Bandırma/Balıkesir, Turkey","address2":"balıkesir/bandırma/ulkar eczanesi","direction":"https://www.google.com.tr/maps/dir/My+Location/40.340251,27.965814"},{"lat":40.353616,"lng":27.973691,"name":"Vereseli Günaydın Eczanesi","address1":"Günaydın, İstiklal Cd no:58, 10200 Bandırma/Balıkesir, Turkey","address2":"balıkesir/bandırma/vereseli günaydın eczanesi","direction":"https://www.google.com.tr/maps/dir/My+Location/40.353616,27.973691"},{"lat":40.3546015,"lng":27.9725661,"name":"Yalçıner Eczanesi","address1":"Günaydın, İstiklal Cd NO:13/A, 10200 Bandırma/Balıkesir, Turkey","address2":"balıkesir/bandırma/yalçıner eczanesi","direction":"https://www.google.com.tr/maps/dir/My+Location/40.3546015,27.9725661"},{"lat":40.3415029,"lng":27.9677507,"name":"Yenı Ozyurtlu Eczanesi","address1":"No:1, Sunullah, Hacı Cafer Yaşbek Cd. No:3, 10200 Bandırma/Balıkesir, Turkey","address2":"balıkesir/bandırma/yenı ozyurtlu eczanesi","direction":"https://www.google.com.tr/maps/dir/My+Location/40.3415029,27.9677507"},{"lat":39.393893,"lng":28.131517,"name":"Akdaglı Eczanesi","address1":"Fethibey, Ömer Efendi Cd. No:32, 10440 Bigadiç/Balıkesir, Turkey","address2":"balıkesir/bigadiç/akdaglı eczanesi","direction":"https://www.google.com.tr/maps/dir/My+Location/39.393893,28.131517"},{"lat":39.393864,"lng":28.131533,"name":"Aydın Eczanesi","address1":"Camii, Ali Ağa Sok. No:4, 10440 Bigadiç/Balıkesir, Turkey","address2":"balıkesir/bigadiç/aydın eczanesi","direction":"https://www.google.com.tr/maps/dir/My+Location/39.393864,28.131533"},{"lat":39.394071,"lng":28.132132,"name":"Bıgadıç Eczanesi","address1":"Camii, Belediye Cd. No:38, 10440 Bigadiç/Balıkesir, Turkey","address2":"balıkesir/bigadiç/bıgadıç eczanesi","direction":"https://www.google.com.tr/maps/dir/My+Location/39.394071,28.132132"},{"lat":39.396464,"lng":28.12821,"name":"Bigadiç Eczanesi","address1":"Abacı, Cemal Gürsel Paşa Cad. No:39, 10440 Bigadiç/Balıkesir, Turkey","address2":"balıkesir/bigadiç/bigadiç eczanesi","direction":"https://www.google.com.tr/maps/dir/My+Location/39.396464,28.12821"},{"lat":39.3943235,"lng":28.131122,"name":"Burak Eczanesi","address1":"Abacı, 10440 Bigadiç/Balıkesir, Turkey","address2":"balıkesir/bigadiç/burak eczanesi","direction":"https://www.google.com.tr/maps/dir/My+Location/39.3943235,28.131122"},{"lat":39.396692,"lng":28.132081,"name":"Furkan Eczanesi","address1":"Çavuş, Cemal Gürsel Paşa Cad. No:16, 10440 Bigadiç/Balıkesir, Turkey","address2":"balıkesir/bigadiç/furkan eczanesi","direction":"https://www.google.com.tr/maps/dir/My+Location/39.396692,28.132081"},{"lat":39.3939904,"lng":28.1304834,"name":"Gökmen Eczanesi","address1":"Abacı, 10440 Bigadiç/Balıkesir, Turkey","address2":"balıkesir/bigadiç/gökmen eczanesi","direction":"https://www.google.com.tr/maps/dir/My+Location/39.3939904,28.1304834"},{"lat":39.396464,"lng":28.12821,"name":"Halk Eczanesi","address1":"Abacı, Cemal Gürsel Paşa Cad. No:39, 10440 Bigadiç/Balıkesir, Turkey","address2":"balıkesir/bigadiç/halk eczanesi","direction":"https://www.google.com.tr/maps/dir/My+Location/39.396464,28.12821"},{"lat":39.3941888,"lng":28.1323928,"name":"Kırbıyıklar Eczanesi","address1":"Camii, Belediye Cd. No:32, 10440 Bigadiç/Balıkesir, Turkey","address2":"balıkesir/bigadiç/kırbıyıklar eczanesi","direction":"https://www.google.com.tr/maps/dir/My+Location/39.3941888,28.1323928"},{"lat":39.3941888,"lng":28.1323928,"name":"Kırbıyıklar Eczanesi","address1":"Camii, Belediye Cd. No:32, 10440 Bigadiç/Balıkesir, Turkey","address2":"balıkesir/bigadiç/kırbıyıklar eczanesi","direction":"https://www.google.com.tr/maps/dir/My+Location/39.3941888,28.1323928"},{"lat":39.3899813,"lng":28.1297502,"name":"Seren Eczanesi","address1":"Fethibey, Hekim Sk., 10440 Bigadiç/Balıkesir, Turkey","address2":"balıkesir/bigadiç/seren eczanesi","direction":"https://www.google.com.tr/maps/dir/My+Location/39.3899813,28.1297502"},{"lat":39.3926949,"lng":28.130903,"name":"Ulubak Eczanesi","address1":"Fethibey, 1 Temmuz Cd. No:1, 10440 Bigadiç/Balıkesir, Turkey","address2":"balıkesir/bigadiç/ulubak eczanesi","direction":"https://www.google.com.tr/maps/dir/My+Location/39.3926949,28.130903"},{"lat":39.3932952,"lng":28.1319362,"name":"Yıldız Eczanesi","address1":"Camii, Atatürk Cd. No:17, 10440 Bigadiç/Balıkesir, Turkey","address2":"balıkesir/bigadiç/yıldız eczanesi","direction":"https://www.google.com.tr/maps/dir/My+Location/39.3932952,28.1319362"},{"lat":39.502097,"lng":26.978381,"name":"Anadolu Eczanesi","address1":"Kocacami, Hürriyet Cad. Doruk İş Hanı 72/A, 10700 Burhaniye/Balıkesir, Turkey","address2":"balıkesir/burhaniye/anadolu eczanesi","direction":"https://www.google.com.tr/maps/dir/My+Location/39.502097,26.978381"},{"lat":39.5009769,"lng":26.9784383,"name":"Basaran Eczanesi","address1":"Kocacami, Ali Çetinkaya Cd., 10700 Burhaniye/Balıkesir, Turkey","address2":"balıkesir/burhaniye/basaran eczanesi","direction":"https://www.google.com.tr/maps/dir/My+Location/39.5009769,26.9784383"},{"lat":39.502324,"lng":26.980203,"name":"Çelebı Eczanesi","address1":"Kocacami, Ali Çetinkaya Cd. No:19/A, 10700 Burhaniye/Balıkesir, Turkey","address2":"balıkesir/burhaniye/çelebı eczanesi","direction":"https://www.google.com.tr/maps/dir/My+Location/39.502324,26.980203"},{"lat":39.49872,"lng":26.943629,"name":"Ceylan Eczanesi","address1":"Ören, Eczacı Rasim Bulv. Gözüm Apt. No:4, 10700 Burhaniye/Balıkesir, Turkey","address2":"balıkesir/burhaniye/ceylan eczanesi","direction":"https://www.google.com.tr/maps/dir/My+Location/39.49872,26.943629"},{"lat":39.5020816,"lng":26.9745263,"name":"Çıgdem Eczanesi","address1":"Mahkeme, Ali Çetinkaya Cad. 39/A, 10700 Burhaniye/Balıkesir, Turkey","address2":"balıkesir/burhaniye/çıgdem eczanesi","direction":"https://www.google.com.tr/maps/dir/My+Location/39.5020816,26.9745263"},{"lat":39.5012634,"lng":26.9788386,"name":"Çiğdem Eczanesi","address1":"Kocacami, Şevket Hoca Sk., 10700 Burhaniye/Balıkesir, Turkey","address2":"balıkesir/burhaniye/çiğdem eczanesi","direction":"https://www.google.com.tr/maps/dir/My+Location/39.5012634,26.9788386"},{"lat":39.502809,"lng":26.980625,"name":"Derya Eczanesi","address1":"Kocacami Mahallesi, Kocacami, Cumhuriyet Meydanı 3/B, 10700 Burhaniye/Balıkesir, Turkey","address2":"balıkesir/burhaniye/derya eczanesi","direction":"https://www.google.com.tr/maps/dir/My+Location/39.502809,26.980625"},{"lat":39.5018208,"lng":26.9718576,"name":"Fikret Eczanesi","address1":"Mahkeme, Hızırzade Hakkı Bey Sok 12/A, 10700 Burhaniye/Balıkesir, Turkey","address2":"balıkesir/burhaniye/fikret eczanesi","direction":"https://www.google.com.tr/maps/dir/My+Location/39.5018208,26.9718576"},{"lat":39.5020816,"lng":26.9745263,"name":"Gokturk Eczanesi","address1":"Mahkeme, Ali Çetinkaya Cad. 39/A, 10700 Burhaniye/Balıkesir, Turkey","address2":"balıkesir/burhaniye/gokturk eczanesi","direction":"https://www.google.com.tr/maps/dir/My+Location/39.5020816,26.9745263"},{"lat":39.501197,"lng":26.978664,"name":"Güliz Eczanesi","address1":"Kocacami, Ali Çetinkaya Cd. No:39/C, 10700 Burhaniye/Balıkesir, Turkey","address2":"balıkesir/burhaniye/güliz eczanesi","direction":"https://www.google.com.tr/maps/dir/My+Location/39.501197,26.978664"},{"lat":39.501419,"lng":26.979096,"name":"İlayda Eczanesi","address1":"Mah. No: 39/A, Kocacami, Ali Çetinkaya Cd., 10100 Burhaniye/Balıkesir, Turkey","address2":"balıkesir/burhaniye/ilayda eczanesi","direction":"https://www.google.com.tr/maps/dir/My+Location/39.501419,26.979096"},{"lat":39.501246,"lng":26.978802,"name":"Körfez Eczanesi","address1":"Kocacami, Ali Çetinkaya Cd. Pk:10700, 10700 Burhaniye/Balıkesir, Turkey","address2":"balıkesir/burhaniye/körfez eczanesi","direction":"https://www.google.com.tr/maps/dir/My+Location/39.501246,26.978802"},{"lat":39.5010711,"lng":26.978578,"name":"Latıf Korkut Eczanesi","address1":"Cumhuriyet Mahallesi, Ali Çetinkaya Cd. 47/A, 10700 Burhaniye/Balıkesir, Turkey","address2":"balıkesir/burhaniye/latıf korkut eczanesi","direction":"https://www.google.com.tr/maps/dir/My+Location/39.5010711,26.978578"},{"lat":39.50228,"lng":26.972911,"name":"Sozen Eczanesi","address1":"Mahkeme, Saip Hoca Blv. Pk:10700, 10700 Burhaniye/Balıkesir, Turkey","address2":"balıkesir/burhaniye/sozen eczanesi","direction":"https://www.google.com.tr/maps/dir/My+Location/39.50228,26.972911"},{"lat":39.499067,"lng":26.975435,"name":"Zeynep Eczanesi","address1":"Kocacami Mh. Hürriyet Cd. Pk:10700 Burhaniye/balıkesir, Kocacami, 10700 Burhaniye/Balıkesir, Turkey","address2":"balıkesir/burhaniye/zeynep eczanesi","direction":"https://www.google.com.tr/maps/dir/My+Location/39.499067,26.975435"},{"lat":39.499067,"lng":26.975435,"name":"Zeynep Eczanesi","address1":"Kocacami Mh. Hürriyet Cd. Pk:10700 Burhaniye/balıkesir, Kocacami, 10700 Burhaniye/Balıkesir, Turkey","address2":"balıkesir/burhaniye/zeynep eczanesi","direction":"https://www.google.com.tr/maps/dir/My+Location/39.499067,26.975435"},{"lat":39.5037804,"lng":26.9803986,"name":"Zıver Eczanesi","address1":"Kocacami, Yunak Cd. Pk:10700, 10700 Burhaniye/Balıkesir, Turkey","address2":"balıkesir/burhaniye/zıver eczanesi","direction":"https://www.google.com.tr/maps/dir/My+Location/39.5037804,26.9803986"},{"lat":39.588007,"lng":28.628193,"name":"Avcı Eczanesi","address1":"Cebeci, Emin Bey Cad. No:29, 10800 Dursunbey/Balıkesir, Turkey","address2":"balıkesir/dursunbey/avcı eczanesi","direction":"https://www.google.com.tr/maps/dir/My+Location/39.588007,28.628193"},{"lat":39.585627,"lng":28.625243,"name":"Durbal Eczanesi","address1":"Bozyokuş, Ferah Evler Cd. No:19, 10800 Dursunbey/Balıkesir, Turkey","address2":"balıkesir/dursunbey/durbal eczanesi","direction":"https://www.google.com.tr/maps/dir/My+Location/39.585627,28.625243"},{"lat":39.58831,"lng":28.63295,"name":"Dursunbey Eczanesi","address1":"Çiftçi, Belediye Binası 10/B, 10800 Dursunbey/Balıkesir, Turkey","address2":"balıkesir/dursunbey/dursunbey eczanesi","direction":"https://www.google.com.tr/maps/dir/My+Location/39.58831,28.63295"},{"lat":39.58831,"lng":28.63295,"name":"Dursunbey Eczanesi","address1":"Çiftçi, Belediye Binası 10/B, 10800 Dursunbey/Balıkesir, Turkey","address2":"balıkesir/dursunbey/dursunbey eczanesi","direction":"https://www.google.com.tr/maps/dir/My+Location/39.58831,28.63295"},{"lat":39.5843657,"lng":28.6268892,"name":"Gul Eczanesi","address1":"Bozyokuş, Fatih Rüştü Zorlu Cad. No:2, 10800 Dursunbey/Balıkesir, Turkey","address2":"balıkesir/dursunbey/gul eczanesi","direction":"https://www.google.com.tr/maps/dir/My+Location/39.5843657,28.6268892"},{"lat":39.58402,"lng":28.628189,"name":"Korkmaz Eczanesi","address1":"Bozyokuş, Eminbey Cd. 26/A, 10800 Dursunbey/Balıkesir, Turkey","address2":"balıkesir/dursunbey/korkmaz eczanesi","direction":"https://www.google.com.tr/maps/dir/My+Location/39.58402,28.628189"},{"lat":39.58482,"lng":28.62835,"name":"Ozden Eczanesi","address1":"Çakmak Mh, Molla Sk. Pk:10800, 10800 Dursunbey/Balıkesir, Turkey","address2":"balıkesir/dursunbey/ozden eczanesi","direction":"https://www.google.com.tr/maps/dir/My+Location/39.58482,28.62835"},{"lat":39.58482,"lng":28.62835,"name":"Özden Eczanesi","address1":"Çakmak Mh, Molla Sk. Pk:10800, 10800 Dursunbey/Balıkesir, Turkey","address2":"balıkesir/dursunbey/özden eczanesi","direction":"https://www.google.com.tr/maps/dir/My+Location/39.58482,28.62835"},{"lat":39.58852,"lng":28.626082,"name":"Yellıce Eczanesi","address1":"Mollaoğlu, Molla Sk. No:23, 10800 Dursunbey/Balıkesir, Turkey","address2":"balıkesir/dursunbey/yellıce eczanesi","direction":"https://www.google.com.tr/maps/dir/My+Location/39.58852,28.626082"},{"lat":39.5849352,"lng":28.6277248,"name":"Yüksel Eczanesi","address1":"Mollaoğlu, Balıkesir Cad. No:10, 10800 Dursunbey/Balıkesir, Turkey","address2":"balıkesir/dursunbey/yüksel eczanesi","direction":"https://www.google.com.tr/maps/dir/My+Location/39.5849352,28.6277248"},{"lat":39.5856991,"lng":26.925621,"name":"Akçay Eczanesi","address1":"Akçay, Cumhuriyet Blv., 10300 Edremit/Balıkesir, Turkey","address2":"balıkesir/edremit/akçay eczanesi","direction":"https://www.google.com.tr/maps/dir/My+Location/39.5856991,26.925621"},{"lat":39.5845695,"lng":26.9252985,"name":"Akçay Eczanesi","address1":"Akçay, Turgut Reis Cd. No:15, 10300 Edremit/Balıkesir, Turkey","address2":"balıkesir/edremit/akçay eczanesi","direction":"https://www.google.com.tr/maps/dir/My+Location/39.5845695,26.9252985"},{"lat":39.6044841,"lng":27.0282775,"name":"Akdeniz Eczanesi","address1":"Tuzcumurat, 219. Sk., 10300 Edremit/Balıkesir, Turkey","address2":"balıkesir/edremit/akdeniz eczanesi","direction":"https://www.google.com.tr/maps/dir/My+Location/39.6044841,27.0282775"},{"lat":39.566715,"lng":26.748309,"name":"Aysel Eczanesi","address1":"Altınoluk Mh, Atatürk Cd. No:68, Pk:10870 Edremit/Balıkesir, Turkey","address2":"balıkesir/edremit/aysel eczanesi","direction":"https://www.google.com.tr/maps/dir/My+Location/39.566715,26.748309"},{"lat":39.6045031,"lng":27.0282071,"name":"Başak Eczanesi","address1":"Tuzcumurat Mah. 219 Sok No: 15/B Dis hastanesi mevki 1. Nolu Saglik Ocagi Karsisi Gobelezoglu Ortaokulu caprazi Cumartesi pazari yakini, Tuzcumurat, 10300 Edremit/Balıkesir, Turkey","address2":"balıkesir/edremit/başak eczanesi","direction":"https://www.google.com.tr/maps/dir/My+Location/39.6045031,27.0282071"},{"lat":39.5968829,"lng":27.0217311,"name":"Bayramyeri Eczanesi","address1":"Hekimzade, Kurşunlu Cd. No:73, 10300 Edremit/Balıkesir, Turkey","address2":"balıkesir/edremit/bayramyeri eczanesi","direction":"https://www.google.com.tr/maps/dir/My+Location/39.5968829,27.0217311"},{"lat":39.5991435,"lng":26.9931039,"name":"Bihter Eczanesi","address1":"Kadıköy Belediyesi,Edremit/Balıkesir, 10300 edremit kadıköy/Edremit/Balıkesir, Turkey","address2":"balıkesir/edremit/bihter eczanesi","direction":"https://www.google.com.tr/maps/dir/My+Location/39.5991435,26.9931039"},{"lat":39.5749303,"lng":27.0407708,"name":"Bilge Eczanesi","address1":"Cennetayağı, Cennet Ayağı Cd., 10300 Edremit/Balıkesir, Turkey","address2":"balıkesir/edremit/bilge eczanesi","direction":"https://www.google.com.tr/maps/dir/My+Location/39.5749303,27.0407708"},{"lat":39.5876247,"lng":27.02361,"name":"Bulbul Eczanesi","address1":"Cennetayağı, İstasyon Cd. No:10, 10300 Edremit/Balıkesir, Turkey","address2":"balıkesir/edremit/bulbul eczanesi","direction":"https://www.google.com.tr/maps/dir/My+Location/39.5876247,27.02361"},{"lat":39.596089,"lng":27.023209,"name":"Çınla Eczanesi","address1":"Tuzcumurat, Çayiçi Cd. 56/C, 10300 Edremit/Balıkesir, Turkey","address2":"balıkesir/edremit/çınla eczanesi","direction":"https://www.google.com.tr/maps/dir/My+Location/39.596089,27.023209"},{"lat":39.5798256,"lng":26.7390616,"name":"Cireli Eczanesi","address1":"Altınoluk, Hürriyet Meydanı No:34, 10870 Edremit/Balıkesir, Turkey","address2":"balıkesir/edremit/cireli eczanesi","direction":"https://www.google.com.tr/maps/dir/My+Location/39.5798256,26.7390616"},{"lat":39.5943933,"lng":27.021381,"name":"Danış Eczanesi","address1":"Hacı Tuğrul, Çayiçi Cd. No:3, 10300 Edremit/Balıkesir, Turkey","address2":"balıkesir/edremit/danış eczanesi","direction":"https://www.google.com.tr/maps/dir/My+Location/39.5943933,27.021381"},{"lat":39.5943933,"lng":27.021381,"name":"Danış Eczanesi","address1":"Hacı Tuğrul, Çayiçi Cd. No:3, 10300 Edremit/Balıkesir, Turkey","address2":"balıkesir/edremit/danış eczanesi","direction":"https://www.google.com.tr/maps/dir/My+Location/39.5943933,27.021381"},{"lat":39.572856,"lng":26.743341,"name":"Dikmen Eczanesi","address1":"Altınoluk, Mimar Sinan Cd. No:42, 10870 Edremit/Balıkesir, Turkey","address2":"balıkesir/edremit/dikmen eczanesi","direction":"https://www.google.com.tr/maps/dir/My+Location/39.572856,26.743341"},{"lat":39.5814123,"lng":26.9305905,"name":"Duru Eczanesi","address1":"Akçay, Sakarya Cd., 10300 Edremit/Balıkesir, Turkey","address2":"balıkesir/edremit/duru eczanesi","direction":"https://www.google.com.tr/maps/dir/My+Location/39.5814123,26.9305905"},{"lat":39.5941759,"lng":27.0208014,"name":"Ege Eczanesi","address1":"Soğanyemez, Hürriyet Cd. No:3, 10300 Edremit/Balıkesir, Turkey","address2":"balıkesir/edremit/ege eczanesi","direction":"https://www.google.com.tr/maps/dir/My+Location/39.5941759,27.0208014"},{"lat":39.6040629,"lng":27.025533,"name":"Elçin Eczanesi","address1":"Darsofa mah, Akçeşme Cd. No:63, 10300 Edremit/Balıkesir, Turkey","address2":"balıkesir/edremit/elçin eczanesi","direction":"https://www.google.com.tr/maps/dir/My+Location/39.6040629,27.025533"},{"lat":39.5676824,"lng":26.7446133,"name":"Eray Eczanesi","address1":"Altınoluk, Cumhuriyet Cd. No:5, 10870 Edremit/Balıkesir, Turkey","address2":"balıkesir/edremit/eray eczanesi","direction":"https://www.google.com.tr/maps/dir/My+Location/39.5676824,26.7446133"},{"lat":39.580688,"lng":26.931477,"name":"Erden Eczanesi","address1":"No:55, Akçay, Sakarya Cd., 10390 Edremit/Balıkesir, Turkey","address2":"balıkesir/edremit/erden eczanesi","direction":"https://www.google.com.tr/maps/dir/My+Location/39.580688,26.931477"},{"lat":39.5910715,"lng":27.0172367,"name":"Ergin Eczanesi","address1":"B, Soğanyemez, Azerbeycan Blv. No:28, 10300 Edremit/Balıkesir, Turkey","address2":"balıkesir/edremit/ergin eczanesi","direction":"https://www.google.com.tr/maps/dir/My+Location/39.5910715,27.0172367"},{"lat":39.5892283,"lng":27.0320687,"name":"Gökay Eczanesi","address1":"Cumhuriyet, 54. Sk., 10300 Edremit/Balıkesir, Turkey","address2":"balıkesir/edremit/gökay eczanesi","direction":"https://www.google.com.tr/maps/dir/My+Location/39.5892283,27.0320687"},{"lat":39.5892283,"lng":27.0320687,"name":"Gökay Eczanesi","address1":"Cumhuriyet, 54. Sk., 10300 Edremit/Balıkesir, Turkey","address2":"balıkesir/edremit/gökay eczanesi","direction":"https://www.google.com.tr/maps/dir/My+Location/39.5892283,27.0320687"},{"lat":39.599765,"lng":27.027244,"name":"Gumruk Eczanesi","address1":"Tuzcumurat, 254. Sk. No:2, 10300 Edremit/Balıkesir, Turkey","address2":"balıkesir/edremit/gumruk eczanesi","direction":"https://www.google.com.tr/maps/dir/My+Location/39.599765,27.027244"},{"lat":39.6003092,"lng":26.9917497,"name":"Güneş Eczanesi","address1":"Kocaseyit Cd. No:72, 10325 Kadıköy/Edremit/Balıkesir, Turkey","address2":"balıkesir/edremit/güneş eczanesi","direction":"https://www.google.com.tr/maps/dir/My+Location/39.6003092,26.9917497"},{"lat":39.5865409,"lng":26.8838775,"name":"Güre Eczanesi","address1":"Güre İskele Mahallesi, Güre, Atatürk Bulvarı No:28 Kaplıca Kavşağı, 10395 Edremit/Balıkesir, Turkey","address2":"balıkesir/edremit/güre eczanesi","direction":"https://www.google.com.tr/maps/dir/My+Location/39.5865409,26.8838775"},{"lat":39.5865409,"lng":26.8838775,"name":"Güre Eczanesi","address1":"Güre İskele Mahallesi, Güre, Atatürk Bulvarı No:28 Kaplıca Kavşağı, 10395 Edremit/Balıkesir, Turkey","address2":"balıkesir/edremit/güre eczanesi","direction":"https://www.google.com.tr/maps/dir/My+Location/39.5865409,26.8838775"},{"lat":39.573537,"lng":26.943087,"name":"Gürkan Eczanesi","address1":"Zeytinli, Bülent Ecevit Blv No 7 D:C, 10390 Edremit/Balıkesir, Turkey","address2":"balıkesir/edremit/gürkan eczanesi","direction":"https://www.google.com.tr/maps/dir/My+Location/39.573537,26.943087"},{"lat":39.566761,"lng":26.748286,"name":"Helvacıoğlu Eczanesi","address1":"Altınoluk, Atatürk Cd. No:68, 10870 Edremit/Balıkesir, Turkey","address2":"balıkesir/edremit/helvacıoğlu eczanesi","direction":"https://www.google.com.tr/maps/dir/My+Location/39.566761,26.748286"},{"lat":39.5927596,"lng":27.0155473,"name":"Isıl Eczanesi","address1":"Hamidiye, Azerbeycan Blv. No:10, 10300 Edremit/Balıkesir, Turkey","address2":"balıkesir/edremit/isıl eczanesi","direction":"https://www.google.com.tr/maps/dir/My+Location/39.5927596,27.0155473"},{"lat":39.5800669,"lng":26.9318635,"name":"Koray Eczanesi","address1":"Zeytinli, Sakarya Cd. 3a, 10305 Edremit/Balıkesir, Turkey","address2":"balıkesir/edremit/koray eczanesi","direction":"https://www.google.com.tr/maps/dir/My+Location/39.5800669,26.9318635"},{"lat":39.584564,"lng":26.9258884,"name":"Kordon Eczanesi","address1":"Akçay, Atatürk Cd. 1. Sk. Cansever Apt. 4/3, 10300 Edremit/Balıkesir, Turkey","address2":"balıkesir/edremit/kordon eczanesi","direction":"https://www.google.com.tr/maps/dir/My+Location/39.584564,26.9258884"},{"lat":39.5927885,"lng":27.0231424,"name":"Mavi Eczanesi","address1":"Camivasat, Gazi İlyas Cd. No:4/A, 10300 Edremit/Balıkesir, Turkey","address2":"balıkesir/edremit/mavi eczanesi","direction":"https://www.google.com.tr/maps/dir/My+Location/39.5927885,27.0231424"},{"lat":39.571989,"lng":26.945399,"name":"Memleket Eczanesi","address1":"Altinkum Mah. 2018 Sok. No1, Zeytinli, 10300 Saglik Ocagi Karsisi/akçay/Edremit/Balıkesir, Turkey","address2":"balıkesir/edremit/memleket eczanesi","direction":"https://www.google.com.tr/maps/dir/My+Location/39.571989,26.945399"},{"lat":39.6023439,"lng":26.9923395,"name":"Merıh Eczanesi","address1":"Fatih mah, Kocaseyit Cd. No:56, 10325 Kadıköy/Edremit/Balıkesir, Turkey","address2":"balıkesir/edremit/merıh eczanesi","direction":"https://www.google.com.tr/maps/dir/My+Location/39.6023439,26.9923395"},{"lat":39.5718663,"lng":26.9453451,"name":"Merve Yalçın Eczanesi","address1":"2018 Sokak, Altınkum Mahallesi, İnönü Cd. No:55, 10300 Edremit/Balıkesir, Turkey","address2":"balıkesir/edremit/merve yalçın eczanesi","direction":"https://www.google.com.tr/maps/dir/My+Location/39.5718663,26.9453451"},{"lat":39.5718663,"lng":26.9453451,"name":"Merve Yalçın Eczanesi","address1":"2018 Sokak, Altınkum Mahallesi, İnönü Cd. No:55, 10300 Edremit/Balıkesir, Turkey","address2":"balıkesir/edremit/merve yalçın eczanesi","direction":"https://www.google.com.tr/maps/dir/My+Location/39.5718663,26.9453451"},{"lat":39.5932371,"lng":27.0175896,"name":"Mete Eczanesi","address1":"Soğanyemez, Yılmaz Akpınar Bulv. No:36 D:3, 10300 Edremit/Balıkesir, Turkey","address2":"balıkesir/edremit/mete eczanesi","direction":"https://www.google.com.tr/maps/dir/My+Location/39.5932371,27.0175896"},{"lat":39.5842043,"lng":27.0287224,"name":"Metin Eczanesi","address1":"Cennetayağı, İstasyon Cd. No:53, 10300 Edremit/Balıkesir, Turkey","address2":"balıkesir/edremit/metin eczanesi","direction":"https://www.google.com.tr/maps/dir/My+Location/39.5842043,27.0287224"},{"lat":39.5872393,"lng":27.0235752,"name":"Muge Eczanesi","address1":"Cennetayağı, 788. Sk. No:15, 10300 Edremit/Balıkesir, Turkey","address2":"balıkesir/edremit/muge eczanesi","direction":"https://www.google.com.tr/maps/dir/My+Location/39.5872393,27.0235752"},{"lat":39.5795806,"lng":26.7394784,"name":"Murat Eczanesi","address1":"Altınoluk, Mimar Sinan Cd. No:128, 10870 Edremit/Balıkesir, Turkey","address2":"balıkesir/edremit/murat eczanesi","direction":"https://www.google.com.tr/maps/dir/My+Location/39.5795806,26.7394784"},{"lat":39.5718806,"lng":26.9449335,"name":"Oksijen Eczanesi","address1":"Altınkum Mh. İnönü Cd. ,zeytinli,edremit, Zeytinli, 10305 Edremit/Balıkesir, Turkey","address2":"balıkesir/edremit/oksijen eczanesi","direction":"https://www.google.com.tr/maps/dir/My+Location/39.5718806,26.9449335"},{"lat":39.5670657,"lng":26.74773,"name":"Ozan Eczanesi","address1":"Altınoluk, Atatürk Cd. No:33, 10870 Edremit/Balıkesir, Turkey","address2":"balıkesir/edremit/ozan eczanesi","direction":"https://www.google.com.tr/maps/dir/My+Location/39.5670657,26.74773"},{"lat":39.5667623,"lng":26.7481643,"name":"Özlem Eczanesi","address1":"Altınoluk, Atatürk Cd. No:66 D:2, 10870 Edremit/Balıkesir, Turkey","address2":"balıkesir/edremit/özlem eczanesi","direction":"https://www.google.com.tr/maps/dir/My+Location/39.5667623,26.7481643"},{"lat":39.5935345,"lng":27.0227427,"name":"Sarıkız Eczanesi","address1":"Gazi İlyas, Hürriyet Cd. No:24, 10300 Edremit/Balıkesir, Turkey","address2":"balıkesir/edremit/sarıkız eczanesi","direction":"https://www.google.com.tr/maps/dir/My+Location/39.5935345,27.0227427"},{"lat":39.5872057,"lng":26.9254729,"name":"Seda Eczanesi","address1":"Akçay, 10300 Edremit/Balıkesir, Turkey","address2":"balıkesir/edremit/seda eczanesi","direction":"https://www.google.com.tr/maps/dir/My+Location/39.5872057,26.9254729"},{"lat":39.5845695,"lng":26.9252985,"name":"Şifa Eczanesi","address1":"Akçay, Turgut Reis Cd. No:15, 10300 Edremit/Balıkesir, Turkey","address2":"balıkesir/edremit/şifa eczanesi","direction":"https://www.google.com.tr/maps/dir/My+Location/39.5845695,26.9252985"},{"lat":39.575838,"lng":27.0407556,"name":"Turker Eczanesi","address1":"Cennetayağı, 10300 Edremit/Balıkesir, Turkey","address2":"balıkesir/edremit/turker eczanesi","direction":"https://www.google.com.tr/maps/dir/My+Location/39.575838,27.0407556"},{"lat":39.575838,"lng":27.0407556,"name":"Türker Eczanesi","address1":"Cennetayağı, 10300 Edremit/Balıkesir, Turkey","address2":"balıkesir/edremit/türker eczanesi","direction":"https://www.google.com.tr/maps/dir/My+Location/39.575838,27.0407556"},{"lat":39.5866288,"lng":26.8845311,"name":"Umut Eczanesi","address1":"güre iskele mahallesi dumanlı caddesi 2.sokak no 18, Güre, 10399 güre/Edremit/Edremit/Balıkesir, Turkey","address2":"balıkesir/edremit/umut eczanesi","direction":"https://www.google.com.tr/maps/dir/My+Location/39.5866288,26.8845311"},{"lat":39.5866288,"lng":26.8845311,"name":"Umut Eczanesi","address1":"güre iskele mahallesi dumanlı caddesi 2.sokak no 18, Güre, 10399 güre/Edremit/Edremit/Balıkesir, Turkey","address2":"balıkesir/edremit/umut eczanesi","direction":"https://www.google.com.tr/maps/dir/My+Location/39.5866288,26.8845311"},{"lat":39.567318,"lng":26.748315,"name":"Yasemin Eczanesi","address1":"Altınoluk, Atatürk Cd. 6. Sk., 10870 Edremit/Balıkesir, Turkey","address2":"balıkesir/edremit/yasemin eczanesi","direction":"https://www.google.com.tr/maps/dir/My+Location/39.567318,26.748315"},{"lat":39.586039,"lng":26.92264,"name":"Yelken Eczanesi","address1":"Akçay, Cumhuriyet Bulv. Eşber Dumanlı Apt. No:31 D:14, 10300 Edremit/Balıkesir, Turkey","address2":"balıkesir/edremit/yelken eczanesi","direction":"https://www.google.com.tr/maps/dir/My+Location/39.586039,26.92264"},{"lat":39.5904352,"lng":27.0179179,"name":"Yücel Eczanesi","address1":"Hamidiye, Azerbeycan Blv. No:34, 10300 Edremit/Balıkesir, Turkey","address2":"balıkesir/edremit/yücel eczanesi","direction":"https://www.google.com.tr/maps/dir/My+Location/39.5904352,27.0179179"},{"lat":40.3981592,"lng":27.7920821,"name":"Doğa Eczanesi","address1":"Yalı, Adnan Menderes Cd. No:4, 10500 Erdek/Balıkesir, Turkey","address2":"balıkesir/erdek/doğa eczanesi","direction":"https://www.google.com.tr/maps/dir/My+Location/40.3981592,27.7920821"},{"lat":40.3981592,"lng":27.7920821,"name":"Doğa Eczanesi","address1":"Yalı, Adnan Menderes Cd. No:4, 10500 Erdek/Balıkesir, Turkey","address2":"balıkesir/erdek/doğa eczanesi","direction":"https://www.google.com.tr/maps/dir/My+Location/40.3981592,27.7920821"},{"lat":40.394506,"lng":27.794924,"name":"Engın Eczanesi","address1":"Yalı, Okul Cd. No. 7/a, 10500 Erdek/Balıkesir, Turkey","address2":"balıkesir/erdek/engın eczanesi","direction":"https://www.google.com.tr/maps/dir/My+Location/40.394506,27.794924"},{"lat":40.398427,"lng":27.791059,"name":"Erdek Eczanesi","address1":"Halitpaşa, Cumhuriyet Cd. No:9/A, 10500 Erdek/Balıkesir, Turkey","address2":"balıkesir/erdek/erdek eczanesi","direction":"https://www.google.com.tr/maps/dir/My+Location/40.398427,27.791059"},{"lat":40.3956974,"lng":27.7924628,"name":"Funda Eczanesi","address1":"4, Yalı, Hükümet Cd., 10500 Erdek/Balıkesir, Turkey","address2":"balıkesir/erdek/funda eczanesi","direction":"https://www.google.com.tr/maps/dir/My+Location/40.3956974,27.7924628"},{"lat":40.394961,"lng":27.794324,"name":"Hacettepe Eczanesi","address1":"Yalı, Okul Cd. NO:24, 10500 Erdek/Balıkesir, Turkey","address2":"balıkesir/erdek/hacettepe eczanesi","direction":"https://www.google.com.tr/maps/dir/My+Location/40.394961,27.794324"},{"lat":40.3981093,"lng":27.7920668,"name":"Onder Eczanesi","address1":"Yalı, Adnan Menderes Cd. No:4, 10500 Erdek/Balıkesir, Turkey","address2":"balıkesir/erdek/onder eczanesi","direction":"https://www.google.com.tr/maps/dir/My+Location/40.3981093,27.7920668"},{"lat":40.395791,"lng":27.792496,"name":"Önkal Eczanesi","address1":"Yalı Mh. Hükümet Cd. No:48/b Pk:10500 Erdek/balıkesir, Yalı, 10500 Erdek/Balıkesir, Turkey","address2":"balıkesir/erdek/önkal eczanesi","direction":"https://www.google.com.tr/maps/dir/My+Location/40.395791,27.792496"},{"lat":40.3981093,"lng":27.7920668,"name":"Yenı Eczanesi","address1":"Yalı, Adnan Menderes Cd. No:4, 10500 Erdek/Balıkesir, Turkey","address2":"balıkesir/erdek/yenı eczanesi","direction":"https://www.google.com.tr/maps/dir/My+Location/40.3981093,27.7920668"},{"lat":40.3966835,"lng":27.7912108,"name":"Yıldızdag Eczanesi","address1":"Yalı, 18 Eylül Cd No:14/A, 10500 Erdek/Balıkesir, Turkey","address2":"balıkesir/erdek/yıldızdag eczanesi","direction":"https://www.google.com.tr/maps/dir/My+Location/40.3966835,27.7912108"},{"lat":40.3966835,"lng":27.7912108,"name":"Yıldızdağ Eczanesi","address1":"Yalı, 18 Eylül Cd No:14/A, 10500 Erdek/Balıkesir, Turkey","address2":"balıkesir/erdek/yıldızdağ eczanesi","direction":"https://www.google.com.tr/maps/dir/My+Location/40.3966835,27.7912108"},{"lat":40.107826,"lng":27.650734,"name":"Akçiçek Eczanesi","address1":"Akçaali, Hüseyin Tümer Cd. 25/A, 10900 Gönen/Balıkesir, Turkey","address2":"balıkesir/gönen/akçiçek eczanesi","direction":"https://www.google.com.tr/maps/dir/My+Location/40.107826,27.650734"},{"lat":40.1050678,"lng":27.6526512,"name":"Başak Eczanesi","address1":"Akçaali, Atatürk Cd. 8/B, 10900 Gönen/Balıkesir, Turkey","address2":"balıkesir/gönen/başak eczanesi","direction":"https://www.google.com.tr/maps/dir/My+Location/40.1050678,27.6526512"},{"lat":40.1105729,"lng":27.6387313,"name":"Boz Eczanesi","address1":"Karşıyaka Mahallesi, Şht. Kadir Aslan Cd. No:66, 10900 Gönen/Balıkesir, Turkey","address2":"balıkesir/gönen/boz eczanesi","direction":"https://www.google.com.tr/maps/dir/My+Location/40.1105729,27.6387313"},{"lat":40.101071,"lng":27.661458,"name":"Duman Eczanesi","address1":"Malkoç, Gündoğdu, Şht. Abdullah Duman Cd. No:3, 10900 Gönen/Balıkesir, Turkey","address2":"balıkesir/gönen/duman eczanesi","direction":"https://www.google.com.tr/maps/dir/My+Location/40.101071,27.661458"},{"lat":40.1087352,"lng":27.6496983,"name":"Esra Eczanesi","address1":"Altay Mahallesi, Şht. Fehmi Ercan Cd. 23/D, 10900 Gönen/Balıkesir, Turkey","address2":"balıkesir/gönen/esra eczanesi","direction":"https://www.google.com.tr/maps/dir/My+Location/40.1087352,27.6496983"},{"lat":40.1061284,"lng":27.649602,"name":"Fazılet Eczanesi","address1":"Akçaali, Müftü Şevket Cd. No:7, 10900 Gönen/Balıkesir, Turkey","address2":"balıkesir/gönen/fazılet eczanesi","direction":"https://www.google.com.tr/maps/dir/My+Location/40.1061284,27.649602"},{"lat":40.10116,"lng":27.651163,"name":"Fulya Eczanesi","address1":"Plevne Mh, fulya eczanesi, 31. Sk. no 2, 10900 Gönen/Balıkesir, Turkey","address2":"balıkesir/gönen/fulya eczanesi","direction":"https://www.google.com.tr/maps/dir/My+Location/40.10116,27.651163"},{"lat":40.110329,"lng":27.660024,"name":"Goknar Eczanesi","address1":"170. Sok. No:34 D:1, Kurtuluş, 10900 Gönen/Balıkesir, Turkey","address2":"balıkesir/gönen/goknar eczanesi","direction":"https://www.google.com.tr/maps/dir/My+Location/40.110329,27.660024"},{"lat":40.101524,"lng":27.6546282,"name":"Gonen Eczanesi","address1":"Malkoç, Maltepe Cd. No:1, 10900 Gönen/Balıkesir, Turkey","address2":"balıkesir/gönen/gonen eczanesi","direction":"https://www.google.com.tr/maps/dir/My+Location/40.101524,27.6546282"},{"lat":40.1087352,"lng":27.6496983,"name":"Güder Eczanesi","address1":"Altay Mahallesi, Şht. Fehmi Ercan Cd. 23/D, 10900 Gönen/Balıkesir, Turkey","address2":"balıkesir/gönen/güder eczanesi","direction":"https://www.google.com.tr/maps/dir/My+Location/40.1087352,27.6496983"},{"lat":40.10899,"lng":27.650796,"name":"Güvenç Eczanesi","address1":"Altay, Pazar Cd. No:3, 10900 Gönen/Balıkesir, Turkey","address2":"balıkesir/gönen/güvenç eczanesi","direction":"https://www.google.com.tr/maps/dir/My+Location/40.10899,27.650796"},{"lat":40.1104155,"lng":27.6592657,"name":"İlkay Eczanesi","address1":"Kurtuluş, 170. Sok. Derya Apt. No:7, 10900 Gönen/Balıkesir, Turkey","address2":"balıkesir/gönen/ilkay eczanesi","direction":"https://www.google.com.tr/maps/dir/My+Location/40.1104155,27.6592657"},{"lat":40.1105729,"lng":27.6387313,"name":"Karsıyaka Eczanesi","address1":"Karşıyaka Mahallesi, Şht. Kadir Aslan Cd. No:66, 10900 Gönen/Balıkesir, Turkey","address2":"balıkesir/gönen/karsıyaka eczanesi","direction":"https://www.google.com.tr/maps/dir/My+Location/40.1105729,27.6387313"},{"lat":40.107966,"lng":27.65124,"name":"Kuçukkoyuncu Eczanesi","address1":"Akçaali, Kurtuluş Cd. No:6, 10900 Gönen/Balıkesir, Turkey","address2":"balıkesir/gönen/kuçukkoyuncu eczanesi","direction":"https://www.google.com.tr/maps/dir/My+Location/40.107966,27.65124"},{"lat":40.110528,"lng":27.6590959,"name":"Meral Eczanesi","address1":"Kurtuluş, Bahar Sk. No:9/A D:2, 10900 Gönen/Balıkesir, Turkey","address2":"balıkesir/gönen/meral eczanesi","direction":"https://www.google.com.tr/maps/dir/My+Location/40.110528,27.6590959"},{"lat":40.1080246,"lng":27.6508389,"name":"Senel Eczanesi","address1":"Altay, Hüseyin Tümer Cd. No:25, 10900, 10900 Gönen/Balıkesir, Turkey","address2":"balıkesir/gönen/senel eczanesi","direction":"https://www.google.com.tr/maps/dir/My+Location/40.1080246,27.6508389"},{"lat":40.1006542,"lng":27.6754372,"name":"Senyuva Eczanesi","address1":"YENİ DEVLET HASTANESİ KARŞISI GÜNDOĞDU MAH. DR. HÜSEYİN DUMAN CAD. NO:38 B, Gündoğdu, 10900 Gönen/Balıkesir, Turkey","address2":"balıkesir/gönen/senyuva eczanesi","direction":"https://www.google.com.tr/maps/dir/My+Location/40.1006542,27.6754372"},{"lat":40.1085624,"lng":27.6513474,"name":"Sermın Eczanesi","address1":"Malkoç, Hüseyin Tümer Cd. No:17, 10900 Gönen/Balıkesir, Turkey","address2":"balıkesir/gönen/sermın eczanesi","direction":"https://www.google.com.tr/maps/dir/My+Location/40.1085624,27.6513474"},{"lat":40.1057674,"lng":27.6515152,"name":"Tokyay Eczanesi","address1":"Akçaali Mh, Atatürk Cd. No:20, Pk:10900 Gönen/Balıkesir, Turkey","address2":"balıkesir/gönen/tokyay eczanesi","direction":"https://www.google.com.tr/maps/dir/My+Location/40.1057674,27.6515152"},{"lat":39.5576221,"lng":27.0998052,"name":"Baloglu Eczanesi","address1":"Camiikebir, Cumhuriyet Cd. No:8, 10560 Havran/Balıkesir, Turkey","address2":"balıkesir/havran/baloglu eczanesi","direction":"https://www.google.com.tr/maps/dir/My+Location/39.5576221,27.0998052"},{"lat":39.5576221,"lng":27.0998052,"name":"Baloğlu Eczanesi","address1":"Camiikebir, Cumhuriyet Cd. No:8, 10560 Havran/Balıkesir, Turkey","address2":"balıkesir/havran/baloğlu eczanesi","direction":"https://www.google.com.tr/maps/dir/My+Location/39.5576221,27.0998052"},{"lat":39.5562274,"lng":27.0967059,"name":"Derman Eczanesi","address1":"Camiikebir, Cumhuriyet Cad. No:81, 10560 Havran/Balıkesir, Turkey","address2":"balıkesir/havran/derman eczanesi","direction":"https://www.google.com.tr/maps/dir/My+Location/39.5562274,27.0967059"},{"lat":39.5625639,"lng":27.0984491,"name":"Karakas Eczanesi","address1":"Yeni, Hastane Cd. No:56/a, 10560 Havran/Balıkesir, Turkey","address2":"balıkesir/havran/karakas eczanesi","direction":"https://www.google.com.tr/maps/dir/My+Location/39.5625639,27.0984491"},{"lat":39.5619042,"lng":27.0985496,"name":"Özenen Eczanesi","address1":"Yeni, Hastane Cd. No:48, 10560 Havran/Balıkesir, Turkey","address2":"balıkesir/havran/özenen eczanesi","direction":"https://www.google.com.tr/maps/dir/My+Location/39.5619042,27.0985496"},{"lat":39.5615766,"lng":27.0988965,"name":"Seyhan Eczanesi","address1":"Yeni, Fatih Cd. No:17, 10560 Havran/Balıkesir, Turkey","address2":"balıkesir/havran/seyhan eczanesi","direction":"https://www.google.com.tr/maps/dir/My+Location/39.5615766,27.0988965"},{"lat":39.557531,"lng":27.0994921,"name":"Sumer Eczanesi","address1":"Camiikebir, Cumhuriyet Cd. No:16, 10560 Havran/Balıkesir, Turkey","address2":"balıkesir/havran/sumer eczanesi","direction":"https://www.google.com.tr/maps/dir/My+Location/39.557531,27.0994921"},{"lat":39.556161,"lng":27.0958449,"name":"Terzioğlu Eczanesi","address1":"Ebubekir, Cumhuriyet Cad. 102/A, 10560 Havran/Balıkesir, Turkey","address2":"balıkesir/havran/terzioğlu eczanesi","direction":"https://www.google.com.tr/maps/dir/My+Location/39.556161,27.0958449"},{"lat":39.556161,"lng":27.0958449,"name":"Terzioğlu Eczanesi","address1":"Ebubekir, Cumhuriyet Cad. 102/A, 10560 Havran/Balıkesir, Turkey","address2":"balıkesir/havran/terzioğlu eczanesi","direction":"https://www.google.com.tr/maps/dir/My+Location/39.556161,27.0958449"},{"lat":39.556172,"lng":27.096125,"name":"Yenı Havran Eczanesi","address1":"Camiikebir, Cumhuriyet Cd. No:14, 10560 Havran/Balıkesir, Turkey","address2":"balıkesir/havran/yenı havran eczanesi","direction":"https://www.google.com.tr/maps/dir/My+Location/39.556172,27.096125"},{"lat":39.581298,"lng":27.4842439,"name":"Aslan Eczanesi","address1":"Sakarya, Zübeyde Hanım Cd. No:10, 10770 İvrindi/Balıkesir, Turkey","address2":"balıkesir/ivrindi/aslan eczanesi","direction":"https://www.google.com.tr/maps/dir/My+Location/39.581298,27.4842439"},{"lat":39.581485,"lng":27.484546,"name":"Doğan Eczanesi","address1":"Sakarya, Zübeyde Hanım Cd. No:4, 10770 İvrindi/Balıkesir, Turkey","address2":"balıkesir/ivrindi/doğan eczanesi","direction":"https://www.google.com.tr/maps/dir/My+Location/39.581485,27.484546"},{"lat":39.581476,"lng":27.4846858,"name":"Elif Eczanesi","address1":"Bedrettin, Zübeyde Hanım Cad. 6/B, 10770 İvrindi/Balıkesir, Turkey","address2":"balıkesir/ivrindi/elif eczanesi","direction":"https://www.google.com.tr/maps/dir/My+Location/39.581476,27.4846858"},{"lat":39.581917,"lng":27.4856512,"name":"Koç Eczanesi","address1":"Bedrettin, Atatürk Cd. No:2/C, 10770 İvrindi/Balıkesir, Turkey","address2":"balıkesir/ivrindi/koç eczanesi","direction":"https://www.google.com.tr/maps/dir/My+Location/39.581917,27.4856512"},{"lat":39.581476,"lng":27.4847789,"name":"Lapanta Eczanesi","address1":"Bedrettin, Zübeyde Hanım Cd. No:5, 10770 İvrindi/Balıkesir, Turkey","address2":"balıkesir/ivrindi/lapanta eczanesi","direction":"https://www.google.com.tr/maps/dir/My+Location/39.581476,27.4847789"},{"lat":39.581084,"lng":27.484484,"name":"Nuri Doğan Eczanesi","address1":"Bedrettin, Atatürk Cd. No:7, 10770 İvrindi/Balıkesir, Turkey","address2":"balıkesir/ivrindi/nuri doğan eczanesi","direction":"https://www.google.com.tr/maps/dir/My+Location/39.581084,27.484484"},{"lat":39.581084,"lng":27.484484,"name":"Nuri Doğan Eczanesi","address1":"Bedrettin, Atatürk Cd. No:7, 10770 İvrindi/Balıkesir, Turkey","address2":"balıkesir/ivrindi/nuri doğan eczanesi","direction":"https://www.google.com.tr/maps/dir/My+Location/39.581084,27.484484"},{"lat":39.686908,"lng":28.151838,"name":"Elıf Eczanesi","address1":"Kasapzade, Şehit Yüzbaşı Kamil Aşık Cad. No:11, 10660 Kepsut/Balıkesir, Turkey","address2":"balıkesir/kepsut/elıf eczanesi","direction":"https://www.google.com.tr/maps/dir/My+Location/39.686908,28.151838"},{"lat":39.687121,"lng":28.151634,"name":"Esra Eczanesi","address1":"Kasapzade, Şehit Yüzbaşı Kamil Aşık Cad. No:5, 10660 Kepsut/Balıkesir, Turkey","address2":"balıkesir/kepsut/esra eczanesi","direction":"https://www.google.com.tr/maps/dir/My+Location/39.687121,28.151634"},{"lat":39.688147,"lng":28.156492,"name":"Filiz Eczanesi","address1":"Camiicedit Mh. Adnan Ercan Cd. Pk:10660 Kepsut/balıkesir, Camiicedit, 10660 Kepsut/Balıkesir, Turkey","address2":"balıkesir/kepsut/filiz eczanesi","direction":"https://www.google.com.tr/maps/dir/My+Location/39.688147,28.156492"},{"lat":39.688147,"lng":28.156492,"name":"Filiz Eczanesi","address1":"Camiicedit Mh. Adnan Ercan Cd. Pk:10660 Kepsut/balıkesir, Camiicedit, 10660 Kepsut/Balıkesir, Turkey","address2":"balıkesir/kepsut/filiz eczanesi","direction":"https://www.google.com.tr/maps/dir/My+Location/39.688147,28.156492"},{"lat":39.688494,"lng":28.155186,"name":"Kara Eczanesi","address1":"Camiicedit, Adnan Ercan Cd. No:108, 10660 Kepsut/Balıkesir, Turkey","address2":"balıkesir/kepsut/kara eczanesi","direction":"https://www.google.com.tr/maps/dir/My+Location/39.688494,28.155186"},{"lat":39.688431,"lng":28.155696,"name":"Kepsut Eczanesi","address1":"Camiicedit Mh. Adnan Ercan Cd. Pk:10660 Kepsut/balıkesir, Camiicedit, 10660 Kepsut/Balıkesir, Turkey","address2":"balıkesir/kepsut/kepsut eczanesi","direction":"https://www.google.com.tr/maps/dir/My+Location/39.688431,28.155696"},{"lat":39.6918447,"lng":28.1561652,"name":"Yeni Akdeniz Eczanesi","address1":"Camiicedit Mh. Şehit Yzb. Kamil Aşık Cd. Pk:10660 Kepsut/balıkesir, Camiicedit, 10660 Kepsut/Balıkesir, Turkey","address2":"balıkesir/kepsut/yeni akdeniz eczanesi","direction":"https://www.google.com.tr/maps/dir/My+Location/39.6918447,28.1561652"},{"lat":39.6918447,"lng":28.1561652,"name":"Yeni Akdeniz Eczanesi","address1":"Camiicedit Mh. Şehit Yzb. Kamil Aşık Cd. Pk:10660 Kepsut/balıkesir, Camiicedit, 10660 Kepsut/Balıkesir, Turkey","address2":"balıkesir/kepsut/yeni akdeniz eczanesi","direction":"https://www.google.com.tr/maps/dir/My+Location/39.6918447,28.1561652"},{"lat":40.047076,"lng":27.971969,"name":"Ali Güven Eczanesi","address1":"Çarşı, Maltepe Cd. No:5, 10470 Manyas/Balıkesir, Turkey","address2":"balıkesir/manyas/ali güven eczanesi","direction":"https://www.google.com.tr/maps/dir/My+Location/40.047076,27.971969"},{"lat":40.047076,"lng":27.971969,"name":"Çarşı Eczanesi","address1":"Yeni, Hükümet Cad. Mimar Sinan Pasajı D:32, 10470 Manyas/Balıkesir, Turkey","address2":"balıkesir/manyas/çarşı eczanesi","direction":"https://www.google.com.tr/maps/dir/My+Location/40.047076,27.971969"},{"lat":40.0478082,"lng":27.9682804,"name":"Eczane Hunca Eczanesi","address1":"Çarşı, İnönü Cd. No:15, 10470 Manyas/Balıkesir, Turkey","address2":"balıkesir/manyas/eczane hunca eczanesi","direction":"https://www.google.com.tr/maps/dir/My+Location/40.0478082,27.9682804"},{"lat":40.0476866,"lng":27.9674771,"name":"Ozek Eczanesi","address1":"No:, Çarşı, Maltepe Cd. No:10, 10470 Manyas/Balıkesir, Turkey","address2":"balıkesir/manyas/ozek eczanesi","direction":"https://www.google.com.tr/maps/dir/My+Location/40.0476866,27.9674771"},{"lat":40.0479843,"lng":27.9674693,"name":"Tok Eczanesi","address1":"Çarşı, İnönü Cd. No:1, 10470 Manyas/Balıkesir, Turkey","address2":"balıkesir/manyas/tok eczanesi","direction":"https://www.google.com.tr/maps/dir/My+Location/40.0479843,27.9674693"},{"lat":39.652842,"lng":27.892237,"name":"Acar Eczanesi","address1":"Atatürk, Yeni Hst. Cd. 17 A, 10020 Karesi/Balıkesir, Turkey","address2":"balıkesir/karesi/acar eczanesi","direction":"https://www.google.com.tr/maps/dir/My+Location/39.652842,27.892237"},{"lat":39.6535889,"lng":27.890311,"name":"Afacan Babuşcular Eczanesi","address1":"Ali Hikmet Paşa, Tarlabaşı Cd. 79 B, 10020 Balıkesir Merkez/Balıkesir, Turkey","address2":"balıkesir/balıkesir merkez/afacan babuşcular eczanesi","direction":"https://www.google.com.tr/maps/dir/My+Location/39.6535889,27.890311"},{"lat":39.6549525,"lng":27.8908813,"name":"Alver Eczanesi","address1":"Ali Hikmet Paşa Mahallesi, Ömer Alibey Cd. No:19/1, 10020 Karesi/Balıkesir, Turkey","address2":"balıkesir/karesi/alver eczanesi","direction":"https://www.google.com.tr/maps/dir/My+Location/39.6549525,27.8908813"},{"lat":39.6062857,"lng":27.8311428,"name":"Arı Eczanesi","address1":"Balıkesir Merkez, Balıkesir, Turkey","address2":"balıkesir/karesi/arı eczanesi","direction":"https://www.google.com.tr/maps/dir/My+Location/39.6062857,27.8311428"},{"lat":39.646435,"lng":27.882646,"name":"Asrı Eczanesi","address1":"Eski Kuyumcular Mh, Mekik Sk., 10100 Karesi/Balıkesir, Turkey","address2":"balıkesir/karesi/asrı eczanesi","direction":"https://www.google.com.tr/maps/dir/My+Location/39.646435,27.882646"},{"lat":39.654858,"lng":27.8887169,"name":"Atakan Eczanesi","address1":"Ali Hikmet Paşa, Hatip Sk. No:38, 10020 Balıkesir Merkez/Balıkesir, Turkey","address2":"balıkesir/balıkesir merkez/atakan eczanesi","direction":"https://www.google.com.tr/maps/dir/My+Location/39.654858,27.8887169"},{"lat":39.6382978,"lng":27.908024,"name":"Aysegul Eczanesi","address1":"Gümüsçesme, Cengiz Topel Cd. NO:211, 10050 Altıeylül/Balıkesir, Turkey","address2":"balıkesir/altıeylül/aysegul eczanesi","direction":"https://www.google.com.tr/maps/dir/My+Location/39.6382978,27.908024"},{"lat":39.6455924,"lng":27.8788194,"name":"Aytekın Eczanesi","address1":"Dumlupınar, 10100 Balıkesir Merkez/Balıkesir, Turkey","address2":"balıkesir/balıkesir merkez/aytekın eczanesi","direction":"https://www.google.com.tr/maps/dir/My+Location/39.6455924,27.8788194"},{"lat":39.6508045,"lng":27.8807972,"name":"Bacakoglu Eczanesi","address1":"Altı Eylül, Turan Cad. No:23/A, 10010 Balıkesir Merkez/Balıkesir, Turkey","address2":"balıkesir/balıkesir merkez/bacakoglu eczanesi","direction":"https://www.google.com.tr/maps/dir/My+Location/39.6508045,27.8807972"},{"lat":39.6216659,"lng":27.8963653,"name":"Balıkesir Eczanesi","address1":"Bahçelievler, Savaştepe Cd. 66/A, 10040 Altıeylül/Balıkesir, Turkey","address2":"balıkesir/altıeylül/balıkesir eczanesi","direction":"https://www.google.com.tr/maps/dir/My+Location/39.6216659,27.8963653"},{"lat":39.6216659,"lng":27.8963653,"name":"Balıkesir Eczanesi","address1":"Bahçelievler, Savaştepe Cd. 66/A, 10040 Altıeylül/Balıkesir, Turkey","address2":"balıkesir/altıeylül/balıkesir eczanesi","direction":"https://www.google.com.tr/maps/dir/My+Location/39.6216659,27.8963653"},{"lat":39.6475794,"lng":27.8810916,"name":"Balkır Eczanesi","address1":"Kasaplar, Anafartalar Cd. No:110, 10100 Balıkesir Merkez/Balıkesir, Turkey","address2":"balıkesir/balıkesir merkez/balkır eczanesi","direction":"https://www.google.com.tr/maps/dir/My+Location/39.6475794,27.8810916"},{"lat":39.6192956,"lng":27.8968627,"name":"Barış Eczanesi","address1":"Plevne, Cumhuriyet Cd., 10050 Altıeylül/Balıkesir, Turkey","address2":"balıkesir/altıeylül/barış eczanesi","direction":"https://www.google.com.tr/maps/dir/My+Location/39.6192956,27.8968627"},{"lat":39.628765,"lng":27.879881,"name":"Begüm Eczanesi","address1":"Sütlüce, Hastane Cd. 6 B, 10100 Balıkesir Merkez/Balıkesir, Turkey","address2":"balıkesir/balıkesir merkez/begüm eczanesi","direction":"https://www.google.com.tr/maps/dir/My+Location/39.628765,27.879881"},{"lat":39.65339,"lng":27.8940589,"name":"Bilgiç Eczanesi","address1":"Atatürk, Turgut Reis Cd. No:46, 10020 Balıkesir Merkez/Balıkesir, Turkey","address2":"balıkesir/balıkesir merkez/bilgiç eczanesi","direction":"https://www.google.com.tr/maps/dir/My+Location/39.65339,27.8940589"},{"lat":39.6115507,"lng":27.8753003,"name":"Budakoğlu Eczanesi","address1":"Gazi Osman paşa mahallesi Yeni şehir hastanesi karşısı, Gaziosmanpaşa, 10100 Balıkesir Merkez/Balıkesir, Turkey","address2":"balıkesir/balıkesir merkez/budakoğlu eczanesi","direction":"https://www.google.com.tr/maps/dir/My+Location/39.6115507,27.8753003"},{"lat":39.6567855,"lng":27.8920304,"name":"Buket Eczanesi","address1":"Ali Hikmet Paşa, Ömer Alibey Cd. 1/c, 10010 Balıkesir Merkez/Balıkesir, Turkey","address2":"balıkesir/balıkesir merkez/buket eczanesi","direction":"https://www.google.com.tr/maps/dir/My+Location/39.6567855,27.8920304"},{"lat":39.625341,"lng":27.887499,"name":"Burcu Eczanesi","address1":"No:105/ A, Plevne, 10050 Altıeylül/Balıkesir, Turkey","address2":"balıkesir/altıeylül/burcu eczanesi","direction":"https://www.google.com.tr/maps/dir/My+Location/39.625341,27.887499"},{"lat":39.618834,"lng":27.888249,"name":"Buse Eczanesi","address1":"Gaziosmanpaşa, 132. Sk. 18-A, 10080 Altıeylül/Balıkesir, Turkey","address2":"balıkesir/altıeylül/buse eczanesi","direction":"https://www.google.com.tr/maps/dir/My+Location/39.618834,27.888249"},{"lat":39.645367,"lng":27.8822221,"name":"Çagdas Eczanesi","address1":"Altı Eylül, Kızılay Cd. 16 A, 10100 Balıkesir Merkez/Balıkesir, Turkey","address2":"balıkesir/balıkesir merkez/çagdas eczanesi","direction":"https://www.google.com.tr/maps/dir/My+Location/39.645367,27.8822221"},{"lat":39.6513101,"lng":27.8881601,"name":"Canan Eczanesi","address1":"Ege, Demirciler Cd. No: 81, 10020 Karesi/Balıkesir, Turkey","address2":"balıkesir/karesi/canan eczanesi","direction":"https://www.google.com.tr/maps/dir/My+Location/39.6513101,27.8881601"},{"lat":39.6550146,"lng":27.8891943,"name":"Canbay Eczanesi","address1":"Ali Hikmet Paşa, Hatip Sk. 38 A, 10020 Balıkesir Merkez/Balıkesir, Turkey","address2":"balıkesir/balıkesir merkez/canbay eczanesi","direction":"https://www.google.com.tr/maps/dir/My+Location/39.6550146,27.8891943"},{"lat":39.64732,"lng":27.8843468,"name":"Cankorur Eczanesi","address1":"Eski Kuyumcular, 10100 Balıkesir Merkez/Balıkesir, Turkey","address2":"balıkesir/balıkesir merkez/cankorur eczanesi","direction":"https://www.google.com.tr/maps/dir/My+Location/39.64732,27.8843468"},{"lat":39.641434,"lng":27.8817128,"name":"Çardaklı Eczanesi","address1":"Kasaplar, Burçak Sk. No:7, 10100 Balıkesir Merkez/Balıkesir, Turkey","address2":"balıkesir/balıkesir merkez/çardaklı eczanesi","direction":"https://www.google.com.tr/maps/dir/My+Location/39.641434,27.8817128"},{"lat":39.6453783,"lng":27.8789114,"name":"Çetınel Eczanesi","address1":"Saat Kulesi Arkası,Anafartalar Karakolu Karşısı, Dumlupınar, Ali Hikmet Paşa Cd., 10100 Karesi/Balıkesir, Turkey","address2":"balıkesir/karesi/çetınel eczanesi","direction":"https://www.google.com.tr/maps/dir/My+Location/39.6453783,27.8789114"},{"lat":39.66518,"lng":27.9097043,"name":"Ceyda Eczanesi","address1":"Paşa Alanı Mh. 128. Sk. Pk:10020 Merkez/balıkesir, Paşa Alanı, 10020 Karesi/Balıkesir, Turkey","address2":"balıkesir/karesi/ceyda eczanesi","direction":"https://www.google.com.tr/maps/dir/My+Location/39.66518,27.9097043"},{"lat":39.645433,"lng":27.878704,"name":"Dedebas Eczanesi","address1":"No: Balıkesir, Karesi, Dindiren Sk. No:32, 10100 Balıkesir Merkez/Balıkesir, Turkey","address2":"balıkesir/balıkesir merkez/dedebas eczanesi","direction":"https://www.google.com.tr/maps/dir/My+Location/39.645433,27.878704"},{"lat":39.640633,"lng":27.881408,"name":"Denizler Eczanesi","address1":"Altı Eylül, Sındırgı Cd. 4/C, 10100 Altıeylül/Balıkesir, Turkey","address2":"balıkesir/altıeylül/denizler eczanesi","direction":"https://www.google.com.tr/maps/dir/My+Location/39.640633,27.881408"},{"lat":39.6548657,"lng":27.8860496,"name":"Deva Eczanesi","address1":"Ali Hikmet Paşa, Yeniyol Cd. No:35, 10020 Balıkesir Merkez/Balıkesir, Turkey","address2":"balıkesir/balıkesir merkez/deva eczanesi","direction":"https://www.google.com.tr/maps/dir/My+Location/39.6548657,27.8860496"},{"lat":39.6190509,"lng":27.9017688,"name":"Dılara Eczanesi","address1":"Bahçelievler, 100. Yıl Teknik Lisesi Cd. No:289, 10050 Altıeylül/Balıkesir, Turkey","address2":"balıkesir/altıeylül/dılara eczanesi","direction":"https://www.google.com.tr/maps/dir/My+Location/39.6190509,27.9017688"},{"lat":39.6470618,"lng":27.8827512,"name":"Dınç Eczanesi","address1":"Eski Kuyumcular, Çavuş Sk. No:5/A, 10100 Balıkesir Merkez/Balıkesir, Turkey","address2":"balıkesir/balıkesir merkez/dınç eczanesi","direction":"https://www.google.com.tr/maps/dir/My+Location/39.6470618,27.8827512"},{"lat":39.6638017,"lng":27.896502,"name":"Doruk Eczanesi","address1":"Paşa Alanı, Sıtkı Yırcalı Cad. 85/C, 10020 Balıkesir Merkez/Balıkesir, Turkey","address2":"balıkesir/balıkesir merkez/doruk eczanesi","direction":"https://www.google.com.tr/maps/dir/My+Location/39.6638017,27.896502"},{"lat":39.6539174,"lng":27.8904576,"name":"Duygu Eczanesi","address1":"Ali Hikmet Paşa Mah, Yeniyol Cd. No:11, 10020 Karesi/Balıkesir, Turkey","address2":"balıkesir/karesi/duygu eczanesi","direction":"https://www.google.com.tr/maps/dir/My+Location/39.6539174,27.8904576"},{"lat":39.650842,"lng":27.8562933,"name":"Eraslan Eczanesi","address1":"Hacı İlbey, Ali Hikmet Paşa Cd. No:27, 10100 Balıkesir Merkez/Balıkesir, Turkey","address2":"balıkesir/balıkesir merkez/eraslan eczanesi","direction":"https://www.google.com.tr/maps/dir/My+Location/39.650842,27.8562933"},{"lat":39.6527083,"lng":27.8922096,"name":"Gökben Eczanesi","address1":"Atatürk, Yeni Hst. Cd. 13 A, 10020 Balıkesir Merkez/Balıkesir, Turkey","address2":"balıkesir/balıkesir merkez/gökben eczanesi","direction":"https://www.google.com.tr/maps/dir/My+Location/39.6527083,27.8922096"},{"lat":39.6550991,"lng":27.8895881,"name":"Gokçen Eczanesi","address1":"Ali Hikmet Paşa, Şahin Sk. No:6, 10020 Balıkesir Merkez/Balıkesir, Turkey","address2":"balıkesir/balıkesir merkez/gokçen eczanesi","direction":"https://www.google.com.tr/maps/dir/My+Location/39.6550991,27.8895881"},{"lat":39.641166,"lng":27.881639,"name":"Gülsah Eczanesi","address1":"Kasaplar Mh. Atalar Cd. Pk:10100 Merkez/balıkesir, Kasaplar, 10100 Altıeylül/Balıkesir, Turkey","address2":"balıkesir/altıeylül/gülsah eczanesi","direction":"https://www.google.com.tr/maps/dir/My+Location/39.641166,27.881639"},{"lat":39.653622,"lng":27.8972952,"name":"Hancılar Eczanesi","address1":"Atatürk, Bandırma Cad. Surek Apt. D:76/a, 10020 Balıkesir Merkez/Balıkesir, Turkey","address2":"balıkesir/balıkesir merkez/hancılar eczanesi","direction":"https://www.google.com.tr/maps/dir/My+Location/39.653622,27.8972952"},{"lat":39.6549525,"lng":27.8908813,"name":"Ilter Eczanesi","address1":"Ali Hikmet Paşa, Ömer Alibey Cd. No:21, 10020 Karesi/Balıkesir, Turkey","address2":"balıkesir/karesi/ilter eczanesi","direction":"https://www.google.com.tr/maps/dir/My+Location/39.6549525,27.8908813"},{"lat":39.613227,"lng":27.888807,"name":"Kaçar Eczanesi","address1":"Gaziosmanpaşa, 209. Sk. D:NO . 27, 10100 Altıeylül/Balıkesir, Turkey","address2":"balıkesir/altıeylül/kaçar eczanesi","direction":"https://www.google.com.tr/maps/dir/My+Location/39.613227,27.888807"},{"lat":39.6456788,"lng":27.8809579,"name":"Karahan Eczanesi","address1":"Eski Kuyumcular, Kızılay Cd. No:9, 10100 Karesi/Balıkesir, Turkey","address2":"balıkesir/karesi/karahan eczanesi","direction":"https://www.google.com.tr/maps/dir/My+Location/39.6456788,27.8809579"},{"lat":39.6291486,"lng":27.8804146,"name":"Kaya Eczanesi","address1":"Sütlüce, Soma Cd. no:84, 10100 Balıkesir Merkez/Balıkesir, Turkey","address2":"balıkesir/balıkesir merkez/kaya eczanesi","direction":"https://www.google.com.tr/maps/dir/My+Location/39.6291486,27.8804146"},{"lat":39.641575,"lng":27.8819267,"name":"Kemal Kıymaz Eczanesi","address1":"Kasaplar, Atalar Cad. No:166, 10100 Balıkesir Merkez/Balıkesir, Turkey","address2":"balıkesir/balıkesir merkez/kemal kıymaz eczanesi","direction":"https://www.google.com.tr/maps/dir/My+Location/39.641575,27.8819267"},{"lat":39.6465972,"lng":27.882285,"name":"Kent Eczanesi","address1":"Altı Eylül, Yeşilli Meydanı Abdulgafur Efendi Cad. No:3, 10010 Balıkesir Merkez/Balıkesir, Turkey","address2":"balıkesir/balıkesir merkez/kent eczanesi","direction":"https://www.google.com.tr/maps/dir/My+Location/39.6465972,27.882285"},{"lat":39.6532858,"lng":27.8903393,"name":"Kepsutlu Eczanesi","address1":"Ali Hikmet Paşa Mahallesi, eski acil girişi karşısı, Yeniyol Cd., 10020 Balıkesir Merkez/Balıkesir, Turkey","address2":"balıkesir/balıkesir merkez/kepsutlu eczanesi","direction":"https://www.google.com.tr/maps/dir/My+Location/39.6532858,27.8903393"},{"lat":39.6258468,"lng":27.8871875,"name":"Kesen Eczanesi","address1":"Plevne, Şht. Birol Koç Cd. No:97C, 10050 Altıeylül/Balıkesir, Turkey","address2":"balıkesir/altıeylül/kesen eczanesi","direction":"https://www.google.com.tr/maps/dir/My+Location/39.6258468,27.8871875"},{"lat":39.6532862,"lng":27.8892433,"name":"Kıral Eczanesi","address1":"Ege, Tarlabaşı Cd. 74/E, 10020 Balıkesir Merkez/Balıkesir, Turkey","address2":"balıkesir/balıkesir merkez/kıral eczanesi","direction":"https://www.google.com.tr/maps/dir/My+Location/39.6532862,27.8892433"},{"lat":39.628757,"lng":27.879581,"name":"Kurtdereli Eczanesi","address1":"Sütlüce Mh. Hastane Cd. Pk:10100 Merkez/balıkesir, Sütlüce, 10100 Altıeylül/Balıkesir, Turkey","address2":"balıkesir/altıeylül/kurtdereli eczanesi","direction":"https://www.google.com.tr/maps/dir/My+Location/39.628757,27.879581"},{"lat":39.6399879,"lng":27.8806274,"name":"Mehmetçık Eczanesi","address1":"Kasaplar, Soma Cd. No:9, 10100 Balıkesir Merkez/Balıkesir, Turkey","address2":"balıkesir/balıkesir merkez/mehmetçık eczanesi","direction":"https://www.google.com.tr/maps/dir/My+Location/39.6399879,27.8806274"},{"lat":39.667571,"lng":27.912392,"name":"Müderris Eczanesi","address1":"Atatürk, 128. Sok. No:26/A, 10020 Balıkesir Merkez/Balıkesir, Turkey","address2":"balıkesir/balıkesir merkez/müderris eczanesi","direction":"https://www.google.com.tr/maps/dir/My+Location/39.667571,27.912392"},{"lat":39.6551329,"lng":27.8891974,"name":"Nılay Eczanesi","address1":"Ali Hikmet Paşa, Hatip Sk. 40 A, 10020 Balıkesir Merkez/Balıkesir, Turkey","address2":"balıkesir/balıkesir merkez/nılay eczanesi","direction":"https://www.google.com.tr/maps/dir/My+Location/39.6551329,27.8891974"},{"lat":39.6499747,"lng":27.8827989,"name":"Ontan Eczanesi","address1":"Yıldırım, Yıldırım Cd. No:11, 10010 Merkez/Karesi/Balıkesir, Turkey","address2":"balıkesir/karesi/ontan eczanesi","direction":"https://www.google.com.tr/maps/dir/My+Location/39.6499747,27.8827989"},{"lat":39.6291447,"lng":27.8804134,"name":"Özen Eczanesi","address1":"Sütlüce, Soma Cd. No:86, 10100 Altıeylül/Balıkesir, Turkey","address2":"balıkesir/altıeylül/özen eczanesi","direction":"https://www.google.com.tr/maps/dir/My+Location/39.6291447,27.8804134"},{"lat":39.653756,"lng":27.8904193,"name":"Ozenç Eczanesi","address1":"Ali Hikmet Paşa, Ömer Alibey Cd. 9/A, 10020 Karesi/Balıkesir, Turkey","address2":"balıkesir/karesi/ozenç eczanesi","direction":"https://www.google.com.tr/maps/dir/My+Location/39.653756,27.8904193"},{"lat":39.64784,"lng":27.88295,"name":"Ozmelek Eczanesi","address1":"Karesi, Milli Kuvvetler Cd. No:23/A, 10100 Karesi/Balıkesir, Turkey","address2":"balıkesir/karesi/ozmelek eczanesi","direction":"https://www.google.com.tr/maps/dir/My+Location/39.64784,27.88295"},{"lat":39.6511722,"lng":27.8876343,"name":"Özmen-Şule Eczanesi","address1":"Ege, Demirciler Cd. 67 A D:67 A, 10020 Balıkesir Merkez/Balıkesir, Turkey","address2":"balıkesir/balıkesir merkez/özmen-şule eczanesi","direction":"https://www.google.com.tr/maps/dir/My+Location/39.6511722,27.8876343"},{"lat":39.645863,"lng":27.905139,"name":"Oztuzcu Eczanesi","address1":"2. Gündoğan, Atay Cd. No:136, 10040 Altıeylül/Balıkesir, Turkey","address2":"balıkesir/altıeylül/oztuzcu eczanesi","direction":"https://www.google.com.tr/maps/dir/My+Location/39.645863,27.905139"},{"lat":39.6318589,"lng":27.8926607,"name":"Palabıyık Eczanesi","address1":"Bahçelievler, Mert Sk., 10050 Altıeylül/Balıkesir, Turkey","address2":"balıkesir/altıeylül/palabıyık eczanesi","direction":"https://www.google.com.tr/maps/dir/My+Location/39.6318589,27.8926607"},{"lat":39.6524888,"lng":27.8840305,"name":"Perıhan Eczanesi","address1":"Ege, Altay Cd. 36 A, 10020 Balıkesir Merkez/Balıkesir, Turkey","address2":"balıkesir/balıkesir merkez/perıhan eczanesi","direction":"https://www.google.com.tr/maps/dir/My+Location/39.6524888,27.8840305"},{"lat":39.6549525,"lng":27.8908813,"name":"Şeker Eczanesi","address1":"alihikmet paşa mah, ömeralibey caddesi no:13/a, 10020 Balıkesir Merkez/Balıkesir, Turkey","address2":"balıkesir/balıkesir merkez/şeker eczanesi","direction":"https://www.google.com.tr/maps/dir/My+Location/39.6549525,27.8908813"},{"lat":39.6532976,"lng":27.8903423,"name":"Şeker Eczanesi","address1":"Balıkesir, Turkey","address2":"balıkesir/balıkesir merkez/şeker eczanesi","direction":"https://www.google.com.tr/maps/dir/My+Location/39.6532976,27.8903423"},{"lat":39.628696,"lng":27.879618,"name":"Selale Eczanesi","address1":"Adnanmenderes, Hastane Cad. 2/A D:10, 10100 Balıkesir Merkez/Balıkesir, Turkey","address2":"balıkesir/balıkesir merkez/selale eczanesi","direction":"https://www.google.com.tr/maps/dir/My+Location/39.628696,27.879618"},{"lat":39.6426539,"lng":27.8810106,"name":"Serra Eczanesi","address1":"Hacı İlbey, Anafartalar Cd. NO:77, 10100 Altıeylül/Balıkesir, Turkey","address2":"balıkesir/altıeylül/serra eczanesi","direction":"https://www.google.com.tr/maps/dir/My+Location/39.6426539,27.8810106"},{"lat":39.651204,"lng":27.8808818,"name":"Serra Eczanesi","address1":"Hisariçi, 10100 Balıkesir Merkez/Balıkesir, Turkey","address2":"balıkesir/balıkesir merkez/serra eczanesi","direction":"https://www.google.com.tr/maps/dir/My+Location/39.651204,27.8808818"},{"lat":39.64659,"lng":27.8822852,"name":"Seymen Eczanesi","address1":"Abdulgafur Efendi Cd. Hilmi Çakır İşhanı No:5, Eski Kuyumcular, 10100 Karesi/Balıkesir, Turkey","address2":"balıkesir/karesi/seymen eczanesi","direction":"https://www.google.com.tr/maps/dir/My+Location/39.64659,27.8822852"},{"lat":39.6454541,"lng":27.8818332,"name":"Sıhhat Eczanesi","address1":"Altı Eylül, Kızılay Cd., 10100 Altıeylül/Balıkesir, Turkey","address2":"balıkesir/altıeylül/sıhhat eczanesi","direction":"https://www.google.com.tr/maps/dir/My+Location/39.6454541,27.8818332"},{"lat":39.6257799,"lng":27.8871954,"name":"Sırma Eczanesi","address1":"Plevne Mh. Şehit Birol Koç Cd. No: 115 Pk:10050 Merkez/balıkesir, Plevne, 10050 ALTIEYLÜL/Altıeylül/Balıkesir, Turkey","address2":"balıkesir/altıeylül/sırma eczanesi","direction":"https://www.google.com.tr/maps/dir/My+Location/39.6257799,27.8871954"},{"lat":39.6730026,"lng":27.8847239,"name":"Soylu Eczanesi","address1":"Gazi Osmanpaşa Mahallesi, 172. Sk. No :12 D:A, 10100 Merkez/Balıkesir, Turkey","address2":"balıkesir/merkez/soylu eczanesi","direction":"https://www.google.com.tr/maps/dir/My+Location/39.6730026,27.8847239"},{"lat":39.63686,"lng":27.8965778,"name":"Stad Eczanesi","address1":"Hasan Basri Çantay, Sağlıkçı Sk. 1 A, 10050 Balıkesir Merkez/Balıkesir, Turkey","address2":"balıkesir/balıkesir merkez/stad eczanesi","direction":"https://www.google.com.tr/maps/dir/My+Location/39.63686,27.8965778"},{"lat":39.652895,"lng":27.891754,"name":"Tırıtoglu Eczanesi","address1":"No, Atatürk, 2. Hürriyet Sk. No:24, 10100 Karesi/Balıkesir Merkez/Balıkesir, Turkey","address2":"balıkesir/balıkesir merkez/tırıtoglu eczanesi","direction":"https://www.google.com.tr/maps/dir/My+Location/39.652895,27.891754"},{"lat":39.652943,"lng":27.892655,"name":"Tunalılar Eczanesi","address1":"Atatürk, Turgut Reis Cad. No:28, 10020 Balıkesir Merkez/Balıkesir, Turkey","address2":"balıkesir/balıkesir merkez/tunalılar eczanesi","direction":"https://www.google.com.tr/maps/dir/My+Location/39.652943,27.892655"},{"lat":39.646671,"lng":27.882282,"name":"Tunç Eczanesi","address1":"Eski Kuyumcular, 10100 Balıkesir Merkez/Balıkesir, Turkey","address2":"balıkesir/balıkesir merkez/tunç eczanesi","direction":"https://www.google.com.tr/maps/dir/My+Location/39.646671,27.882282"},{"lat":39.6560645,"lng":27.8791876,"name":"Turgut Eczanesi","address1":"Altı Eylül, Çavuş Sok. No:3, 10030 Balıkesir Merkez/Balıkesir, Turkey","address2":"balıkesir/balıkesir merkez/turgut eczanesi","direction":"https://www.google.com.tr/maps/dir/My+Location/39.6560645,27.8791876"},{"lat":39.6451637,"lng":27.8827685,"name":"Ugurlu Eczanesi","address1":"Altı Eylül, Kızılay Cd. NO 22/D, 10100 Balıkesir Merkez/Balıkesir, Turkey","address2":"balıkesir/balıkesir merkez/ugurlu eczanesi","direction":"https://www.google.com.tr/maps/dir/My+Location/39.6451637,27.8827685"},{"lat":39.6369334,"lng":27.8971697,"name":"Ulu Eczanesi","address1":"Hasan Basri Çantay, Gonca Cd. 11 A, 10050 Balıkesir Merkez/Balıkesir, Turkey","address2":"balıkesir/balıkesir merkez/ulu eczanesi","direction":"https://www.google.com.tr/maps/dir/My+Location/39.6369334,27.8971697"},{"lat":39.6526902,"lng":27.8925208,"name":"Vatan Eczanesi","address1":"Atatürk, Yeni Hst. Cd. no14, 10020 Balıkesir Merkez/Balıkesir, Turkey","address2":"balıkesir/balıkesir merkez/vatan eczanesi","direction":"https://www.google.com.tr/maps/dir/My+Location/39.6526902,27.8925208"},{"lat":39.6532858,"lng":27.8903393,"name":"Volkan Eczanesi","address1":"Ali Hikmet Paşa Mahallesi, eski acil girişi karşısı, Yeniyol Cd., 10020 Balıkesir Merkez/Balıkesir, Turkey","address2":"balıkesir/balıkesir merkez/volkan eczanesi","direction":"https://www.google.com.tr/maps/dir/My+Location/39.6532858,27.8903393"},{"lat":39.651204,"lng":27.8808818,"name":"Y.Kavunoğlu Eczanesi","address1":"Hisariçi, 10100 Balıkesir Merkez/Balıkesir, Turkey","address2":"balıkesir/balıkesir merkez/y.kavunoğlu eczanesi","direction":"https://www.google.com.tr/maps/dir/My+Location/39.651204,27.8808818"},{"lat":39.655106,"lng":27.8886719,"name":"Yavuz Eczanesi","address1":"Ali Hikmet Paşa, Ekin Sk. No:45, 10020 Balıkesir Merkez/Balıkesir, Turkey","address2":"balıkesir/balıkesir merkez/yavuz eczanesi","direction":"https://www.google.com.tr/maps/dir/My+Location/39.655106,27.8886719"},{"lat":39.655106,"lng":27.8886719,"name":"Yavuz Eczanesi","address1":"Ali Hikmet Paşa, Ekin Sk. No:45, 10020 Balıkesir Merkez/Balıkesir, Turkey","address2":"balıkesir/balıkesir merkez/yavuz eczanesi","direction":"https://www.google.com.tr/maps/dir/My+Location/39.655106,27.8886719"},{"lat":39.651204,"lng":27.8808818,"name":"Yenı Kavunoglu Eczanesi","address1":"Hisariçi, 10100 Balıkesir Merkez/Balıkesir, Turkey","address2":"balıkesir/balıkesir merkez/yenı kavunoglu eczanesi","direction":"https://www.google.com.tr/maps/dir/My+Location/39.651204,27.8808818"},{"lat":39.64753,"lng":27.8817519,"name":"Yenisu Eczanesi","address1":"Eski Kuyumcular, Yeşilli Cad. 11/A, 10010 Merkez/Karesi/Balıkesir, Turkey","address2":"balıkesir/karesi/yenisu eczanesi","direction":"https://www.google.com.tr/maps/dir/My+Location/39.64753,27.8817519"},{"lat":39.6462301,"lng":27.8842106,"name":"Yeşilli Eczanesi","address1":"E.Kuyumcular Mahellesi hükümet caddesi no 13 donas yanı migros karşısı, Eski Kuyumcular, 10100 Karesi/Balıkesir, Turkey","address2":"balıkesir/karesi/yeşilli eczanesi","direction":"https://www.google.com.tr/maps/dir/My+Location/39.6462301,27.8842106"},{"lat":39.6534176,"lng":27.8839197,"name":"Yılmaz Eczanesi","address1":"Paşa Alanı, Altay Cad. No:41, 10020 Balıkesir Merkez/Balıkesir, Turkey","address2":"balıkesir/balıkesir merkez/yılmaz eczanesi","direction":"https://www.google.com.tr/maps/dir/My+Location/39.6534176,27.8839197"},{"lat":39.627918,"lng":27.880437,"name":"Zagnos Eczanesi","address1":"Yıldız Mh. Soma Cd. Pk:10100 Merkez/balıkesir, Yıldız, 10100 Altıeylül/Balıkesir, Turkey","address2":"balıkesir/altıeylül/zagnos eczanesi","direction":"https://www.google.com.tr/maps/dir/My+Location/39.627918,27.880437"},{"lat":39.238849,"lng":28.174979,"name":"Ayse Eczanesi","address1":"Kurtuluş, Cumhuriyet Meydanı No:7/B, 10330 Sındırgı/Balıkesir, Turkey","address2":"balıkesir/sındırgı/ayse eczanesi","direction":"https://www.google.com.tr/maps/dir/My+Location/39.238849,28.174979"},{"lat":39.238788,"lng":28.174939,"name":"Eroglu Eczanesi","address1":"Kurtuluş, Cumhuriyet Meydanı No:7, 10330 Sındırgı/Balıkesir, Turkey","address2":"balıkesir/sındırgı/eroglu eczanesi","direction":"https://www.google.com.tr/maps/dir/My+Location/39.238788,28.174939"},{"lat":39.24,"lng":28.175,"name":"Ilknur Eczanesi","address1":"Kurtuluş, Cumhuriyet Meydanı No:2/A D:No:2/A, 10330 Sındırgı/Balıkesir, Turkey","address2":"balıkesir/sındırgı/ilknur eczanesi","direction":"https://www.google.com.tr/maps/dir/My+Location/39.24,28.175"},{"lat":39.2390794,"lng":28.1735597,"name":"Isık Eczanesi","address1":"Kurtuluş, Akhisar Cd. No:24/A, 10330 Sındırgı/Balıkesir, Turkey","address2":"balıkesir/sındırgı/isık eczanesi","direction":"https://www.google.com.tr/maps/dir/My+Location/39.2390794,28.1735597"},{"lat":39.239653,"lng":28.174799,"name":"Kamil Eczanesi","address1":"Kurtuluş Mh. Balıkesir Cd. Pk:10330 Sındırgı/balıkesir, Kurtuluş, 10330 Sındırgı/Balıkesir, Turkey","address2":"balıkesir/sındırgı/kamil eczanesi","direction":"https://www.google.com.tr/maps/dir/My+Location/39.239653,28.174799"},{"lat":39.239653,"lng":28.174799,"name":"Kamil Eczanesi","address1":"Kurtuluş Mh. Balıkesir Cd. Pk:10330 Sındırgı/balıkesir, Kurtuluş, 10330 Sındırgı/Balıkesir, Turkey","address2":"balıkesir/sındırgı/kamil eczanesi","direction":"https://www.google.com.tr/maps/dir/My+Location/39.239653,28.174799"},{"lat":39.239008,"lng":28.174045,"name":"Sağlık Eczanesi","address1":"Kurtuluş, Akhisar Cd. No:16, 10330 Sındırgı/Balıkesir, Turkey","address2":"balıkesir/sındırgı/sağlık eczanesi","direction":"https://www.google.com.tr/maps/dir/My+Location/39.239008,28.174045"},{"lat":39.239229,"lng":28.174977,"name":"Yagmur Eczanesi","address1":"Kurtuluş, Balıkesir Cad. Şekercioğlu Pasajı No:7, 10330 Sındırgı/Balıkesir, Turkey","address2":"balıkesir/sındırgı/yagmur eczanesi","direction":"https://www.google.com.tr/maps/dir/My+Location/39.239229,28.174977"},{"lat":39.238843,"lng":28.174889,"name":"Yıldırımın Eczanesi","address1":"Kurtuluş, Cumhuriyet Meydanı No:2, 10330 Sındırgı/Balıkesir, Turkey","address2":"balıkesir/sındırgı/yıldırımın eczanesi","direction":"https://www.google.com.tr/maps/dir/My+Location/39.238843,28.174889"},{"lat":39.917317,"lng":28.154261,"name":"Anıl Eczanesi","address1":"Yeni, İstasyon Cad. 53/C, 10600 Susurluk/Balıkesir, Turkey","address2":"balıkesir/susurluk/anıl eczanesi","direction":"https://www.google.com.tr/maps/dir/My+Location/39.917317,28.154261"},{"lat":39.9146905,"lng":28.1560092,"name":"Efe Eczanesi","address1":"Han, Okul Cd. No:11/13, 10600 Susurluk/Balıkesir, Turkey","address2":"balıkesir/susurluk/efe eczanesi","direction":"https://www.google.com.tr/maps/dir/My+Location/39.9146905,28.1560092"},{"lat":39.9146905,"lng":28.1560092,"name":"Efe Eczanesi","address1":"Han, Okul Cd. No:11/13, 10600 Susurluk/Balıkesir, Turkey","address2":"balıkesir/susurluk/efe eczanesi","direction":"https://www.google.com.tr/maps/dir/My+Location/39.9146905,28.1560092"},{"lat":40.019265,"lng":28.147828,"name":"Ela Eczanesi","address1":"Göbel, 10610 Susurluk/Balıkesir, Turkey","address2":"balıkesir/susurluk/ela eczanesi","direction":"https://www.google.com.tr/maps/dir/My+Location/40.019265,28.147828"},{"lat":39.914608,"lng":28.1558455,"name":"Emre Eczanesi","address1":"Han, Okullar Cad. 13/D, 10600 Susurluk/Balıkesir, Turkey","address2":"balıkesir/susurluk/emre eczanesi","direction":"https://www.google.com.tr/maps/dir/My+Location/39.914608,28.1558455"},{"lat":39.916538,"lng":28.1517687,"name":"Ercay Eczanesi","address1":"Yeni Mh, Hastane Cd. Pk:10600, 10600 Susurluk/Balıkesir, Turkey","address2":"balıkesir/susurluk/ercay eczanesi","direction":"https://www.google.com.tr/maps/dir/My+Location/39.916538,28.1517687"},{"lat":39.9116953,"lng":28.1577918,"name":"Gökhan Eczanesi","address1":"Han, Milli Kuvvetler Cd. No:75, 10600 Susurluk/Balıkesir, Turkey","address2":"balıkesir/susurluk/gökhan eczanesi","direction":"https://www.google.com.tr/maps/dir/My+Location/39.9116953,28.1577918"},{"lat":39.916198,"lng":28.151721,"name":"Huzur Eczanesi","address1":"Yeni, Şeker Cd. 26/a D:no:20, 10600 Susurluk/Balıkesir, Turkey","address2":"balıkesir/susurluk/huzur eczanesi","direction":"https://www.google.com.tr/maps/dir/My+Location/39.916198,28.151721"},{"lat":39.9155627,"lng":28.1569219,"name":"Merkez Eczanesi","address1":"Han, İstasyon Cd. No:11, 10600 Susurluk/Balıkesir, Turkey","address2":"balıkesir/susurluk/merkez eczanesi","direction":"https://www.google.com.tr/maps/dir/My+Location/39.9155627,28.1569219"},{"lat":39.9174193,"lng":28.1542793,"name":"Serkan Eczanesi","address1":"Yeni, Yeni Cad. 2/C, 10600 Susurluk/Balıkesir, Turkey","address2":"balıkesir/susurluk/serkan eczanesi","direction":"https://www.google.com.tr/maps/dir/My+Location/39.9174193,28.1542793"},{"lat":39.9146687,"lng":28.1557153,"name":"Sümer Eczanesi","address1":"Yeni, Okullar Cd. 15/B, 10600 Susurluk/Balıkesir, Turkey","address2":"balıkesir/susurluk/sümer eczanesi","direction":"https://www.google.com.tr/maps/dir/My+Location/39.9146687,28.1557153"},{"lat":39.909816,"lng":28.15712,"name":"Susurluk Eczanesi","address1":"Burhaniye, Şehit İbrahim Çınar Meydanı No:24, 10600 Susurluk/Balıkesir, Turkey","address2":"balıkesir/susurluk/susurluk eczanesi","direction":"https://www.google.com.tr/maps/dir/My+Location/39.909816,28.15712"},{"lat":39.642156,"lng":27.914886,"name":"Can A Şifa Eczanesi","address1":"2. Gündoğan, Atay Cd. No:130, 10100 Balıkesir Merkez/Balıkesir, Turkey","address2":"balıkesir/balıkesir merkez/can a şifa eczanesi","direction":"https://www.google.com.tr/maps/dir/My+Location/39.642156,27.914886"},{"lat":39.586764,"lng":26.923097,"name":"Akçay Eczanesi","address1":"Akçay, Edremit/Balıkesir, Turkey","address2":"balıkesir/edremit/akçay eczanesi","direction":"https://www.google.com.tr/maps/dir/My+Location/39.586764,26.923097"}]