[{"lat":40.69416,"lng":29.5087432,"name":"Can Eczanesi","address1":"Hürriyet, Okullar Cd. No:1, 77700 Altınova/Yalova, Turkey","address2":"yalova/altınova/can eczanesi","direction":"https://www.google.com.tr/maps/dir/My+Location/40.69416,29.5087432"},{"lat":40.6874985,"lng":29.4542045,"name":"Çimen Eczanesi","address1":"Şehitlik, Fatih Cad. 13/A, 77740 Tavşanlı/Altınova/Yalova, Turkey","address2":"yalova/altınova/çimen eczanesi","direction":"https://www.google.com.tr/maps/dir/My+Location/40.6874985,29.4542045"},{"lat":40.6960672,"lng":29.527796,"name":"Defne Eczanesi","address1":"Cumhuriyet Bursa Devlet Karayolu, Merkez, 77700 Kaytazdere/Yalova, Turkey","address2":"yalova/kaytazdere/defne eczanesi","direction":"https://www.google.com.tr/maps/dir/My+Location/40.6960672,29.527796"},{"lat":40.6943709,"lng":29.5085454,"name":"Esra Gül Eczanesi","address1":"Hürriyet, Bursa Cd. No:44, 77700 Altınova/Yalova, Turkey","address2":"yalova/altınova/esra gül eczanesi","direction":"https://www.google.com.tr/maps/dir/My+Location/40.6943709,29.5085454"},{"lat":40.672712,"lng":29.482541,"name":"Simge Eczanesi","address1":"Denizgören, 66. Sk., 77700 Subaşı/Altınova/Yalova, Turkey","address2":"yalova/altınova/simge eczanesi","direction":"https://www.google.com.tr/maps/dir/My+Location/40.672712,29.482541"},{"lat":40.695575,"lng":29.5093541,"name":"Sultan Eczanesi","address1":"Hürriyet, Atatürk Blv. 26/C, 77700 Altınova/Yalova, Turkey","address2":"yalova/altınova/sultan eczanesi","direction":"https://www.google.com.tr/maps/dir/My+Location/40.695575,29.5093541"},{"lat":40.5196972,"lng":28.8278532,"name":"Arda Eczanesi","address1":"no:3, Karşıyaka, Okul Cd., 77500 Armutlu/Yalova, Turkey","address2":"yalova/armutlu/arda eczanesi","direction":"https://www.google.com.tr/maps/dir/My+Location/40.5196972,28.8278532"},{"lat":40.519774,"lng":28.8281498,"name":"Yeni Eczanesi","address1":"Karşıyaka mah, armutlu meydanı no: 6/a, 77500 Armutlu/Yalova, Turkey","address2":"yalova/armutlu/yeni eczanesi","direction":"https://www.google.com.tr/maps/dir/My+Location/40.519774,28.8281498"},{"lat":40.661504,"lng":29.3279169,"name":"Çiftlikköy Eczanesi","address1":"Çiftlik, Stadyum Cd. No:2, 77600 Çiftlikköy/Yalova, Turkey","address2":"yalova/çiftlikköy/çiftlikköy eczanesi","direction":"https://www.google.com.tr/maps/dir/My+Location/40.661504,29.3279169"},{"lat":40.664909,"lng":29.312438,"name":"Deniz Eczanesi","address1":"Sahil, Yalı Cd. 20/B, 77600 Çiftlikköy/Yalova, Turkey","address2":"yalova/çiftlikköy/deniz eczanesi","direction":"https://www.google.com.tr/maps/dir/My+Location/40.664909,29.312438"},{"lat":40.663183,"lng":29.321824,"name":"Hastane Eczanesi","address1":"Çiftlik, Gonca Sk. No:8 D:NO:/A, 77600 Çiftlikköy/Yalova, Turkey","address2":"yalova/çiftlikköy/hastane eczanesi","direction":"https://www.google.com.tr/maps/dir/My+Location/40.663183,29.321824"},{"lat":40.6626497,"lng":29.3091059,"name":"Şifa Eczanesi","address1":"Sahil, Şevket Yılmaz Cd. 1/19, 77600 Çiftlikköy/Yalova, Turkey","address2":"yalova/çiftlikköy/şifa eczanesi","direction":"https://www.google.com.tr/maps/dir/My+Location/40.6626497,29.3091059"},{"lat":40.6657764,"lng":29.3154212,"name":"Yalçın Eczanesi","address1":"Sahil Mahallesi Şehit Polis memuru Abdulhamit Kaya cad.(meltem cad) No:20, Sahil, 77600 Çiftlikköy/Yalova, Turkey","address2":"yalova/çiftlikköy/yalçın eczanesi","direction":"https://www.google.com.tr/maps/dir/My+Location/40.6657764,29.3154212"},{"lat":40.645516,"lng":29.118516,"name":"Çınarcık Eczanesi","address1":"Harmanlar, Vali Akı Cd. No:4/B, 77300 Çınarcık/Yalova, Turkey","address2":"yalova/çınarcık/çınarcık eczanesi","direction":"https://www.google.com.tr/maps/dir/My+Location/40.645516,29.118516"},{"lat":40.645516,"lng":29.118516,"name":"Eylül Eczanesi","address1":"Harmanlar, Vali Akı Cd. No:4/B, 77300 Çınarcık/Yalova, Turkey","address2":"yalova/çınarcık/eylül eczanesi","direction":"https://www.google.com.tr/maps/dir/My+Location/40.645516,29.118516"},{"lat":40.646942,"lng":29.125582,"name":"Işıl Eczanesi","address1":"Taşliman, Turgut Kurt Cd., 77300 Çınarcık/Yalova, Turkey","address2":"yalova/çınarcık/işıl eczanesi","direction":"https://www.google.com.tr/maps/dir/My+Location/40.646942,29.125582"},{"lat":40.6470898,"lng":29.1254555,"name":"Liman Eczanesi","address1":"Taşliman Mah. Turgut Kurt Cad. Yonca Apt. 26/A, Taşliman, 77300 Çınarcık/Yalova, Turkey","address2":"yalova/çınarcık/liman eczanesi","direction":"https://www.google.com.tr/maps/dir/My+Location/40.6470898,29.1254555"},{"lat":40.6436426,"lng":29.119297,"name":"Sahil Eczanesi","address1":"Harmanlar Mahallesi ŞEHİT İBRAHİM YÜKSEL SOK ISTAKOZ APT. 18/A, Harmanlar, 77300 Çınarcık/Yalova, Turkey","address2":"yalova/çınarcık/sahil eczanesi","direction":"https://www.google.com.tr/maps/dir/My+Location/40.6436426,29.119297"},{"lat":40.6585013,"lng":29.2742064,"name":"Aksoy Eczanesi","address1":"Süleyman Bey, 77100 Yalova Merkez/Yalova, Turkey","address2":"yalova/yalova merkez/aksoy eczanesi","direction":"https://www.google.com.tr/maps/dir/My+Location/40.6585013,29.2742064"},{"lat":40.657406,"lng":29.2738691,"name":"Alper Eczanesi","address1":"Süleyman Bey, Sefabey Cd. 4/A, 77100 Yalova Merkez/Yalova, Turkey","address2":"yalova/yalova merkez/alper eczanesi","direction":"https://www.google.com.tr/maps/dir/My+Location/40.657406,29.2738691"},{"lat":40.654998,"lng":29.2708199,"name":"Arzu Eczanesi","address1":"Rüstem Paşa, 1. Sk. No:42, 77200 Yalova Merkez/Yalova, Turkey","address2":"yalova/yalova merkez/arzu eczanesi","direction":"https://www.google.com.tr/maps/dir/My+Location/40.654998,29.2708199"},{"lat":40.6560909,"lng":29.2638018,"name":"Ataş Eczanesi","address1":"Bahçelievler, Fatih Cd. No:67, 77200 Yalova Merkez/Yalova, Turkey","address2":"yalova/yalova merkez/ataş eczanesi","direction":"https://www.google.com.tr/maps/dir/My+Location/40.6560909,29.2638018"},{"lat":40.65601,"lng":29.2604674,"name":"Aysu Eczanesi","address1":"Bahçelievler, Fatih Cd. 53/A, 77200 Yalova Merkez/Yalova, Turkey","address2":"yalova/yalova merkez/aysu eczanesi","direction":"https://www.google.com.tr/maps/dir/My+Location/40.65601,29.2604674"},{"lat":40.656058,"lng":29.2770158,"name":"Bağcı Eczanesi","address1":"Süleyman Bey, İstanbul Cd. No:88, 77100 Yalova Merkez/Yalova, Turkey","address2":"yalova/yalova merkez/bağcı eczanesi","direction":"https://www.google.com.tr/maps/dir/My+Location/40.656058,29.2770158"},{"lat":40.6540368,"lng":29.2746994,"name":"Ceylan Eczanesi","address1":"Fevzi Çakmak, Fırın Sk. No:32, 77100 Yalova Merkez/Yalova, Turkey","address2":"yalova/yalova merkez/ceylan eczanesi","direction":"https://www.google.com.tr/maps/dir/My+Location/40.6540368,29.2746994"},{"lat":40.6539177,"lng":29.256029,"name":"Derman Eczanesi","address1":"Bahçelievler, Marmara Cad. 36/A, 77200 Yalova Merkez/Yalova, Turkey","address2":"yalova/yalova merkez/derman eczanesi","direction":"https://www.google.com.tr/maps/dir/My+Location/40.6539177,29.256029"},{"lat":40.6553335,"lng":29.2710064,"name":"Deva Eczanesi","address1":"Rüstem Paşa, Cumhuriyet Cd. No:60, 77100 Yalova Merkez/Yalova, Turkey","address2":"yalova/yalova merkez/deva eczanesi","direction":"https://www.google.com.tr/maps/dir/My+Location/40.6553335,29.2710064"},{"lat":40.6566729,"lng":29.2704135,"name":"Dilek Eczanesi","address1":"Rüstem Paşa, Fatih Cd. No:2/A, 77200 Yalova Merkez/Yalova, Turkey","address2":"yalova/yalova merkez/dilek eczanesi","direction":"https://www.google.com.tr/maps/dir/My+Location/40.6566729,29.2704135"},{"lat":40.6539178,"lng":29.2710596,"name":"Doğan Eczanesi","address1":"Rüstem Paşa, Cumhuriyet Cd. No:78, 77200 Yalova Merkez/Yalova, Turkey","address2":"yalova/yalova merkez/doğan eczanesi","direction":"https://www.google.com.tr/maps/dir/My+Location/40.6539178,29.2710596"},{"lat":40.655652,"lng":29.271634,"name":"Dörtyol Eczanesi","address1":"Fevzi Çakmak Mh, İstanbul Cd. No.14/A-D, 77100 Yalova Merkez/Yalova, Turkey","address2":"yalova/yalova merkez/dörtyol eczanesi","direction":"https://www.google.com.tr/maps/dir/My+Location/40.655652,29.271634"},{"lat":40.6566518,"lng":29.2700239,"name":"Ebru Eczanesi","address1":"Mustafa Kemal Paşa, Fatih Cad. No:4 D:2-3, 77200 Yalova Merkez/Yalova, Turkey","address2":"yalova/yalova merkez/ebru eczanesi","direction":"https://www.google.com.tr/maps/dir/My+Location/40.6566518,29.2700239"},{"lat":40.654412,"lng":29.2627732,"name":"Emre Eczanesi","address1":"Bahçelievler, Muammer Aksoy Sk. 16/A, 77200 Yalova Merkez/Yalova, Turkey","address2":"yalova/yalova merkez/emre eczanesi","direction":"https://www.google.com.tr/maps/dir/My+Location/40.654412,29.2627732"},{"lat":40.6563389,"lng":29.2678002,"name":"Fatih Eczanesi","address1":"Rüstem Paşa, Fatih Cd. 22/E, 77200 Yalova Merkez/Yalova, Turkey","address2":"yalova/yalova merkez/fatih eczanesi","direction":"https://www.google.com.tr/maps/dir/My+Location/40.6563389,29.2678002"},{"lat":40.6558691,"lng":29.2721049,"name":"Funda Eczanesi","address1":"Süleyman Bey, İstanbul Cd. No:13/D, 77100 Yalova Merkez/Yalova, Turkey","address2":"yalova/yalova merkez/funda eczanesi","direction":"https://www.google.com.tr/maps/dir/My+Location/40.6558691,29.2721049"},{"lat":40.6469355,"lng":29.2657193,"name":"Gülce Eczanesi","address1":"Dere Mahallesi, Mehmet Durman Sk. No:70-A, 77200 Yalova Merkez/Yalova, Turkey","address2":"yalova/yalova merkez/gülce eczanesi","direction":"https://www.google.com.tr/maps/dir/My+Location/40.6469355,29.2657193"},{"lat":40.655652,"lng":29.271634,"name":"Gülerce Eczanesi","address1":"Fevzi Çakmak Mh, İstanbul Cd. No.14/A-D, 77100 Yalova Merkez/Yalova, Turkey","address2":"yalova/yalova merkez/gülerce eczanesi","direction":"https://www.google.com.tr/maps/dir/My+Location/40.655652,29.271634"},{"lat":40.660435,"lng":29.306331,"name":"İrem Eczanesi","address1":"İsmet Paşa, Bağ Sk. No: 8 D:No: 8, 77100 Yalova Merkez/Yalova, Turkey","address2":"yalova/yalova merkez/irem eczanesi","direction":"https://www.google.com.tr/maps/dir/My+Location/40.660435,29.306331"},{"lat":40.638888,"lng":29.257581,"name":"Işık Eczanesi","address1":"Hacımehmet Mh. Rahmi Üstel Cd. Pk:77000 Merkez/yalova, Adnan Menderes, 77200 Yalova Merkez/Yalova, Turkey","address2":"yalova/yalova merkez/işık eczanesi","direction":"https://www.google.com.tr/maps/dir/My+Location/40.638888,29.257581"},{"lat":40.655652,"lng":29.271634,"name":"İstanbul Eczanesi","address1":"Fevzi Çakmak Mh, İstanbul Cd. No.14/A-D, 77100 Yalova Merkez/Yalova, Turkey","address2":"yalova/yalova merkez/istanbul eczanesi","direction":"https://www.google.com.tr/maps/dir/My+Location/40.655652,29.271634"},{"lat":40.654658,"lng":29.274651,"name":"Kent Eczanesi","address1":"Fevzi Çakmak, Fırın Sk. 23/A, 77100 Yalova Merkez/Yalova, Turkey","address2":"yalova/yalova merkez/kent eczanesi","direction":"https://www.google.com.tr/maps/dir/My+Location/40.654658,29.274651"},{"lat":40.6511185,"lng":29.2925398,"name":"Keskin Eczanesi","address1":"Mustafa Kemal Paşa Mahallessi Kemerköprü Caddesi, Mustafa Kemal Paşa, Kahraman Sk. No:7, 77100 Merkez/Yalova, Turkey","address2":"yalova/merkez/keskin eczanesi","direction":"https://www.google.com.tr/maps/dir/My+Location/40.6511185,29.2925398"},{"lat":40.66807,"lng":29.3112581,"name":"Lale Eczanesi","address1":"Sahil, Yalı Cd. No: 47, 77600 Yalova Merkez/Yalova, Turkey","address2":"yalova/yalova merkez/lale eczanesi","direction":"https://www.google.com.tr/maps/dir/My+Location/40.66807,29.3112581"},{"lat":40.6569891,"lng":29.2675432,"name":"Merkez Eczanesi","address1":"Rüstem Paşa, Dere Sk. No:7, 77200 Yalova Merkez/Yalova, Turkey","address2":"yalova/yalova merkez/merkez eczanesi","direction":"https://www.google.com.tr/maps/dir/My+Location/40.6569891,29.2675432"},{"lat":40.638878,"lng":29.2575841,"name":"Muhteşem Eczanesi","address1":"Adnan Menderes, Rahmi Üstel Cd. No:75, 77200 Yalova Merkez/Yalova, Turkey","address2":"yalova/yalova merkez/muhteşem eczanesi","direction":"https://www.google.com.tr/maps/dir/My+Location/40.638878,29.2575841"},{"lat":40.6607297,"lng":29.3062314,"name":"Özgüler Eczanesi","address1":"İsmetpaşa Mah., Bağ Sok. No:6, 77000 Merkez/Yalova Merkez/Yalova, Turkey","address2":"yalova/yalova merkez/özgüler eczanesi","direction":"https://www.google.com.tr/maps/dir/My+Location/40.6607297,29.3062314"},{"lat":40.658232,"lng":29.2712519,"name":"Özkaya Eczanesi","address1":"Süleyman Bey, Yalı Cd. No:18, 77100 Yalova Merkez/Yalova, Turkey","address2":"yalova/yalova merkez/özkaya eczanesi","direction":"https://www.google.com.tr/maps/dir/My+Location/40.658232,29.2712519"},{"lat":40.6582698,"lng":29.2779959,"name":"Pazar Eczanesi","address1":"Süleyman Bey, Gökmen Sk., 77100 Merkez/Yalova Merkez/Yalova, Turkey","address2":"yalova/yalova merkez/pazar eczanesi","direction":"https://www.google.com.tr/maps/dir/My+Location/40.6582698,29.2779959"},{"lat":40.6559001,"lng":29.2748856,"name":"Şehnaz Eczanesi","address1":"Süleyman Bey, İstanbul Cd. No:57/A, 77100 Yalova Merkez/Yalova, Turkey","address2":"yalova/yalova merkez/şehnaz eczanesi","direction":"https://www.google.com.tr/maps/dir/My+Location/40.6559001,29.2748856"},{"lat":40.66239,"lng":29.309209,"name":"Sema Eczanesi","address1":"Sahil Mh. YALOVA DEVLET HASTANESİ ARKASI, Sahil, 77600 Çiftlikköy/Yalova, Turkey","address2":"yalova/çiftlikköy/sema eczanesi","direction":"https://www.google.com.tr/maps/dir/My+Location/40.66239,29.309209"},{"lat":40.653826,"lng":29.2557622,"name":"Serhat Eczanesi","address1":"Bahçelievler, Marmara Cd. 32/A, 77200 Yalova Merkez/Yalova, Turkey","address2":"yalova/yalova merkez/serhat eczanesi","direction":"https://www.google.com.tr/maps/dir/My+Location/40.653826,29.2557622"},{"lat":40.656242,"lng":29.2786481,"name":"Sibelin Eczanesi","address1":"Süleyman Bey, İstanbul Cd. No:91, 77100 Yalova Merkez/Yalova, Turkey","address2":"yalova/yalova merkez/sibelin eczanesi","direction":"https://www.google.com.tr/maps/dir/My+Location/40.656242,29.2786481"},{"lat":40.659594,"lng":29.277835,"name":"Vatan Eczanesi","address1":"Lüks Yalova Seyahat Yalova İskelesi, Süleyman Bey, 77000 Yalova Merkez/Yalova, Turkey","address2":"yalova/yalova merkez/vatan eczanesi","direction":"https://www.google.com.tr/maps/dir/My+Location/40.659594,29.277835"},{"lat":40.6581986,"lng":29.2708335,"name":"Yalova Eczanesi","address1":"Süleyman Bey, Cengiz Koçal Cd No:12, 77100 Yalova Merkez/Yalova, Turkey","address2":"yalova/yalova merkez/yalova eczanesi","direction":"https://www.google.com.tr/maps/dir/My+Location/40.6581986,29.2708335"},{"lat":40.638878,"lng":29.2575841,"name":"Yaşam Eczanesi","address1":"Adnan Menderes, Rahmi Üstel Cd. No:75, 77200 Yalova Merkez/Yalova, Turkey","address2":"yalova/yalova merkez/yaşam eczanesi","direction":"https://www.google.com.tr/maps/dir/My+Location/40.638878,29.2575841"},{"lat":40.644459,"lng":29.117195,"name":"Halk Eczanesi","address1":"Harmanlar, İskele Sk. 10-1, 77300 Çınarcık/Yalova, Turkey","address2":"yalova/çınarcık/halk eczanesi","direction":"https://www.google.com.tr/maps/dir/My+Location/40.644459,29.117195"}]