[{"lat":39.549888,"lng":34.293179,"name":"Elif Eczanesi","address1":"Hacıhasanlı, Çiçekdağı/Kırşehir, Turkey","address2":"kırşehir/çiçekdağı/elif eczanesi","direction":"https://www.google.com.tr/maps/dir/My+Location/39.549888,34.293179"},{"lat":39.451257,"lng":33.9642209,"name":"Sezin Eczanesi","address1":"Kaleyazı, Cabir Köremezli Blv. No:233, 40320 Akpınar/Kırşehir, Turkey","address2":"kırşehir/akpınar/sezin eczanesi","direction":"https://www.google.com.tr/maps/dir/My+Location/39.451257,33.9642209"},{"lat":39.450991,"lng":33.9658171,"name":"Yeni Akpınar Eczanesi","address1":"Hacı Hüseyin Efendi, Belediye Cd. No:1/A, 40320 Akpınar/Kırşehir, Turkey","address2":"kırşehir/akpınar/yeni akpınar eczanesi","direction":"https://www.google.com.tr/maps/dir/My+Location/39.450991,33.9658171"},{"lat":39.3576866,"lng":33.7245842,"name":"Aran Eczanesi","address1":"Sarıuşağı, 40300 Kaman/Kırşehir, Turkey","address2":"kırşehir/kaman/aran eczanesi","direction":"https://www.google.com.tr/maps/dir/My+Location/39.3576866,33.7245842"},{"lat":39.3598062,"lng":33.7233953,"name":"Berk Eczanesi","address1":"Çiftlikli, 25 Aralık Cad. No:28, 40300 Kaman/Kırşehir, Turkey","address2":"kırşehir/kaman/berk eczanesi","direction":"https://www.google.com.tr/maps/dir/My+Location/39.3598062,33.7233953"},{"lat":39.3586368,"lng":33.7245663,"name":"Emrah Eczanesi","address1":"CUMA MAHALLESİ İSTİKLAL CADDESİ Cumhuriyet Meydanı No:17, Sarıuşağı, 40300 Kaman/Kırşehir, Turkey","address2":"kırşehir/kaman/emrah eczanesi","direction":"https://www.google.com.tr/maps/dir/My+Location/39.3586368,33.7245663"},{"lat":39.3612407,"lng":33.7219965,"name":"Eren Eczanesi","address1":"Yeni, 25 Aralık Cd. No:5, 40300 Kaman/Kırşehir, Turkey","address2":"kırşehir/kaman/eren eczanesi","direction":"https://www.google.com.tr/maps/dir/My+Location/39.3612407,33.7219965"},{"lat":39.3372093,"lng":33.7517723,"name":"Hayat Eczanesi","address1":"Kaman/Kırşehir, Turkey","address2":"kırşehir/kaman/hayat eczanesi","direction":"https://www.google.com.tr/maps/dir/My+Location/39.3372093,33.7517723"},{"lat":39.3590589,"lng":33.7259076,"name":"Ilgar Eczanesi","address1":"Çiftlikli, 40300 Kaman/Kırşehir, Turkey","address2":"kırşehir/kaman/ilgar eczanesi","direction":"https://www.google.com.tr/maps/dir/My+Location/39.3590589,33.7259076"},{"lat":39.3590004,"lng":33.7248031,"name":"Memiş Eczanesi","address1":"Çiftlikli, Atatürk Cd., 40300 Kaman/Kırşehir, Turkey","address2":"kırşehir/kaman/memiş eczanesi","direction":"https://www.google.com.tr/maps/dir/My+Location/39.3590004,33.7248031"},{"lat":39.3589889,"lng":33.7230492,"name":"Merkez Eczanesi","address1":"Gaffar, Atatürk Cad. 11/A, 40300 Kaman/Kırşehir, Turkey","address2":"kırşehir/kaman/merkez eczanesi","direction":"https://www.google.com.tr/maps/dir/My+Location/39.3589889,33.7230492"},{"lat":39.1454536,"lng":34.1604869,"name":"Ahi Eczanesi","address1":"Terme Caddesi Mini Çarşı 12/4, Kuşdilli, 40200 Kırşehir Merkez/Kırşehir, Turkey","address2":"kırşehir/kırşehir merkez/ahi eczanesi","direction":"https://www.google.com.tr/maps/dir/My+Location/39.1454536,34.1604869"},{"lat":39.142954,"lng":34.163342,"name":"Akgül Eczanesi","address1":"Medrese, 98. Sk., 40200 Pk:40200 Merkez/Kırşehir, Turkey","address2":"kırşehir/pk:40200 merkez/akgül eczanesi","direction":"https://www.google.com.tr/maps/dir/My+Location/39.142954,34.163342"},{"lat":39.1419858,"lng":34.1625343,"name":"Alican Eczanesi","address1":"Yenice, Atatürk Cad. Alkan Apt. 21/B, 40200 Kırşehir Merkez/Kırşehir, Turkey","address2":"kırşehir/kırşehir merkez/alican eczanesi","direction":"https://www.google.com.tr/maps/dir/My+Location/39.1419858,34.1625343"},{"lat":39.150688,"lng":34.1615858,"name":"Aşıkpaşa Eczanesi","address1":"Ahievran, Yavuz Sultan Selim Blv. No:19, 40100 Kırşehir Merkez/Kırşehir, Turkey","address2":"kırşehir/kırşehir merkez/aşıkpaşa eczanesi","direction":"https://www.google.com.tr/maps/dir/My+Location/39.150688,34.1615858"},{"lat":39.1834507,"lng":34.1522756,"name":"Baran Eczanesi","address1":"Medrese Mahallesi, Ankara Cad. No:10, 40200 Kırşehir Merkez/Kırşehir, Turkey","address2":"kırşehir/kırşehir merkez/baran eczanesi","direction":"https://www.google.com.tr/maps/dir/My+Location/39.1834507,34.1522756"},{"lat":39.1836086,"lng":34.1522279,"name":"Büyük Eczanesi","address1":"Medrese Mahallesi, Ankara Cad. 18/C, 40200 Kırşehir Merkez/Kırşehir, Turkey","address2":"kırşehir/kırşehir merkez/büyük eczanesi","direction":"https://www.google.com.tr/maps/dir/My+Location/39.1836086,34.1522279"},{"lat":39.143485,"lng":34.1629123,"name":"Çelik Eczanesi","address1":"13, medrese mahallesi 92. sokak yılmaz apt. no:8, Medrese, 40100 Kırşehir Merkez/Kırşehir, Turkey","address2":"kırşehir/kırşehir merkez/çelik eczanesi","direction":"https://www.google.com.tr/maps/dir/My+Location/39.143485,34.1629123"},{"lat":39.1440583,"lng":34.1638956,"name":"Dilek Eczanesi","address1":"Medrese Mh. 91. Sk.no: 3/a Pk:40200 merkez, Medrese, 40200 Kırşehir Merkez/Kırşehir, Turkey","address2":"kırşehir/kırşehir merkez/dilek eczanesi","direction":"https://www.google.com.tr/maps/dir/My+Location/39.1440583,34.1638956"},{"lat":39.1444803,"lng":34.1608994,"name":"Doğan Eczanesi","address1":"Atatürk cad. Ticaret Sanayi Odası Altı Garanti Bank Yanı, Medrese, 40100 Kırşehir Merkez/Kırşehir, Turkey","address2":"kırşehir/kırşehir merkez/doğan eczanesi","direction":"https://www.google.com.tr/maps/dir/My+Location/39.1444803,34.1608994"},{"lat":39.1490319,"lng":34.1602497,"name":"Dost Eczanesi","address1":"Ahievran, Mehmet Ali Yapıcı Blv. No:34, 40100 Kırşehir Merkez/Kırşehir, Turkey","address2":"kırşehir/kırşehir merkez/dost eczanesi","direction":"https://www.google.com.tr/maps/dir/My+Location/39.1490319,34.1602497"},{"lat":39.157039,"lng":34.162263,"name":"Efe Eczanesi","address1":"Aşıkpaşa, 1. Sk. No:4, 40200 Özbağ Belediyesi/Kırşehir Merkez/Kırşehir, Turkey","address2":"kırşehir/kırşehir merkez/efe eczanesi","direction":"https://www.google.com.tr/maps/dir/My+Location/39.157039,34.162263"},{"lat":39.1513578,"lng":34.1615742,"name":"Erdoğdu Eczanesi","address1":"Aşıkpaşa Mh, 33. Sk., 40200 Pk:40200 Merkez/Kırşehir, Turkey","address2":"kırşehir/pk:40200 merkez/erdoğdu eczanesi","direction":"https://www.google.com.tr/maps/dir/My+Location/39.1513578,34.1615742"},{"lat":39.211537,"lng":34.1443616,"name":"Ergül Eczanesi","address1":"Örcün, Ankara Cd. No:20, 40080 Özbağ/Kırşehir Merkez/Kırşehir, Turkey","address2":"kırşehir/kırşehir merkez/ergül eczanesi","direction":"https://www.google.com.tr/maps/dir/My+Location/39.211537,34.1443616"},{"lat":39.150985,"lng":34.161898,"name":"Erkut Eczanesi","address1":"Aşıkpaşa, Yavuz Sultan Selim Blv. No:12, 40200 Kırşehir Merkez/Kırşehir, Turkey","address2":"kırşehir/kırşehir merkez/erkut eczanesi","direction":"https://www.google.com.tr/maps/dir/My+Location/39.150985,34.161898"},{"lat":39.15682,"lng":34.161905,"name":"Genç Eczanesi","address1":"Aşıkpaşa, 1. Sk. No:6, 40200 Kırşehir Merkez/Kırşehir, Turkey","address2":"kırşehir/kırşehir merkez/genç eczanesi","direction":"https://www.google.com.tr/maps/dir/My+Location/39.15682,34.161905"},{"lat":39.1445778,"lng":34.1596702,"name":"Geredoğlu Eczanesi","address1":"Kuşdilli, Uzun Çarşı Cad./demirciler Çarşısı 71/A, 40100 Kırşehir Merkez/Kırşehir, Turkey","address2":"kırşehir/kırşehir merkez/geredoğlu eczanesi","direction":"https://www.google.com.tr/maps/dir/My+Location/39.1445778,34.1596702"},{"lat":39.1471058,"lng":34.1600185,"name":"Gökbulut Eczanesi","address1":"Ahievran, Mehmet Ali Yapıcı Blv. NO:2, 40100 Kırşehir Merkez/Kırşehir, Turkey","address2":"kırşehir/kırşehir merkez/gökbulut eczanesi","direction":"https://www.google.com.tr/maps/dir/My+Location/39.1471058,34.1600185"},{"lat":39.1562228,"lng":34.1595042,"name":"Gündüz Eczanesi","address1":"GÜNDÜZ APT NO:1 MERKEZ (AĞIZ ve DİŞ HASTANESİ KARŞISI), Ahievran, 701. Sk., 40100 Kırşehir Merkez/Kırşehir, Turkey","address2":"kırşehir/kırşehir merkez/gündüz eczanesi","direction":"https://www.google.com.tr/maps/dir/My+Location/39.1562228,34.1595042"},{"lat":39.1425022,"lng":34.1709073,"name":"Hatunoğlu Eczanesi","address1":"Medrese, Ankara Cad. Bayhan Apt. 19/D, 40200 Kırşehir Merkez/Kırşehir, Turkey","address2":"kırşehir/kırşehir merkez/hatunoğlu eczanesi","direction":"https://www.google.com.tr/maps/dir/My+Location/39.1425022,34.1709073"},{"lat":39.148357,"lng":34.160098,"name":"Hayat Eczanesi","address1":"Ahievran, Mehmet Ali Yapıcı Blv. 15/d, 40100 Kırşehir Merkez/Kırşehir, Turkey","address2":"kırşehir/kırşehir merkez/hayat eczanesi","direction":"https://www.google.com.tr/maps/dir/My+Location/39.148357,34.160098"},{"lat":39.1474247,"lng":34.1598875,"name":"İbnisina Eczanesi","address1":"Ahievran Mahallesi Mehmet Ali Yapıcı Bulvari, Ahievran, CİNGÖZ BEBE KARŞISI, POSTANE CİVARI No:7, 40100 Kırşehir Merkez/Kırşehir, Turkey","address2":"kırşehir/kırşehir merkez/ibnisina eczanesi","direction":"https://www.google.com.tr/maps/dir/My+Location/39.1474247,34.1598875"},{"lat":39.1444903,"lng":34.1616693,"name":"İlham Eczanesi","address1":"Medrese, Melikgazi Cd. No:10, 40200 Kırşehir Merkez/Kırşehir, Turkey","address2":"kırşehir/kırşehir merkez/ilham eczanesi","direction":"https://www.google.com.tr/maps/dir/My+Location/39.1444903,34.1616693"},{"lat":39.141838,"lng":34.1623402,"name":"Karaca Eczanesi","address1":"Yenice, 184. Sk. No:3/A, 40100 Kırşehir Merkez/Kırşehir, Turkey","address2":"kırşehir/kırşehir merkez/karaca eczanesi","direction":"https://www.google.com.tr/maps/dir/My+Location/39.141838,34.1623402"},{"lat":39.1446929,"lng":34.1603434,"name":"Kent Eczanesi","address1":"Kuşdilli, Terme Cd. No:10, 40100 Kırşehir Merkez/Kırşehir, Turkey","address2":"kırşehir/kırşehir merkez/kent eczanesi","direction":"https://www.google.com.tr/maps/dir/My+Location/39.1446929,34.1603434"},{"lat":39.156781,"lng":34.1595456,"name":"Kırşehir Eczanesi","address1":"Ahi Evran Mahallesi Zübeyde Hanım Cad. Onat Apt. 11/1 Diş Hastanesi Karşısı Diş hastanesi karşısı, Ahievran, 40100 Kırşehir Merkez/Kırşehir, Turkey","address2":"kırşehir/kırşehir merkez/kırşehir eczanesi","direction":"https://www.google.com.tr/maps/dir/My+Location/39.156781,34.1595456"},{"lat":39.1438462,"lng":34.163565,"name":"Lokman Hekim Eczanesi","address1":"Medrese, 91. Sk. No:6, 40200 Kırşehir Merkez/Kırşehir, Turkey","address2":"kırşehir/kırşehir merkez/lokman hekim eczanesi","direction":"https://www.google.com.tr/maps/dir/My+Location/39.1438462,34.163565"},{"lat":39.157039,"lng":34.162263,"name":"Nazar Eczanesi","address1":"Aşıkpaşa, 1. Sk. No:4, 40200 Özbağ Belediyesi/Kırşehir Merkez/Kırşehir, Turkey","address2":"kırşehir/kırşehir merkez/nazar eczanesi","direction":"https://www.google.com.tr/maps/dir/My+Location/39.157039,34.162263"},{"lat":39.1235758,"lng":34.0641419,"name":"Onur Eczanesi","address1":"Kırşehir Merkez/Kırşehir, Turkey","address2":"kırşehir/kırşehir merkez/onur eczanesi","direction":"https://www.google.com.tr/maps/dir/My+Location/39.1235758,34.0641419"},{"lat":39.156781,"lng":34.1595456,"name":"Özgür Eczanesi","address1":"Ahi Evran Mahallesi Zübeyde Hanım Cad. Onat Apt. 11/1 Diş Hastanesi Karşısı Diş hastanesi karşısı, Ahievran, 40100 Kırşehir Merkez/Kırşehir, Turkey","address2":"kırşehir/kırşehir merkez/özgür eczanesi","direction":"https://www.google.com.tr/maps/dir/My+Location/39.156781,34.1595456"},{"lat":39.2036752,"lng":34.146214,"name":"Özkaya Eczanesi","address1":"Ankara Cd., Kırşehir Merkez/Kırşehir, Turkey","address2":"kırşehir/kırşehir merkez/özkaya eczanesi","direction":"https://www.google.com.tr/maps/dir/My+Location/39.2036752,34.146214"},{"lat":39.1425326,"lng":34.1649098,"name":"Safir Eczanesi","address1":"Medrese, 95. Sk. No:21, 40200 Kırşehir Merkez/Kırşehir, Turkey","address2":"kırşehir/kırşehir merkez/safir eczanesi","direction":"https://www.google.com.tr/maps/dir/My+Location/39.1425326,34.1649098"},{"lat":39.1571408,"lng":34.162408,"name":"Sibel Eczanesi","address1":"Aşıkpaşa, 1. Sk. No:4, 40200 Özbağ Belediyesi/Kırşehir Merkez/Kırşehir, Turkey","address2":"kırşehir/kırşehir merkez/sibel eczanesi","direction":"https://www.google.com.tr/maps/dir/My+Location/39.1571408,34.162408"},{"lat":39.156989,"lng":34.1634589,"name":"Sultan Eczanesi","address1":"Kervansaray, 2019. Sk. No:3, 40200 Özbağ Belediyesi/Kırşehir Merkez/Kırşehir, Turkey","address2":"kırşehir/kırşehir merkez/sultan eczanesi","direction":"https://www.google.com.tr/maps/dir/My+Location/39.156989,34.1634589"},{"lat":39.1423316,"lng":34.1625405,"name":"Temel Eczanesi","address1":"Medrese, 95. Sk. No:5, 40200 Kırşehir Merkez/Kırşehir, Turkey","address2":"kırşehir/kırşehir merkez/temel eczanesi","direction":"https://www.google.com.tr/maps/dir/My+Location/39.1423316,34.1625405"},{"lat":39.1427079,"lng":34.1598131,"name":"Terme Eczanesi","address1":"Yenice, Terme Cd. No:17, 40200 Kırşehir Merkez/Kırşehir, Turkey","address2":"kırşehir/kırşehir merkez/terme eczanesi","direction":"https://www.google.com.tr/maps/dir/My+Location/39.1427079,34.1598131"},{"lat":39.1508889,"lng":34.1615811,"name":"Tiryaki Eczanesi","address1":"Ahievran Mh, Yavuz Sultan Selim Blv. Keleş Apt D:No:19/A, 40100 Kırşehir Merkez/Kırşehir, Turkey","address2":"kırşehir/kırşehir merkez/tiryaki eczanesi","direction":"https://www.google.com.tr/maps/dir/My+Location/39.1508889,34.1615811"},{"lat":39.1409523,"lng":34.1580493,"name":"Ümit Eczanesi","address1":"Kuşdilli Mahallesi, McDonald'S Yanı, Nalçaçı Apt. Altı No: 56/A, Kuşdilli, Eski Hal 2. Sk. No:7, 40100 Kırşehir Merkez/Kırşehir, Turkey","address2":"kırşehir/kırşehir merkez/ümit eczanesi","direction":"https://www.google.com.tr/maps/dir/My+Location/39.1409523,34.1580493"},{"lat":39.1454457,"lng":34.1565823,"name":"Yeni Bulut Eczanesi","address1":"KUŞDİLLİ MAH. ESKİ BUĞDAY PAZARI UZUNÇARŞI SOK NO 100, Kuşdilli, 40200 Kırşehir Merkez/Kırşehir, Turkey","address2":"kırşehir/kırşehir merkez/yeni bulut eczanesi","direction":"https://www.google.com.tr/maps/dir/My+Location/39.1454457,34.1565823"},{"lat":39.145401,"lng":34.162826,"name":"Yeni Eczanesi","address1":"Medrese, 57. Sk., 40200 Pk:40200 Merkez/Kırşehir, Turkey","address2":"kırşehir/pk:40200 merkez/yeni eczanesi","direction":"https://www.google.com.tr/maps/dir/My+Location/39.145401,34.162826"}]