[{"lat":36.0809806,"lng":32.8335,"name":"Alp Eczanesi","address1":"Cami Şerif Mahallesi, Tahsin Soylu Cd. No:29/A, 33660 Anamur/Mersin, Turkey","address2":"mersin/anamur/alp eczanesi","direction":"https://www.google.com.tr/maps/dir/My+Location/36.0809806,32.8335"},{"lat":36.080364,"lng":32.840843,"name":"Anamur Eczanesi","address1":"Sağlık, 33650 Anamur/Mersin, Turkey","address2":"mersin/anamur/anamur eczanesi","direction":"https://www.google.com.tr/maps/dir/My+Location/36.080364,32.840843"},{"lat":36.0741816,"lng":32.8227263,"name":"Demircioğlu Eczanesi","address1":"Akarca, Ahmet Taner Kışlalı Cd., 33630 Anamur/Mersin, Turkey","address2":"mersin/anamur/demircioğlu eczanesi","direction":"https://www.google.com.tr/maps/dir/My+Location/36.0741816,32.8227263"},{"lat":36.070962,"lng":32.8643233,"name":"Dilşad Eczanesi","address1":"İskele, 1709. Sk. No:9, 33650 Anamur/Mersin, Turkey","address2":"mersin/anamur/dilşad eczanesi","direction":"https://www.google.com.tr/maps/dir/My+Location/36.070962,32.8643233"},{"lat":36.0813204,"lng":32.8401793,"name":"Erdem Eczanesi","address1":"SAĞLIK MAHALLESİ AKDENİZ CADDESİ HASTANE SOKAK 134/B, Sağlık, 33640 ANAMUR/Anamur/Mersin, Turkey","address2":"mersin/anamur/erdem eczanesi","direction":"https://www.google.com.tr/maps/dir/My+Location/36.0813204,32.8401793"},{"lat":36.080567,"lng":32.8406569,"name":"Ertürk Eczanesi","address1":"Mesudiye Mahallesi, Dr. Abdullah Çelik Cad. No:6/A, 33640 Anamur/Mersin, Turkey","address2":"mersin/anamur/ertürk eczanesi","direction":"https://www.google.com.tr/maps/dir/My+Location/36.080567,32.8406569"},{"lat":36.077183,"lng":32.832823,"name":"Ferhan Eczanesi","address1":"Yeşilyurt, 33650 Anamur/Mersin, Turkey","address2":"mersin/anamur/ferhan eczanesi","direction":"https://www.google.com.tr/maps/dir/My+Location/36.077183,32.832823"},{"lat":36.0749609,"lng":32.8273391,"name":"Irmak Eczanesi","address1":"Akarca, Ahmet Taner Kışlalı Cd. Pk:33640, 33630 Anamur/Mersin, Turkey","address2":"mersin/anamur/irmak eczanesi","direction":"https://www.google.com.tr/maps/dir/My+Location/36.0749609,32.8273391"},{"lat":36.069241,"lng":32.836522,"name":"İstiklal Eczanesi","address1":"Güzelyurt, 19 Mayıs Cd. No:24/B, 33650 Anamur/Mersin, Turkey","address2":"mersin/anamur/istiklal eczanesi","direction":"https://www.google.com.tr/maps/dir/My+Location/36.069241,32.836522"},{"lat":36.080478,"lng":32.840744,"name":"Kan Eczanesi","address1":"Sağlık, 33650 Anamur/Mersin, Turkey","address2":"mersin/anamur/kan eczanesi","direction":"https://www.google.com.tr/maps/dir/My+Location/36.080478,32.840744"},{"lat":36.0802377,"lng":32.8409932,"name":"Koray Eczanesi","address1":"Sağlık Mahallesi Dr. Abdullah Çelik Caddesi No:10/A, Sağlık, 33640 Anamur/Mersin, Turkey","address2":"mersin/anamur/koray eczanesi","direction":"https://www.google.com.tr/maps/dir/My+Location/36.0802377,32.8409932"},{"lat":36.0806616,"lng":32.8381935,"name":"Melis Eczanesi","address1":"Göktaş, Tahsin Soylu Cd. 105/C, 33650 Anamur/Mersin, Turkey","address2":"mersin/anamur/melis eczanesi","direction":"https://www.google.com.tr/maps/dir/My+Location/36.0806616,32.8381935"},{"lat":36.0761328,"lng":32.8306861,"name":"Mutlay Eczanesi","address1":"esentepe mah. 23 nisan caddesi Pk:33650 Anamur/mersin, Esentepe, 33650 anamur/Anamur/Mersin, Turkey","address2":"mersin/anamur/mutlay eczanesi","direction":"https://www.google.com.tr/maps/dir/My+Location/36.0761328,32.8306861"},{"lat":36.0803289,"lng":32.8408923,"name":"Noyan Eczanesi","address1":"Mesudiye Mahallesi, Hastane Cad. No:14/C, 33640 Anamur/Mersin, Turkey","address2":"mersin/anamur/noyan eczanesi","direction":"https://www.google.com.tr/maps/dir/My+Location/36.0803289,32.8408923"},{"lat":36.0784376,"lng":32.8493635,"name":"Özen Eczanesi","address1":"Bahçelievler, 1204. Sk. No:8, 33650 Anamur/Mersin, Turkey","address2":"mersin/anamur/özen eczanesi","direction":"https://www.google.com.tr/maps/dir/My+Location/36.0784376,32.8493635"},{"lat":36.0807866,"lng":32.8390052,"name":"Özgül Eczanesi","address1":"Mesudiye Mahallesi, Tahsin Soylu Cad. No:126/A, 33640 Anamur/Mersin, Turkey","address2":"mersin/anamur/özgül eczanesi","direction":"https://www.google.com.tr/maps/dir/My+Location/36.0807866,32.8390052"},{"lat":36.080589,"lng":32.831154,"name":"Öztürk Eczanesi","address1":"Saray, Tahsin Soylu Cd. Pk:33650, 33640 Anamur/Mersin, Turkey","address2":"mersin/anamur/öztürk eczanesi","direction":"https://www.google.com.tr/maps/dir/My+Location/36.080589,32.831154"},{"lat":36.077286,"lng":32.832889,"name":"Seda Eczanesi","address1":"Anamur, Mersin, Turkey","address2":"mersin/anamur/seda eczanesi","direction":"https://www.google.com.tr/maps/dir/My+Location/36.077286,32.832889"},{"lat":36.0791884,"lng":32.8300545,"name":"Sinanoğlu Eczanesi","address1":"Saray, Atatürk Blv. Pk:33650, 33640 Anamur/Mersin, Turkey","address2":"mersin/anamur/sinanoğlu eczanesi","direction":"https://www.google.com.tr/maps/dir/My+Location/36.0791884,32.8300545"},{"lat":36.0816638,"lng":32.8405397,"name":"Ufuk Eczanesi","address1":"Sağlık, Akdeniz Cd. Pk:33650, 33650 Anamur/Mersin, Turkey","address2":"mersin/anamur/ufuk eczanesi","direction":"https://www.google.com.tr/maps/dir/My+Location/36.0816638,32.8405397"},{"lat":36.074887,"lng":32.82718,"name":"Ünal Eczanesi","address1":"Akarca Mh. Ahmet Taner Kışlalı Cd. Pk:33640 Anamur/mersin, Akarca, 33630 Anamur/Mersin, Turkey","address2":"mersin/anamur/ünal eczanesi","direction":"https://www.google.com.tr/maps/dir/My+Location/36.074887,32.82718"},{"lat":36.077514,"lng":32.832935,"name":"Yücel Eczanesi","address1":"Saray, Akdeniz Cd. 35/A, 33640 Anamur/Mersin, Turkey","address2":"mersin/anamur/yücel eczanesi","direction":"https://www.google.com.tr/maps/dir/My+Location/36.077514,32.832935"},{"lat":36.1070475,"lng":32.9747663,"name":"Akdeniz Eczanesi","address1":"Çopurlu, Şehitler Cd. NO:8, 33830 Bozyazı/Mersin, Turkey","address2":"mersin/bozyazı/akdeniz eczanesi","direction":"https://www.google.com.tr/maps/dir/My+Location/36.1070475,32.9747663"},{"lat":36.1055333,"lng":32.970502,"name":"Atalay Eczanesi","address1":"Merkez, Sağlık Sk. Pk:33835, 33835 Bozyazı/Mersin, Turkey","address2":"mersin/bozyazı/atalay eczanesi","direction":"https://www.google.com.tr/maps/dir/My+Location/36.1055333,32.970502"},{"lat":36.114573,"lng":32.972049,"name":"Birgül Eczanesi","address1":"Çopurlu, 33830 Bozyazı/Mersin, Turkey","address2":"mersin/bozyazı/birgül eczanesi","direction":"https://www.google.com.tr/maps/dir/My+Location/36.114573,32.972049"},{"lat":36.105906,"lng":32.9703998,"name":"Bozyazı Eczanesi","address1":"Merkez, Sağlık Sk. Pk:33835, 33835 Bozyazı/Mersin, Turkey","address2":"mersin/bozyazı/bozyazı eczanesi","direction":"https://www.google.com.tr/maps/dir/My+Location/36.105906,32.9703998"},{"lat":36.1065074,"lng":32.9704136,"name":"Güler Eczanesi","address1":"Merkez, Sağlık Sk. 10/ b, 33830 Bozyazı/Mersin, Turkey","address2":"mersin/bozyazı/güler eczanesi","direction":"https://www.google.com.tr/maps/dir/My+Location/36.1065074,32.9704136"},{"lat":36.114868,"lng":32.9719961,"name":"Nil Eczanesi","address1":"Merkez, Hilmi Ergenekon Cd. No:31, 33830 Bozyazı/Mersin, Turkey","address2":"mersin/bozyazı/nil eczanesi","direction":"https://www.google.com.tr/maps/dir/My+Location/36.114868,32.9719961"},{"lat":36.6090444,"lng":34.3153867,"name":"Akcaoğlu Eczanesi","address1":"Alata, Alparslan Türkeş Blv. No:583, 33730 Erdemli/Mersin, Turkey","address2":"mersin/erdemli/akcaoğlu eczanesi","direction":"https://www.google.com.tr/maps/dir/My+Location/36.6090444,34.3153867"},{"lat":36.6110708,"lng":34.3024169,"name":"Avgadı Eczanesi","address1":"Merkez, Kazım Karabekir Cd., 33730 Erdemli/Mersin, Turkey","address2":"mersin/erdemli/avgadı eczanesi","direction":"https://www.google.com.tr/maps/dir/My+Location/36.6110708,34.3024169"},{"lat":36.6077325,"lng":34.3048739,"name":"Bilge Eczanesi","address1":"Kösbucağı, Kazım Karabekir Cd., Erdemli/Mersin, Turkey","address2":"mersin/erdemli/bilge eczanesi","direction":"https://www.google.com.tr/maps/dir/My+Location/36.6077325,34.3048739"},{"lat":36.609893,"lng":34.302738,"name":"Coşar Eczanesi","address1":"Kazım Karabekir cad.. Pk:33730 Erdemli/mersin, Akdeniz, 33730 Erdemli/Mersin, Turkey","address2":"mersin/erdemli/coşar eczanesi","direction":"https://www.google.com.tr/maps/dir/My+Location/36.609893,34.302738"},{"lat":36.6106259,"lng":34.3002163,"name":"Deniz Eczanesi","address1":"Kösbucağı, 33770 Erdemli/Mersin, Turkey","address2":"mersin/erdemli/deniz eczanesi","direction":"https://www.google.com.tr/maps/dir/My+Location/36.6106259,34.3002163"},{"lat":36.6109201,"lng":34.3027564,"name":"Eda Eczanesi","address1":"Merkez Mh. Kazım Karabekir Cd. Yeni Hastane Karşısı Pk:33730 Erdemli/mersin, Merkez, 33730 Erdemli/Mersin, Turkey","address2":"mersin/erdemli/eda eczanesi","direction":"https://www.google.com.tr/maps/dir/My+Location/36.6109201,34.3027564"},{"lat":36.6077325,"lng":34.3048739,"name":"Emrah Eczanesi","address1":"Kösbucağı, Kazım Karabekir Cd., Erdemli/Mersin, Turkey","address2":"mersin/erdemli/emrah eczanesi","direction":"https://www.google.com.tr/maps/dir/My+Location/36.6077325,34.3048739"},{"lat":36.6047167,"lng":34.3137197,"name":"Eren Eczanesi","address1":"Merkez, Doğukan Sk. No:7, 33730 Erdemli/Mersin, Turkey","address2":"mersin/erdemli/eren eczanesi","direction":"https://www.google.com.tr/maps/dir/My+Location/36.6047167,34.3137197"},{"lat":36.6051572,"lng":34.3122759,"name":"Esen Eczanesi","address1":"Merkez Mahallesi, İbni Sina Sk. No:13/B, 33730 Erdemli/Mersin, Turkey","address2":"mersin/erdemli/esen eczanesi","direction":"https://www.google.com.tr/maps/dir/My+Location/36.6051572,34.3122759"},{"lat":36.6102709,"lng":34.301885,"name":"Fulya Eczanesi","address1":"Akdeniz Mah., Yavuz Sultan Selim Cad 70/A, 33740 Erdemli/Mersin, Turkey","address2":"mersin/erdemli/fulya eczanesi","direction":"https://www.google.com.tr/maps/dir/My+Location/36.6102709,34.301885"},{"lat":36.6107704,"lng":34.3024866,"name":"Göküş Eczanesi","address1":"MERKEZ MAHALLESİ, Kazım Karabekir Cd. NO:84/C, 33740 Erdemli/Mersin, Turkey","address2":"mersin/erdemli/göküş eczanesi","direction":"https://www.google.com.tr/maps/dir/My+Location/36.6107704,34.3024866"},{"lat":36.6052688,"lng":34.3124888,"name":"Güneş Eczanesi","address1":"Merkez, Şht. Süleyman Şahin Sk. 20a, 33730 Erdemli/Mersin, Turkey","address2":"mersin/erdemli/güneş eczanesi","direction":"https://www.google.com.tr/maps/dir/My+Location/36.6052688,34.3124888"},{"lat":36.6066963,"lng":34.309609,"name":"Gürgah Eczanesi","address1":"Merkez, 2003. Sk. No:1, 33730 Erdemli/Mersin, Turkey","address2":"mersin/erdemli/gürgah eczanesi","direction":"https://www.google.com.tr/maps/dir/My+Location/36.6066963,34.309609"},{"lat":36.6048864,"lng":34.3138153,"name":"Hakan Eczanesi","address1":"Merkez, 33730 Erdemli/Mersin, Turkey","address2":"mersin/erdemli/hakan eczanesi","direction":"https://www.google.com.tr/maps/dir/My+Location/36.6048864,34.3138153"},{"lat":36.6066963,"lng":34.309609,"name":"Hatipoğlu Eczanesi","address1":"Merkez, 2003. Sk. No:1, 33730 Erdemli/Mersin, Turkey","address2":"mersin/erdemli/hatipoğlu eczanesi","direction":"https://www.google.com.tr/maps/dir/My+Location/36.6066963,34.309609"},{"lat":36.6044066,"lng":34.3141411,"name":"Koçak Eczanesi","address1":"Merkez, Sağlık Sk. No:12, 33730 Erdemli/Mersin, Turkey","address2":"mersin/erdemli/koçak eczanesi","direction":"https://www.google.com.tr/maps/dir/My+Location/36.6044066,34.3141411"},{"lat":36.6051556,"lng":34.311149,"name":"Sabah Eczanesi","address1":"Merkez, Milli Egemenlik Sk. No:8, 33730 Erdemli/Mersin, Turkey","address2":"mersin/erdemli/sabah eczanesi","direction":"https://www.google.com.tr/maps/dir/My+Location/36.6051556,34.311149"},{"lat":36.6057933,"lng":34.3133031,"name":"Sağlar Eczanesi","address1":"Merkez, İbni Sina Sk., 33730 Erdemli/Mersin, Turkey","address2":"mersin/erdemli/sağlar eczanesi","direction":"https://www.google.com.tr/maps/dir/My+Location/36.6057933,34.3133031"},{"lat":36.609151,"lng":34.303442,"name":"Şahman Eczanesi","address1":"No:51\\D, Akdeniz, Kazım Karabekir Cd., 33770 Erdemli/Mersin, Turkey","address2":"mersin/erdemli/şahman eczanesi","direction":"https://www.google.com.tr/maps/dir/My+Location/36.609151,34.303442"},{"lat":36.6039071,"lng":34.3122585,"name":"Samet Eczanesi","address1":"Merkez Mahallesi, Merkez, Abdurrahman şevk caddesi 25/B, 33730 Erdemli/Mersin, Turkey","address2":"mersin/erdemli/samet eczanesi","direction":"https://www.google.com.tr/maps/dir/My+Location/36.6039071,34.3122585"},{"lat":36.4621466,"lng":34.1452072,"name":"Şenel Eczanesi","address1":"Kızkalesi, 1. Plaj Yolu Sk., 33790 Erdemli/Mersin, Turkey","address2":"mersin/erdemli/şenel eczanesi","direction":"https://www.google.com.tr/maps/dir/My+Location/36.4621466,34.1452072"},{"lat":36.6105636,"lng":34.3027612,"name":"Serin Eczanesi","address1":"Merkez, Kazım Karabekir Cd., 33730 Erdemli/Mersin, Turkey","address2":"mersin/erdemli/serin eczanesi","direction":"https://www.google.com.tr/maps/dir/My+Location/36.6105636,34.3027612"},{"lat":36.6107794,"lng":34.302506,"name":"Serpil Eczanesi","address1":"Merkez, Kazım Karabekir Cd. No:80 D:B Blok, 33730 Erdemli/Mersin, Turkey","address2":"mersin/erdemli/serpil eczanesi","direction":"https://www.google.com.tr/maps/dir/My+Location/36.6107794,34.302506"},{"lat":36.81401,"lng":34.629186,"name":"Sevi Eczanesi","address1":"SAĞLIK MH 86046 SK ABDULLAH EYMEN APT. NO:10/AA, Toroslar, 33080 Toroslar/Mersin, Turkey","address2":"mersin/toroslar/sevi eczanesi","direction":"https://www.google.com.tr/maps/dir/My+Location/36.81401,34.629186"},{"lat":36.6089379,"lng":34.3037262,"name":"Seyran Eczanesi","address1":"Akdeniz, Kazım Karabekir Cd. NO:49/C, 33730 Erdemli/Mersin, Turkey","address2":"mersin/erdemli/seyran eczanesi","direction":"https://www.google.com.tr/maps/dir/My+Location/36.6089379,34.3037262"},{"lat":36.614664,"lng":34.321888,"name":"Tepe Eczanesi","address1":"Alata, Hastane Cad. 30/D, 33730 İçel Merkez/Mersin (İçel), Turkey","address2":"mersin (içel)/içel merkez/tepe eczanesi","direction":"https://www.google.com.tr/maps/dir/My+Location/36.614664,34.321888"},{"lat":36.6088913,"lng":34.3037274,"name":"Ümit Eczanesi","address1":"Akdeniz Mahallesi, Kazım Karabekir Cd. 49/b, 33730 Erdemli/Mersin, Turkey","address2":"mersin/erdemli/ümit eczanesi","direction":"https://www.google.com.tr/maps/dir/My+Location/36.6088913,34.3037274"},{"lat":36.6110708,"lng":34.3024169,"name":"Zafer Eczanesi","address1":"Merkez, Kazım Karabekir Cd., 33730 Erdemli/Mersin, Turkey","address2":"mersin/erdemli/zafer eczanesi","direction":"https://www.google.com.tr/maps/dir/My+Location/36.6110708,34.3024169"},{"lat":36.338411,"lng":33.4034482,"name":"Arıkan Eczanesi","address1":"Saray, 33700 Gülnar/Mersin, Turkey","address2":"mersin/gülnar/arıkan eczanesi","direction":"https://www.google.com.tr/maps/dir/My+Location/36.338411,33.4034482"},{"lat":36.338226,"lng":33.4033577,"name":"Ateş Eczanesi","address1":"Saray, 33700 Gülnar/Mersin, Turkey","address2":"mersin/gülnar/ateş eczanesi","direction":"https://www.google.com.tr/maps/dir/My+Location/36.338226,33.4033577"},{"lat":36.338431,"lng":33.402848,"name":"Gönen Eczanesi","address1":"Saray, Ermenek Gülnar Yolu Pk:33720, 33700 Gülnar/Mersin, Turkey","address2":"mersin/gülnar/gönen eczanesi","direction":"https://www.google.com.tr/maps/dir/My+Location/36.338431,33.402848"},{"lat":36.33848,"lng":33.403574,"name":"Nadir Eczanesi","address1":"Saray Mh. Gülnar Silifke Yolu Pk:33720 Gülnar/mersin, Saray, 33720 Gülnar/Mersin, Turkey","address2":"mersin/gülnar/nadir eczanesi","direction":"https://www.google.com.tr/maps/dir/My+Location/36.33848,33.403574"},{"lat":36.338479,"lng":33.4032469,"name":"Yeni Eczanesi","address1":"Saray, 33700 Gülnar/Mersin, Turkey","address2":"mersin/gülnar/yeni eczanesi","direction":"https://www.google.com.tr/maps/dir/My+Location/36.338479,33.4032469"},{"lat":36.8003159,"lng":34.629579,"name":"Acaroğlu Eczanesi","address1":"Camiişerif mah., İstiklal Cad. 5250. Sokak No:44, 33060 Akdeniz/Mersin, Turkey","address2":"mersin/akdeniz/acaroğlu eczanesi","direction":"https://www.google.com.tr/maps/dir/My+Location/36.8003159,34.629579"},{"lat":36.8121041,"lng":34.6414811,"name":"Acil Eczanesi","address1":"Mersin, Akdeniz/Mersin, Turkey","address2":"mersin/akdeniz/acil eczanesi","direction":"https://www.google.com.tr/maps/dir/My+Location/36.8121041,34.6414811"},{"lat":36.7992845,"lng":34.60511,"name":"Adar Eczanesi","address1":"Alsancak, 76065. Sk no:26, 33090 Toroslar/Mersin, Turkey","address2":"mersin/toroslar/adar eczanesi","direction":"https://www.google.com.tr/maps/dir/My+Location/36.7992845,34.60511"},{"lat":36.7943552,"lng":34.6157769,"name":"Adem Eczanesi","address1":"Turgutreis, İstiklal Cd. No:196, 33010 Akdeniz/Mersin, Turkey","address2":"mersin/akdeniz/adem eczanesi","direction":"https://www.google.com.tr/maps/dir/My+Location/36.7943552,34.6157769"},{"lat":36.8363084,"lng":34.6106847,"name":"Ahu Eczanesi","address1":"Çağdaşkent, 229. Cd. 43 G, 33230 Toroslar/Mersin, Turkey","address2":"mersin/toroslar/ahu eczanesi","direction":"https://www.google.com.tr/maps/dir/My+Location/36.8363084,34.6106847"},{"lat":36.7823777,"lng":34.5879556,"name":"Akademi Eczanesi","address1":"Güvenevler, 1914. Sk. No:5, 33140 Yenişehir/Mersin, Turkey","address2":"mersin/yenişehir/akademi eczanesi","direction":"https://www.google.com.tr/maps/dir/My+Location/36.7823777,34.5879556"},{"lat":36.814983,"lng":34.638983,"name":"Akbey Eczanesi","address1":"Siteler, 5649. Sk., 33040 Akdeniz/Mersin, Turkey","address2":"mersin/akdeniz/akbey eczanesi","direction":"https://www.google.com.tr/maps/dir/My+Location/36.814983,34.638983"},{"lat":36.8226371,"lng":34.6405085,"name":"Akdamar Eczanesi","address1":"Şevketsümer, 33300 Akdeniz/Mersin, Turkey","address2":"mersin/akdeniz/akdamar eczanesi","direction":"https://www.google.com.tr/maps/dir/My+Location/36.8226371,34.6405085"},{"lat":36.8223917,"lng":34.6376063,"name":"Akdeniz Güneş Eczanesi","address1":"Güneş Mahallesi 5822 Sokak numara, Güneş, D:1, 33040 Akdeniz/Mersin, Turkey","address2":"mersin/akdeniz/akdeniz güneş eczanesi","direction":"https://www.google.com.tr/maps/dir/My+Location/36.8223917,34.6376063"},{"lat":36.7797265,"lng":34.5566484,"name":"Akgül Eczanesi","address1":"Batıkent, 2635. Sk. no:57, 33160 Yenişehir/Mersin, Turkey","address2":"mersin/yenişehir/akgül eczanesi","direction":"https://www.google.com.tr/maps/dir/My+Location/36.7797265,34.5566484"},{"lat":36.7840682,"lng":34.5856764,"name":"Alkım Eczanesi","address1":"Güvenevler Mah. Dumlupınar Cad. Bayrak Apt. No:36/A Yenişehir, Güvenevler, 33141 Yenişehir/Mersin, Turkey","address2":"mersin/yenişehir/alkım eczanesi","direction":"https://www.google.com.tr/maps/dir/My+Location/36.7840682,34.5856764"},{"lat":36.770824,"lng":34.562245,"name":"Alper Eczanesi","address1":"Eğriçam, Gazi Mustafa Kemal Blv., 33160 Yenişehir/Mersin, Turkey","address2":"mersin/yenişehir/alper eczanesi","direction":"https://www.google.com.tr/maps/dir/My+Location/36.770824,34.562245"},{"lat":36.7863246,"lng":34.5930981,"name":"Altunbaş Eczanesi","address1":"güvenevler mahallesi, Güvenevler, 1. Cad. No:122 D:A, 33140 Yenişehir/Mersin, Turkey","address2":"mersin/yenişehir/altunbaş eczanesi","direction":"https://www.google.com.tr/maps/dir/My+Location/36.7863246,34.5930981"},{"lat":36.810686,"lng":34.624056,"name":"Anadolu Eczanesi","address1":"Nusratiye, Mehmet Akif Ersoy Sk No:38, 33050 Akdeniz/Mersin, Turkey","address2":"mersin/akdeniz/anadolu eczanesi","direction":"https://www.google.com.tr/maps/dir/My+Location/36.810686,34.624056"},{"lat":36.8065927,"lng":34.6287806,"name":"Anıl Eczanesi","address1":"Çakmak Cd., Akdeniz/Mersin, Turkey","address2":"mersin/akdeniz/anıl eczanesi","direction":"https://www.google.com.tr/maps/dir/My+Location/36.8065927,34.6287806"},{"lat":36.799276,"lng":34.6283399,"name":"Apçin Eczanesi","address1":"Yeni Mah. Atatürk Cad. Güven İş Hanı D:1, Karacailyas, Akdeniz, Mersin (İçel), Çankaya, 33070 Akdeniz/Mersin, Turkey","address2":"mersin/akdeniz/apçin eczanesi","direction":"https://www.google.com.tr/maps/dir/My+Location/36.799276,34.6283399"},{"lat":36.7950892,"lng":34.623514,"name":"Ardıç Eczanesi","address1":"Kiremithane, 4406 Sok. No:4, 33010 İçel Merkez/Mersin (İçel), Turkey","address2":"mersin (içel)/içel merkez/ardıç eczanesi","direction":"https://www.google.com.tr/maps/dir/My+Location/36.7950892,34.623514"},{"lat":36.799895,"lng":34.620065,"name":"Asena Eczanesi","address1":"Bahçe Mah Burhan Felek Cad Akyüz Apt No:145/d, Bahçe, Erciyes Taksi Durağı Karşısı, 33010 Akdeniz/Mersin, Turkey","address2":"mersin/akdeniz/asena eczanesi","direction":"https://www.google.com.tr/maps/dir/My+Location/36.799895,34.620065"},{"lat":36.7896645,"lng":34.5870416,"name":"Asuman Eczanesi","address1":"Forum Yaşam Hastanesi Karşısı Güvenevler Mh. 20. Cd. No:19/C, Güvenevler, 33000 Yenişehir/Mersin, Turkey","address2":"mersin/yenişehir/asuman eczanesi","direction":"https://www.google.com.tr/maps/dir/My+Location/36.7896645,34.5870416"},{"lat":36.826847,"lng":34.653392,"name":"Atasoy Eczanesi","address1":"Şevketsümer, Turgut Özal Blv., 33020 İçel Merkez/Mersin, Turkey","address2":"mersin/içel merkez/atasoy eczanesi","direction":"https://www.google.com.tr/maps/dir/My+Location/36.826847,34.653392"},{"lat":36.7926946,"lng":34.6212306,"name":"Aydoğan Eczanesi","address1":"Kültür, 4312. Sk., 33010 Akdeniz/Mersin, Turkey","address2":"mersin/akdeniz/aydoğan eczanesi","direction":"https://www.google.com.tr/maps/dir/My+Location/36.7926946,34.6212306"},{"lat":36.838018,"lng":34.5982849,"name":"Ayfer Eczanesi","address1":"Çukurova, 85119. Sk. No:130, 33230 Toroslar/Mersin, Turkey","address2":"mersin/toroslar/ayfer eczanesi","direction":"https://www.google.com.tr/maps/dir/My+Location/36.838018,34.5982849"},{"lat":36.818271,"lng":34.612693,"name":"Ayşem Eczanesi","address1":"Zeki Ayan, Kuvayi Milliye Cd., 33220 Toroslar/Mersin, Turkey","address2":"mersin/toroslar/ayşem eczanesi","direction":"https://www.google.com.tr/maps/dir/My+Location/36.818271,34.612693"},{"lat":36.8080521,"lng":34.6122239,"name":"Babacan Eczanesi","address1":"Turgut Türkalp, 79028. Sk. No:2, 33090 Toroslar/Mersin, Turkey","address2":"mersin/toroslar/babacan eczanesi","direction":"https://www.google.com.tr/maps/dir/My+Location/36.8080521,34.6122239"},{"lat":36.7712781,"lng":34.5627017,"name":"Bal Eczanesi","address1":"EĞRİÇAM MAH. GMK BULVARI, Eğriçam, UZMAN ATA TIP MERKEZİ KARŞISI, ADNAN ÖZÇELİK ASM BİTİŞİĞİ, 33160 Yenişehir/Mersin, Turkey","address2":"mersin/yenişehir/bal eczanesi","direction":"https://www.google.com.tr/maps/dir/My+Location/36.7712781,34.5627017"},{"lat":36.8062,"lng":34.6359499,"name":"Banu Eczanesi","address1":"Yeni, 5314. Sk. No:2, 33050 Akdeniz/Mersin, Turkey","address2":"mersin/akdeniz/banu eczanesi","direction":"https://www.google.com.tr/maps/dir/My+Location/36.8062,34.6359499"},{"lat":36.8147417,"lng":34.645552,"name":"Barış Eczanesi","address1":"Siteler, 33040 Akdeniz/Mersin, Turkey","address2":"mersin/akdeniz/barış eczanesi","direction":"https://www.google.com.tr/maps/dir/My+Location/36.8147417,34.645552"},{"lat":36.7789062,"lng":34.5804425,"name":"Batuhan Eczanesi","address1":"Aydınlıkevler, Gazi Mustafa Kemal Blv., 33140 Yenişehir/Mersin, Turkey","address2":"mersin/yenişehir/batuhan eczanesi","direction":"https://www.google.com.tr/maps/dir/My+Location/36.7789062,34.5804425"},{"lat":36.810385,"lng":34.627435,"name":"Batur Ay Eczanesi","address1":"Nusratiye, 5004 Sok. No:5, 33050 İçel Merkez/Mersin (İçel), Turkey","address2":"mersin (içel)/içel merkez/batur ay eczanesi","direction":"https://www.google.com.tr/maps/dir/My+Location/36.810385,34.627435"},{"lat":36.7792357,"lng":34.5748789,"name":"Baygör Eczanesi","address1":"Barbaros, 2148 Sok. 10/A, 33150 Yenişehir/Mersin (İçel), Turkey","address2":"mersin (içel)/yenişehir/baygör eczanesi","direction":"https://www.google.com.tr/maps/dir/My+Location/36.7792357,34.5748789"},{"lat":36.8085112,"lng":34.6211941,"name":"Bereket Eczanesi","address1":"İhsaniye, 4915. Sk. No:8, 33070 Akdeniz/Mersin, Turkey","address2":"mersin/akdeniz/bereket eczanesi","direction":"https://www.google.com.tr/maps/dir/My+Location/36.8085112,34.6211941"},{"lat":36.8093417,"lng":34.6263541,"name":"Beşyol Eczanesi","address1":"Akdeniz, Çakmak Cad. 51/B, 33050 Toroslar/Mersin, Turkey","address2":"mersin/toroslar/beşyol eczanesi","direction":"https://www.google.com.tr/maps/dir/My+Location/36.8093417,34.6263541"},{"lat":36.808689,"lng":34.611816,"name":"Bilim Eczanesi","address1":"Turgut Türkalp, 79028 Sok. 4/A, 33090 İçel Merkez/Mersin (İçel), Turkey","address2":"mersin (içel)/içel merkez/bilim eczanesi","direction":"https://www.google.com.tr/maps/dir/My+Location/36.808689,34.611816"},{"lat":36.8092876,"lng":34.6261872,"name":"Birsen Eczanesi","address1":"Nusratiye, 33050 Akdeniz/Mersin, Turkey","address2":"mersin/akdeniz/birsen eczanesi","direction":"https://www.google.com.tr/maps/dir/My+Location/36.8092876,34.6261872"},{"lat":36.8065458,"lng":34.6357373,"name":"Buket Eczanesi","address1":"Yeni, 5314. Sk. 4/A, 33050 Akdeniz/Mersin, Turkey","address2":"mersin/akdeniz/buket eczanesi","direction":"https://www.google.com.tr/maps/dir/My+Location/36.8065458,34.6357373"},{"lat":36.7904,"lng":34.6116176,"name":"Burak Eczanesi","address1":"Cumhuriyet, Gazi Mustafa Kemal Blv. No:206, 33110 Yenişehir/Mersin, Turkey","address2":"mersin/yenişehir/burak eczanesi","direction":"https://www.google.com.tr/maps/dir/My+Location/36.7904,34.6116176"},{"lat":36.7842845,"lng":34.598138,"name":"Cadde Eczanesi","address1":"GMK Bulvarı, Bahçelievler Mahallesi, Bahçelievler, Tuba Apartmanı 330/A, 33130 Yenişehir/Mersin, Turkey","address2":"mersin/yenişehir/cadde eczanesi","direction":"https://www.google.com.tr/maps/dir/My+Location/36.7842845,34.598138"},{"lat":36.8357922,"lng":34.6110793,"name":"Çağdaşkent Eczanesi","address1":"çağdaşkent mah. 229. cadde no:10/C toroslar mersin, Çağdaşkent, 33230 Toroslar/Mersin, Turkey","address2":"mersin/toroslar/çağdaşkent eczanesi","direction":"https://www.google.com.tr/maps/dir/My+Location/36.8357922,34.6110793"},{"lat":36.832439,"lng":34.619321,"name":"Çam Eczanesi","address1":"Çağdaşkent, 33230 Toroslar/Mersin, Turkey","address2":"mersin/toroslar/çam eczanesi","direction":"https://www.google.com.tr/maps/dir/My+Location/36.832439,34.619321"},{"lat":36.838121,"lng":34.598628,"name":"Çavuşlu Eczanesi","address1":"Çukurova Mh, 85119. Sk. 134/A, 33230 Toroslar/Mersin, Turkey","address2":"mersin/toroslar/çavuşlu eczanesi","direction":"https://www.google.com.tr/maps/dir/My+Location/36.838121,34.598628"},{"lat":36.7963645,"lng":34.626705,"name":"Cerrahoğlu Eczanesi","address1":"Çankaya, 4701. Sk. 10 A, 33070 Akdeniz/Mersin, Turkey","address2":"mersin/akdeniz/cerrahoğlu eczanesi","direction":"https://www.google.com.tr/maps/dir/My+Location/36.7963645,34.626705"},{"lat":36.807521,"lng":34.6184045,"name":"Cevheroğlu Eczanesi","address1":"İhsaniye, 113. Cad. No:36, 33070 Akdeniz/Mersin (Icel), Turkey","address2":"mersin (icel)/akdeniz/cevheroğlu eczanesi","direction":"https://www.google.com.tr/maps/dir/My+Location/36.807521,34.6184045"},{"lat":36.825171,"lng":34.600593,"name":"Çevik Eczanesi","address1":"Akbelen, Toroslar Cd., 33220 Toroslar/Mersin, Turkey","address2":"mersin/toroslar/çevik eczanesi","direction":"https://www.google.com.tr/maps/dir/My+Location/36.825171,34.600593"},{"lat":36.7939605,"lng":34.6006347,"name":"Çiğdem Eczanesi","address1":"Hürriyet, 1741. Sk. No:24, 33120 Yenişehir/Mersin, Turkey","address2":"mersin/yenişehir/çiğdem eczanesi","direction":"https://www.google.com.tr/maps/dir/My+Location/36.7939605,34.6006347"},{"lat":36.790866,"lng":34.621938,"name":"Çığlı Eczanesi","address1":"SİSTEM TIP MERKEZİ YANI ÇAMLIBEL Kültür mahallesi 4303 Sok. No:23/D, Kültür, 33070 Akdeniz/Mersin, Turkey","address2":"mersin/akdeniz/çığlı eczanesi","direction":"https://www.google.com.tr/maps/dir/My+Location/36.790866,34.621938"},{"lat":36.8316736,"lng":34.6836637,"name":"Çilek Eczanesi","address1":"Hal, 6350. Sk. No:20, 33020 Camili Köyü/Akdeniz/Mersin, Turkey","address2":"mersin/akdeniz/çilek eczanesi","direction":"https://www.google.com.tr/maps/dir/My+Location/36.8316736,34.6836637"},{"lat":36.7440582,"lng":34.5234793,"name":"Çınar Eczanesi","address1":"Menderes, Cevat Kutlu Cd., Gazi Mustafa Kemal Blv. No:46, 33340 Mezitli/Mersin, Turkey","address2":"mersin/mezitli/çınar eczanesi","direction":"https://www.google.com.tr/maps/dir/My+Location/36.7440582,34.5234793"},{"lat":36.789662,"lng":34.587686,"name":"Çıtırık Eczanesi","address1":"Güvenevler, 20. Cd. No:48, 33140 Yenişehir/Mersin, Turkey","address2":"mersin/yenişehir/çıtırık eczanesi","direction":"https://www.google.com.tr/maps/dir/My+Location/36.789662,34.587686"},{"lat":36.8003309,"lng":34.6317205,"name":"Damla Eczanesi","address1":"Cami Şerif, 33060 Akdeniz/Mersin, Turkey","address2":"mersin/akdeniz/damla eczanesi","direction":"https://www.google.com.tr/maps/dir/My+Location/36.8003309,34.6317205"},{"lat":36.8096773,"lng":34.6222862,"name":"Defne Eczanesi","address1":"Nusratiye, 5026. Sk. No:44, 33050 Akdeniz/Mersin, Turkey","address2":"mersin/akdeniz/defne eczanesi","direction":"https://www.google.com.tr/maps/dir/My+Location/36.8096773,34.6222862"},{"lat":36.756771,"lng":34.537675,"name":"Demet Eczanesi","address1":"Yeni, 33180. Sk., 33180 Mezitli/Mersin, Turkey","address2":"mersin/mezitli/demet eczanesi","direction":"https://www.google.com.tr/maps/dir/My+Location/36.756771,34.537675"},{"lat":36.810772,"lng":34.627291,"name":"Demirel Eczanesi","address1":"Nusratiye, 5021. Sk. No:1 D:No:33, 33050 Akdeniz/Mersin, Turkey","address2":"mersin/akdeniz/demirel eczanesi","direction":"https://www.google.com.tr/maps/dir/My+Location/36.810772,34.627291"},{"lat":36.7999638,"lng":34.6332766,"name":"Deren Eczanesi","address1":"Cami Şerif, Donuktaş Cad. No:40, 33060 İçel Merkez/Mersin (İçel), Turkey","address2":"mersin (içel)/içel merkez/deren eczanesi","direction":"https://www.google.com.tr/maps/dir/My+Location/36.7999638,34.6332766"},{"lat":36.8420677,"lng":34.6230995,"name":"Dicle Eczanesi","address1":"Halkkent Mh, Fatih Sultan Mehmet Blv. No:23, 33240 Toroslar/Mersin, Turkey","address2":"mersin/toroslar/dicle eczanesi","direction":"https://www.google.com.tr/maps/dir/My+Location/36.8420677,34.6230995"},{"lat":36.8017206,"lng":34.6294294,"name":"Diler Eczanesi","address1":"Cami Şerif, 5246 Sok. 18/A, 33060 İçel Merkez/Mersin (İçel), Turkey","address2":"mersin (içel)/içel merkez/diler eczanesi","direction":"https://www.google.com.tr/maps/dir/My+Location/36.8017206,34.6294294"},{"lat":36.8194377,"lng":34.6152533,"name":"Dinçer Eczanesi","address1":"Tozkoparan, 87045. Sk. No:14, 33080 Toroslar/Mersin, Turkey","address2":"mersin/toroslar/dinçer eczanesi","direction":"https://www.google.com.tr/maps/dir/My+Location/36.8194377,34.6152533"},{"lat":36.785626,"lng":34.592371,"name":"Doğa Eczanesi","address1":"Güvenevler, 1. Cd., 33140 Yenişehir/Mersin, Turkey","address2":"mersin/yenişehir/doğa eczanesi","direction":"https://www.google.com.tr/maps/dir/My+Location/36.785626,34.592371"},{"lat":36.7475361,"lng":34.518219,"name":"Doğuş Eczanesi","address1":"Merkez, 33330 Mezitli/Mersin, Turkey","address2":"mersin/mezitli/doğuş eczanesi","direction":"https://www.google.com.tr/maps/dir/My+Location/36.7475361,34.518219"},{"lat":36.7979109,"lng":34.6263046,"name":"Dostlar Eczanesi","address1":"Çankaya, İstiklal Cd. No:73, 33070 Akdeniz/Mersin, Turkey","address2":"mersin/akdeniz/dostlar eczanesi","direction":"https://www.google.com.tr/maps/dir/My+Location/36.7979109,34.6263046"},{"lat":36.7742792,"lng":34.5677259,"name":"Duygu Eczanesi","address1":"Eğriçam, Gazi Mustafa Kemal Blv. No:476, 33160 Yenişehir/Mersin, Turkey","address2":"mersin/yenişehir/duygu eczanesi","direction":"https://www.google.com.tr/maps/dir/My+Location/36.7742792,34.5677259"},{"lat":36.8061356,"lng":34.6345426,"name":"Ege Eczanesi","address1":"Mesudiye, 5117. Sk. No:34, 33060 Akdeniz/Mersin, Turkey","address2":"mersin/akdeniz/ege eczanesi","direction":"https://www.google.com.tr/maps/dir/My+Location/36.8061356,34.6345426"},{"lat":36.7845067,"lng":34.5409132,"name":"Ekin Eczanesi","address1":"Mersin Üniversitesi Hastanesi Karşısı Mimar Sinan Caddesi, Çiftlikköy, Paradise Home's Sitesi D Blok No: 6 Yenişehir MERSİN, 33110 Yenişehir/Mersin, Turkey","address2":"mersin/yenişehir/ekin eczanesi","direction":"https://www.google.com.tr/maps/dir/My+Location/36.7845067,34.5409132"},{"lat":36.7941565,"lng":34.6007001,"name":"Elif Eczanesi","address1":"Hürriyet, 1742. Sk., 33120 Yenişehir/Mersin, Turkey","address2":"mersin/yenişehir/elif eczanesi","direction":"https://www.google.com.tr/maps/dir/My+Location/36.7941565,34.6007001"},{"lat":36.7824011,"lng":34.5955178,"name":"Emre Eczanesi","address1":"İnönü Mahallesi 1402 Sok. Ağırtan Apt, İnönü, D:No:17/B, 33130 Yenişehir/Mersin, Turkey","address2":"mersin/yenişehir/emre eczanesi","direction":"https://www.google.com.tr/maps/dir/My+Location/36.7824011,34.5955178"},{"lat":36.834311,"lng":34.702359,"name":"Erdal Eczanesi","address1":"Çay, 6416 Sok. 49/A, 33020 Akdeniz/Mersin (Icel), Turkey","address2":"mersin (icel)/akdeniz/erdal eczanesi","direction":"https://www.google.com.tr/maps/dir/My+Location/36.834311,34.702359"},{"lat":36.8061356,"lng":34.6345426,"name":"Erikci Eczanesi","address1":"Mesudiye, 5117. Sk. No:34, 33060 Akdeniz/Mersin, Turkey","address2":"mersin/akdeniz/erikci eczanesi","direction":"https://www.google.com.tr/maps/dir/My+Location/36.8061356,34.6345426"},{"lat":36.7877925,"lng":34.5989929,"name":"Ertan Eczanesi","address1":"Cumhuriyet, 16. Cadde no 28.c, 33110 Yenişehir/Mersin, Turkey","address2":"mersin/yenişehir/ertan eczanesi","direction":"https://www.google.com.tr/maps/dir/My+Location/36.7877925,34.5989929"},{"lat":36.8300925,"lng":34.659115,"name":"Esat Eczanesi","address1":"Hal, Abdi İpekçi Cad. No:17 D:4, 33020 Akdeniz/Mersin (İçel), Turkey","address2":"mersin (içel)/akdeniz/esat eczanesi","direction":"https://www.google.com.tr/maps/dir/My+Location/36.8300925,34.659115"},{"lat":36.789705,"lng":34.617404,"name":"Eser Eczanesi","address1":"Hamidiye, 4209. Sk. Pk:33010, 45520 Akdeniz/Mersin, Turkey","address2":"mersin/akdeniz/eser eczanesi","direction":"https://www.google.com.tr/maps/dir/My+Location/36.789705,34.617404"},{"lat":36.780707,"lng":34.542128,"name":"Ezgi Eczanesi","address1":"Çiftlikköy, Fevzi Çakmak Cad. No:34, 33110 Toroslar/Mersin (İçel), Turkey","address2":"mersin (içel)/toroslar/ezgi eczanesi","direction":"https://www.google.com.tr/maps/dir/My+Location/36.780707,34.542128"},{"lat":36.786002,"lng":34.539832,"name":"Fakülte Eczanesi","address1":"Çiftlikköy Mah. Mimar Sinan Cad. Paradise Homes Sit. C Blok No:24/CG, Çiftlikköy, Üniversite Hastanesi Karşısı, 33190 YENİŞEHİR/Yenişehir/Mersin, Turkey","address2":"mersin/yenişehir/fakülte eczanesi","direction":"https://www.google.com.tr/maps/dir/My+Location/36.786002,34.539832"},{"lat":36.7834398,"lng":34.6038647,"name":"Gizem Uygun Eczanesi","address1":"Gazi, 1304. Sk. 7-9, 33130 Yenişehir/Mersin, Turkey","address2":"mersin/yenişehir/gizem uygun eczanesi","direction":"https://www.google.com.tr/maps/dir/My+Location/36.7834398,34.6038647"},{"lat":36.7892739,"lng":34.6167891,"name":"Gökay Eczanesi","address1":"Hamidiye, 4209. Sk., 33010 Akdeniz/Mersin, Turkey","address2":"mersin/akdeniz/gökay eczanesi","direction":"https://www.google.com.tr/maps/dir/My+Location/36.7892739,34.6167891"},{"lat":36.810687,"lng":34.640606,"name":"Göktürk Eczanesi","address1":"Çankaya, 121. Cad. No:175, 33050 Akdeniz/Mersin (İçel), Turkey","address2":"mersin (içel)/akdeniz/göktürk eczanesi","direction":"https://www.google.com.tr/maps/dir/My+Location/36.810687,34.640606"},{"lat":36.7860204,"lng":34.5932941,"name":"Gülçin Eczanesi","address1":"Güvenevler Mahallesi 1.Cadde, Güvenevler, 33360 Yenişehir/Mersin, Turkey","address2":"mersin/yenişehir/gülçin eczanesi","direction":"https://www.google.com.tr/maps/dir/My+Location/36.7860204,34.5932941"},{"lat":36.825353,"lng":34.6417763,"name":"Gülfidan Eczanesi","address1":"Akdeniz, 59123 Sok. No:21, 33020 Akdeniz/Mersin, Turkey","address2":"mersin/akdeniz/gülfidan eczanesi","direction":"https://www.google.com.tr/maps/dir/My+Location/36.825353,34.6417763"},{"lat":36.7791941,"lng":34.5751828,"name":"Gülgün Eczanesi","address1":"Barbaros, 2125. Sk. No:4, 33150 Yenişehir/Mersin, Turkey","address2":"mersin/yenişehir/gülgün eczanesi","direction":"https://www.google.com.tr/maps/dir/My+Location/36.7791941,34.5751828"},{"lat":36.8088073,"lng":34.6203463,"name":"Gülnar Eczanesi","address1":"Çankaya Mahallesi, İhsaniye, 5. Sokak No:5, 33070 Akdeniz/Mersin, Turkey","address2":"mersin/akdeniz/gülnar eczanesi","direction":"https://www.google.com.tr/maps/dir/My+Location/36.8088073,34.6203463"},{"lat":36.8181864,"lng":34.6425197,"name":"Gülün Eczanesi","address1":"Mithatpaşa, 141. Cad. No:149, 33040 Akdeniz/Mersin (İçel), Turkey","address2":"mersin (içel)/akdeniz/gülün eczanesi","direction":"https://www.google.com.tr/maps/dir/My+Location/36.8181864,34.6425197"},{"lat":36.826126,"lng":34.625038,"name":"Güneydoğu Eczanesi","address1":"Kurdali, 100075. Sk. Pk:33250, 33250 Toroslar/Mersin, Turkey","address2":"mersin/toroslar/güneydoğu eczanesi","direction":"https://www.google.com.tr/maps/dir/My+Location/36.826126,34.625038"},{"lat":36.7936852,"lng":34.6010369,"name":"Güngör Eczanesi","address1":"Hürriyet, 1745. Sk. No:1, 33120 Yenişehir/Mersin, Turkey","address2":"mersin/yenişehir/güngör eczanesi","direction":"https://www.google.com.tr/maps/dir/My+Location/36.7936852,34.6010369"},{"lat":36.795107,"lng":34.62319,"name":"Gürsoy Eczanesi","address1":"Barış, Kiremithane, 4409. Sok. No:1 d-e f, 33010 Akdeniz/Mersin, Turkey","address2":"mersin/akdeniz/gürsoy eczanesi","direction":"https://www.google.com.tr/maps/dir/My+Location/36.795107,34.62319"},{"lat":36.7870901,"lng":34.6092828,"name":"Güven Eczanesi","address1":"Pirireis, Silifke Cd. No:369, 33110 Yenişehir/Mersin, Turkey","address2":"mersin/yenişehir/güven eczanesi","direction":"https://www.google.com.tr/maps/dir/My+Location/36.7870901,34.6092828"},{"lat":36.8058125,"lng":34.6228041,"name":"Hal Eczanesi","address1":"İhsaniye Mh., Kuvai Milliye Cad. 127/A, 33070 Akdeniz/Mersin, Turkey","address2":"mersin/akdeniz/hal eczanesi","direction":"https://www.google.com.tr/maps/dir/My+Location/36.8058125,34.6228041"},{"lat":36.785608,"lng":34.5922709,"name":"Handan Eczanesi","address1":"Güvenevler Mahallesi 1.Cad. Halit Engin Apt. 113/A, Güvenevler, 33150 Yenişehir/Mersin, Turkey","address2":"mersin/yenişehir/handan eczanesi","direction":"https://www.google.com.tr/maps/dir/My+Location/36.785608,34.5922709"},{"lat":36.8075949,"lng":34.6186274,"name":"Hastaneler Eczanesi","address1":"İhsaniye mahallesi, Sait Çiftçi Cd. no:19 D:E, 33220 İçel Merkez/Mersin, Turkey","address2":"mersin/içel merkez/hastaneler eczanesi","direction":"https://www.google.com.tr/maps/dir/My+Location/36.8075949,34.6186274"},{"lat":36.8061356,"lng":34.6345426,"name":"Hayat Eczanesi","address1":"Mesudiye, 5117. Sk. No:34, 33060 Akdeniz/Mersin, Turkey","address2":"mersin/akdeniz/hayat eczanesi","direction":"https://www.google.com.tr/maps/dir/My+Location/36.8061356,34.6345426"},{"lat":36.819566,"lng":34.61511,"name":"Hayri Bey Eczanesi","address1":"Tozkoparan, 87045. Sk., 33080 Toroslar/Mersin, Turkey","address2":"mersin/toroslar/hayri bey eczanesi","direction":"https://www.google.com.tr/maps/dir/My+Location/36.819566,34.61511"},{"lat":36.8175738,"lng":34.6314511,"name":"Haziran Eczanesi","address1":"Gündoğdu, 5790. Sk. No:14, 33040 Akdeniz/Mersin, Turkey","address2":"mersin/akdeniz/haziran eczanesi","direction":"https://www.google.com.tr/maps/dir/My+Location/36.8175738,34.6314511"},{"lat":36.8089053,"lng":34.6209563,"name":"Hekimoğlu Eczanesi","address1":"İhsaniye, Sait Çiftçi Cd. No:7, 33070 Akdeniz/Mersin, Turkey","address2":"mersin/akdeniz/hekimoğlu eczanesi","direction":"https://www.google.com.tr/maps/dir/My+Location/36.8089053,34.6209563"},{"lat":36.825749,"lng":34.641722,"name":"Helin Eczanesi","address1":"Şevket Sümer Mahallesi, 156. Cd., 33020 Akdeniz/Mersin, Turkey","address2":"mersin/akdeniz/helin eczanesi","direction":"https://www.google.com.tr/maps/dir/My+Location/36.825749,34.641722"},{"lat":36.8240413,"lng":34.6074595,"name":"Hikmet Eczanesi","address1":"Toroslar, Kuvayi Milliye Cd. 388/B, 33080 Toroslar/Mersin, Turkey","address2":"mersin/toroslar/hikmet eczanesi","direction":"https://www.google.com.tr/maps/dir/My+Location/36.8240413,34.6074595"},{"lat":36.7870724,"lng":34.5939903,"name":"İlkin Eczanesi","address1":"Güvenevler, 18. Cd. 5/B, 33140 Yenişehir/Mersin, Turkey","address2":"mersin/yenişehir/ilkin eczanesi","direction":"https://www.google.com.tr/maps/dir/My+Location/36.7870724,34.5939903"},{"lat":36.8074336,"lng":34.6351698,"name":"İnal Eczanesi","address1":"Yeni, 5314. Sk., 33050 Akdeniz/Mersin, Turkey","address2":"mersin/akdeniz/inal eczanesi","direction":"https://www.google.com.tr/maps/dir/My+Location/36.8074336,34.6351698"},{"lat":36.8121041,"lng":34.6414811,"name":"İnci Eczanesi","address1":"Mersin, Akdeniz/Mersin, Turkey","address2":"mersin/akdeniz/inci eczanesi","direction":"https://www.google.com.tr/maps/dir/My+Location/36.8121041,34.6414811"},{"lat":36.845625,"lng":34.6275706,"name":"İpek Eczanesi","address1":"Halkkent, Toroslar/Mersin, Turkey","address2":"mersin/toroslar/ipek eczanesi","direction":"https://www.google.com.tr/maps/dir/My+Location/36.845625,34.6275706"},{"lat":36.8121041,"lng":34.6414811,"name":"İrem Eczanesi","address1":"Mersin, Akdeniz/Mersin, Turkey","address2":"mersin/akdeniz/irem eczanesi","direction":"https://www.google.com.tr/maps/dir/My+Location/36.8121041,34.6414811"},{"lat":36.8075949,"lng":34.6186274,"name":"İyioğlu Eczanesi","address1":"İhsaniye mahallesi, Sait Çiftçi Cd. no:19 D:E, 33220 İçel Merkez/Mersin, Turkey","address2":"mersin/içel merkez/iyioğlu eczanesi","direction":"https://www.google.com.tr/maps/dir/My+Location/36.8075949,34.6186274"},{"lat":36.8066529,"lng":34.6356821,"name":"Jale Eczanesi","address1":"Yeni, 5311. Sk., 33050 Akdeniz/Mersin, Turkey","address2":"mersin/akdeniz/jale eczanesi","direction":"https://www.google.com.tr/maps/dir/My+Location/36.8066529,34.6356821"},{"lat":36.8235013,"lng":34.642402,"name":"Jiyan Eczanesi","address1":"Şevketsümer, 5975. Sk., 33020 Akdeniz/Mersin, Turkey","address2":"mersin/akdeniz/jiyan eczanesi","direction":"https://www.google.com.tr/maps/dir/My+Location/36.8235013,34.642402"},{"lat":36.8089922,"lng":34.6210226,"name":"Kamer Eczanesi","address1":"İhsaniye, DEVLET HASTANESİ KARŞISI, Kuvai Milliye Cd. no 173/C, 33070 Akdeniz/Mersin, Turkey","address2":"mersin/akdeniz/kamer eczanesi","direction":"https://www.google.com.tr/maps/dir/My+Location/36.8089922,34.6210226"},{"lat":36.8252156,"lng":34.631353,"name":"Kansu Eczanesi","address1":"Kurdali, 100074. Sk. No:27, 33250 Camili Köyü/Toroslar/Mersin, Turkey","address2":"mersin/toroslar/kansu eczanesi","direction":"https://www.google.com.tr/maps/dir/My+Location/36.8252156,34.631353"},{"lat":36.808199,"lng":34.621492,"name":"Karataş Eczanesi","address1":"İhsaniye, 4915. Sk. No:10, 33070 Akdeniz/Mersin, Turkey","address2":"mersin/akdeniz/karataş eczanesi","direction":"https://www.google.com.tr/maps/dir/My+Location/36.808199,34.621492"},{"lat":36.8149169,"lng":34.6174046,"name":"Kardelen Eczanesi","address1":"Tozkoparan, Kuvayi Milliye Cd. No:184/A, 33080 Toroslar/Mersin, Turkey","address2":"mersin/toroslar/kardelen eczanesi","direction":"https://www.google.com.tr/maps/dir/My+Location/36.8149169,34.6174046"},{"lat":36.8054641,"lng":34.6325298,"name":"Kaya Eczanesi","address1":"Yeni, 5330. Sk. No:11, 33050 Akdeniz/Mersin, Turkey","address2":"mersin/akdeniz/kaya eczanesi","direction":"https://www.google.com.tr/maps/dir/My+Location/36.8054641,34.6325298"},{"lat":36.8065418,"lng":34.6357622,"name":"Kemal Eczanesi","address1":"Yeni Mh, 5314. Sk. Pk:33050, 33050 Akdeniz/Mersin, Turkey","address2":"mersin/akdeniz/kemal eczanesi","direction":"https://www.google.com.tr/maps/dir/My+Location/36.8065418,34.6357622"},{"lat":36.7957001,"lng":34.6223375,"name":"Kılıçlar Eczanesi","address1":"Mesudiye, İstiklal Cd. No:138, 33000 Akdeniz/Mersin, Turkey","address2":"mersin/akdeniz/kılıçlar eczanesi","direction":"https://www.google.com.tr/maps/dir/My+Location/36.7957001,34.6223375"},{"lat":36.7840779,"lng":34.5894161,"name":"Kilikya Eczanesi","address1":"Güvenevler, 20. Cd. Forum AVM 28/A, 33140 Yenişehir/Mersin, Turkey","address2":"mersin/yenişehir/kilikya eczanesi","direction":"https://www.google.com.tr/maps/dir/My+Location/36.7840779,34.5894161"},{"lat":36.7706878,"lng":34.5618855,"name":"Kırpık Eczanesi","address1":"Eğriçam, Gazi Mustafa Kemal Blv. No:566, 33160 Yenişehir/Mersin, Turkey","address2":"mersin/yenişehir/kırpık eczanesi","direction":"https://www.google.com.tr/maps/dir/My+Location/36.7706878,34.5618855"},{"lat":36.840008,"lng":34.630572,"name":"Kısmet Eczanesi","address1":"Güneykent, 94003. Sk. No:35, 33240 Toroslar/Mersin, Turkey","address2":"mersin/toroslar/kısmet eczanesi","direction":"https://www.google.com.tr/maps/dir/My+Location/36.840008,34.630572"},{"lat":36.8073791,"lng":34.6235036,"name":"Koçoğlu Eczanesi","address1":"Nusratiye, 5026 Sok. No:48, 33050 İçel Merkez/Mersin (Icel), Turkey","address2":"mersin (icel)/içel merkez/koçoğlu eczanesi","direction":"https://www.google.com.tr/maps/dir/My+Location/36.8073791,34.6235036"},{"lat":36.7891762,"lng":34.6116112,"name":"Köprülü Eczanesi","address1":"Pirireis, Gazi Mustafa Kemal Cad. 235/A, 33110 İçel Merkez/Mersin, Turkey","address2":"mersin/içel merkez/köprülü eczanesi","direction":"https://www.google.com.tr/maps/dir/My+Location/36.7891762,34.6116112"},{"lat":36.79419,"lng":34.6181281,"name":"Kösel Eczanesi","address1":"Kiremithane, İstiklal Cd. No:137, 33010 Akdeniz/Mersin, Turkey","address2":"mersin/akdeniz/kösel eczanesi","direction":"https://www.google.com.tr/maps/dir/My+Location/36.79419,34.6181281"},{"lat":36.7859,"lng":34.539947,"name":"Kübra Eczanesi","address1":"Çiftlikköy Mahallesi Mimar Sinan Caddesi No:24 C Blok No:6 Tıp Fakültesi Hastanesi Acil Karşısında, Çiftlikköy, 33100 Yenişehir/Mersin, Turkey","address2":"mersin/yenişehir/kübra eczanesi","direction":"https://www.google.com.tr/maps/dir/My+Location/36.7859,34.539947"},{"lat":36.7874561,"lng":34.6137247,"name":"Levent Eczanesi","address1":"Pirireis mah. Silifke cad. Ankara Apt. altı, Pirireis, Demircanlar market karşısı, 33110 Yenişehir/Mersin, Turkey","address2":"mersin/yenişehir/levent eczanesi","direction":"https://www.google.com.tr/maps/dir/My+Location/36.7874561,34.6137247"},{"lat":36.845625,"lng":34.6275706,"name":"Lida Eczanesi","address1":"Halkkent, Toroslar/Mersin, Turkey","address2":"mersin/toroslar/lida eczanesi","direction":"https://www.google.com.tr/maps/dir/My+Location/36.845625,34.6275706"},{"lat":36.8008926,"lng":34.6346166,"name":"Liman Eczanesi","address1":"Yeni, 33050 Akdeniz/Mersin, Turkey","address2":"mersin/akdeniz/liman eczanesi","direction":"https://www.google.com.tr/maps/dir/My+Location/36.8008926,34.6346166"},{"lat":36.7792154,"lng":34.5752192,"name":"Marina Eczanesi","address1":"Barbaros, 2148. Sk. 18/A, 33150 Yenişehir/Mersin, Turkey","address2":"mersin/yenişehir/marina eczanesi","direction":"https://www.google.com.tr/maps/dir/My+Location/36.7792154,34.5752192"},{"lat":36.812779,"lng":34.6242863,"name":"Mavisu Eczanesi","address1":"Sağlık, 86019. Sk. NO 6, 33080 Toroslar/Mersin, Turkey","address2":"mersin/toroslar/mavisu eczanesi","direction":"https://www.google.com.tr/maps/dir/My+Location/36.812779,34.6242863"},{"lat":36.825412,"lng":34.622767,"name":"Maya Eczanesi","address1":"Kurdali, Mersinli Ahmet Blv., 33250 Toroslar/Mersin, Turkey","address2":"mersin/toroslar/maya eczanesi","direction":"https://www.google.com.tr/maps/dir/My+Location/36.825412,34.622767"},{"lat":36.7712781,"lng":34.5627017,"name":"Melda Eczanesi","address1":"EĞRİÇAM MAH. GMK BULVARI, Eğriçam, UZMAN ATA TIP MERKEZİ KARŞISI, ADNAN ÖZÇELİK ASM BİTİŞİĞİ, 33160 Yenişehir/Mersin, Turkey","address2":"mersin/yenişehir/melda eczanesi","direction":"https://www.google.com.tr/maps/dir/My+Location/36.7712781,34.5627017"},{"lat":36.7852233,"lng":34.6145988,"name":"Melek Eczanesi","address1":"Pirireis, 1103. Sk., 33110 Yenişehir/Mersin, Turkey","address2":"mersin/yenişehir/melek eczanesi","direction":"https://www.google.com.tr/maps/dir/My+Location/36.7852233,34.6145988"},{"lat":36.8194609,"lng":34.755303,"name":"Menemenci Eczanesi","address1":"Kazanlı, 33100 Akdeniz/Mersin, Turkey","address2":"mersin/akdeniz/menemenci eczanesi","direction":"https://www.google.com.tr/maps/dir/My+Location/36.8194609,34.755303"},{"lat":36.8061356,"lng":34.6345426,"name":"Mersin Eczanesi","address1":"Mesudiye, 5117. Sk. No:34, 33060 Akdeniz/Mersin, Turkey","address2":"mersin/akdeniz/mersin eczanesi","direction":"https://www.google.com.tr/maps/dir/My+Location/36.8061356,34.6345426"},{"lat":36.826126,"lng":34.625338,"name":"Mesut Eczanesi","address1":"Kurdali Mahallesi, 100041. Sk., 33250 Toroslar/Mersin, Turkey","address2":"mersin/toroslar/mesut eczanesi","direction":"https://www.google.com.tr/maps/dir/My+Location/36.826126,34.625338"},{"lat":36.809904,"lng":34.622459,"name":"Metin Eczanesi","address1":"Nusratiye, 5026. Sk. No:53, 33050 Akdeniz/Mersin, Turkey","address2":"mersin/akdeniz/metin eczanesi","direction":"https://www.google.com.tr/maps/dir/My+Location/36.809904,34.622459"},{"lat":36.7960946,"lng":34.6242326,"name":"Müderris Eczanesi","address1":"Kiremithane, Sakarya Cd., 33010 Akdeniz/Mersin, Turkey","address2":"mersin/akdeniz/müderris eczanesi","direction":"https://www.google.com.tr/maps/dir/My+Location/36.7960946,34.6242326"},{"lat":36.7631214,"lng":34.5528499,"name":"Murat Eczanesi","address1":"Fatih, 5314. Sok. Meltem Apt. No:8 D:2, 33200 İçel Merkez/Mersin (İçel), Turkey","address2":"mersin (içel)/içel merkez/murat eczanesi","direction":"https://www.google.com.tr/maps/dir/My+Location/36.7631214,34.5528499"},{"lat":36.797932,"lng":34.62615,"name":"Mutlu Eczanesi","address1":"Çankaya, İstiklal Cd. No:71, 33070 Akdeniz/Mersin, Turkey","address2":"mersin/akdeniz/mutlu eczanesi","direction":"https://www.google.com.tr/maps/dir/My+Location/36.797932,34.62615"},{"lat":36.8196399,"lng":34.6151837,"name":"Nar Eczanesi","address1":"Tozkoparan, 87045. Sk. No:23, 33080 Toroslar/Mersin, Turkey","address2":"mersin/toroslar/nar eczanesi","direction":"https://www.google.com.tr/maps/dir/My+Location/36.8196399,34.6151837"},{"lat":36.8239636,"lng":34.6543048,"name":"Nehir Eczanesi","address1":"Hal, 33300 Akdeniz/Mersin, Turkey","address2":"mersin/akdeniz/nehir eczanesi","direction":"https://www.google.com.tr/maps/dir/My+Location/36.8239636,34.6543048"},{"lat":36.8179463,"lng":34.6314516,"name":"Neşe Eczanesi","address1":"GÜNDOĞDU MAHALLESİ-GÜNDOĞDU AİLE SAĞLIK MERKEZİ (ASM)KARŞISI, Gündoğdu, 5790. Sk. No:19, 33040 Akdeniz/Mersin, Turkey","address2":"mersin/akdeniz/neşe eczanesi","direction":"https://www.google.com.tr/maps/dir/My+Location/36.8179463,34.6314516"},{"lat":36.8240726,"lng":34.6039801,"name":"Nevgül Eczanesi","address1":"Yusuf Kılıç, 217. Cd. no:84/A, 33220 Toroslar/Mersin, Turkey","address2":"mersin/toroslar/nevgül eczanesi","direction":"https://www.google.com.tr/maps/dir/My+Location/36.8240726,34.6039801"},{"lat":36.795088,"lng":34.623697,"name":"Nihan Eczanesi","address1":"Kiremithane Mahallesi, 4406. Sk. No:10/C Eski Özel Doğuş Hastanesi karşısı Dondurmacı Halil Sokağı, Kiremithane, 33010 Akdeniz/Mersin, Turkey","address2":"mersin/akdeniz/nihan eczanesi","direction":"https://www.google.com.tr/maps/dir/My+Location/36.795088,34.623697"},{"lat":36.7986845,"lng":34.625314,"name":"Nilüfer Eczanesi","address1":"Çankaya, 4738 Sok. No:29, 33070 İçel Merkez/Mersin (İçel), Turkey","address2":"mersin (içel)/içel merkez/nilüfer eczanesi","direction":"https://www.google.com.tr/maps/dir/My+Location/36.7986845,34.625314"},{"lat":36.809975,"lng":34.6221,"name":"Numune Eczanesi","address1":"Nusratiye, 5026. Sk. 50 A, 33050 Akdeniz/Mersin, Turkey","address2":"mersin/akdeniz/numune eczanesi","direction":"https://www.google.com.tr/maps/dir/My+Location/36.809975,34.6221"},{"lat":36.7917626,"lng":34.6238825,"name":"Nur Eczanesi","address1":"Kültür mahç, Atatürk Cd. No:35, 33010 Akdeniz/Mersin, Turkey","address2":"mersin/akdeniz/nur eczanesi","direction":"https://www.google.com.tr/maps/dir/My+Location/36.7917626,34.6238825"},{"lat":36.785754,"lng":34.604589,"name":"Nurlu Eczanesi","address1":"Gazi, Gazi Mustafa Kemal Bulv./393. Sok. 2/A, 33130 İçel Merkez/Mersin (İçel), Turkey","address2":"mersin (içel)/içel merkez/nurlu eczanesi","direction":"https://www.google.com.tr/maps/dir/My+Location/36.785754,34.604589"},{"lat":36.8177948,"lng":34.6298082,"name":"Ocak Eczanesi","address1":"Selçuklar, 33250 Toroslar/Mersin, Turkey","address2":"mersin/toroslar/ocak eczanesi","direction":"https://www.google.com.tr/maps/dir/My+Location/36.8177948,34.6298082"},{"lat":36.7960021,"lng":34.622664,"name":"Okan Eczanesi","address1":"Bahçe, 4625. Sk. No:32, 33010 Akdeniz/Mersin, Turkey","address2":"mersin/akdeniz/okan eczanesi","direction":"https://www.google.com.tr/maps/dir/My+Location/36.7960021,34.622664"},{"lat":36.785723,"lng":34.600224,"name":"Oktay Eczanesi","address1":"Cumhuriyet, 16. Cadde, 33110 Yenişehir/Mersin, Turkey","address2":"mersin/yenişehir/oktay eczanesi","direction":"https://www.google.com.tr/maps/dir/My+Location/36.785723,34.600224"},{"lat":36.7980271,"lng":34.5716142,"name":"Okyanus Eczanesi","address1":"50. Yıl, 27140 Sok. No:1, 33150 Yenişehir/Mersin, Turkey","address2":"mersin/yenişehir/okyanus eczanesi","direction":"https://www.google.com.tr/maps/dir/My+Location/36.7980271,34.5716142"},{"lat":36.7910005,"lng":34.6228963,"name":"Onur Eczanesi","address1":"Kültür, Atatürk Cad. No:1, 33010 Akdeniz/Mersin (İçel), Turkey","address2":"mersin (içel)/akdeniz/onur eczanesi","direction":"https://www.google.com.tr/maps/dir/My+Location/36.7910005,34.6228963"},{"lat":36.8485419,"lng":34.6070096,"name":"Örge Eczanesi","address1":"Çiftçiler, 96017. Sk. No:20, 33240 Toroslar/Mersin, Turkey","address2":"mersin/toroslar/örge eczanesi","direction":"https://www.google.com.tr/maps/dir/My+Location/36.8485419,34.6070096"},{"lat":36.8122318,"lng":34.6195945,"name":"Özcan Eczanesi","address1":"Sağlık, Kuvayi Milliye Cd. No:154, 33080 Toroslar/Mersin, Turkey","address2":"mersin/toroslar/özcan eczanesi","direction":"https://www.google.com.tr/maps/dir/My+Location/36.8122318,34.6195945"},{"lat":36.8169984,"lng":34.6142295,"name":"Özer Eczanesi","address1":"Zeki Ayan, Kuvayı Milliye Cad. 179/C, 33220 İçel Merkez/Mersin (İçel), Turkey","address2":"mersin (içel)/içel merkez/özer eczanesi","direction":"https://www.google.com.tr/maps/dir/My+Location/36.8169984,34.6142295"},{"lat":36.7857801,"lng":34.593023,"name":"Özgün Eczanesi","address1":"GÜVENEVLER MAH. 1.CAD. NO: 109, Güvenevler, 33140 Yenişehir/Mersin, Turkey","address2":"mersin/yenişehir/özgün eczanesi","direction":"https://www.google.com.tr/maps/dir/My+Location/36.7857801,34.593023"},{"lat":36.790866,"lng":34.621938,"name":"Özgür Eczanesi","address1":"SİSTEM TIP MERKEZİ YANI ÇAMLIBEL Kültür mahallesi 4303 Sok. No:23/D, Kültür, 33070 Akdeniz/Mersin, Turkey","address2":"mersin/akdeniz/özgür eczanesi","direction":"https://www.google.com.tr/maps/dir/My+Location/36.790866,34.621938"},{"lat":36.7991306,"lng":34.6250323,"name":"Özlem Eczanesi","address1":"mahmudiye mah., Çankaya, 4812 sok.no.26/B DÜKKAN NO.11, 33070 Akdeniz/Mersin, Turkey","address2":"mersin/akdeniz/özlem eczanesi","direction":"https://www.google.com.tr/maps/dir/My+Location/36.7991306,34.6250323"},{"lat":36.7858804,"lng":34.6046601,"name":"Öztürkler Eczanesi","address1":"Gmk Bulv. Palmiye Mah. Eren Apt. No:263 D:307, Palmiye, D:C, 33110 İçel Merkez/Mersin, Turkey","address2":"mersin/içel merkez/öztürkler eczanesi","direction":"https://www.google.com.tr/maps/dir/My+Location/36.7858804,34.6046601"},{"lat":36.8063515,"lng":34.6356877,"name":"Papatya Eczanesi","address1":"Yeni, 5314 Sok. No:8, 33050 Akdeniz/Mersin (Icel), Turkey","address2":"mersin (icel)/akdeniz/papatya eczanesi","direction":"https://www.google.com.tr/maps/dir/My+Location/36.8063515,34.6356877"},{"lat":36.8061356,"lng":34.6345426,"name":"Perim Eczanesi","address1":"Mesudiye, 5117. Sk. No:34, 33060 Akdeniz/Mersin, Turkey","address2":"mersin/akdeniz/perim eczanesi","direction":"https://www.google.com.tr/maps/dir/My+Location/36.8061356,34.6345426"},{"lat":36.8083929,"lng":34.6233585,"name":"Pınar Eczanesi","address1":"Nusratiye, 5015 Sok., 33050 Akdeniz/Mersin (Icel), Turkey","address2":"mersin (icel)/akdeniz/pınar eczanesi","direction":"https://www.google.com.tr/maps/dir/My+Location/36.8083929,34.6233585"},{"lat":36.8181657,"lng":34.6424922,"name":"Polen Eczanesi","address1":"Hal, 141. Cad. No:71, 33040 Akdeniz/Mersin (İçel), Turkey","address2":"mersin (içel)/akdeniz/polen eczanesi","direction":"https://www.google.com.tr/maps/dir/My+Location/36.8181657,34.6424922"},{"lat":36.8420677,"lng":34.6230995,"name":"Rüya Eczanesi","address1":"Halkkent Mh, Fatih Sultan Mehmet Blv. No:23, 33240 Toroslar/Mersin, Turkey","address2":"mersin/toroslar/rüya eczanesi","direction":"https://www.google.com.tr/maps/dir/My+Location/36.8420677,34.6230995"},{"lat":36.78549,"lng":34.5919946,"name":"Saadet Eczanesi","address1":"Güvenevler, 1. Cd. No:11, 33140 Yenişehir/Mersin, Turkey","address2":"mersin/yenişehir/saadet eczanesi","direction":"https://www.google.com.tr/maps/dir/My+Location/36.78549,34.5919946"},{"lat":36.8061356,"lng":34.6345426,"name":"Sait Eczanesi","address1":"Mesudiye, 5117. Sk. No:34, 33060 Akdeniz/Mersin, Turkey","address2":"mersin/akdeniz/sait eczanesi","direction":"https://www.google.com.tr/maps/dir/My+Location/36.8061356,34.6345426"},{"lat":36.7950948,"lng":34.6238022,"name":"Sancar Eczanesi","address1":"Kiremithane, 4406 Sok. 10/B, 33010 İçel Merkez/Mersin (Icel), Turkey","address2":"mersin (icel)/içel merkez/sancar eczanesi","direction":"https://www.google.com.tr/maps/dir/My+Location/36.7950948,34.6238022"},{"lat":36.8110151,"lng":34.6199784,"name":"Sandal Eczanesi","address1":"Akdeniz, Kuvayi Milliye Cad. 124/A, 33080 Akdeniz/Mersin (Icel), Turkey","address2":"mersin (icel)/akdeniz/sandal eczanesi","direction":"https://www.google.com.tr/maps/dir/My+Location/36.8110151,34.6199784"},{"lat":36.8121041,"lng":34.6414811,"name":"Şanlı Eczanesi","address1":"Mersin, Akdeniz/Mersin, Turkey","address2":"mersin/akdeniz/şanlı eczanesi","direction":"https://www.google.com.tr/maps/dir/My+Location/36.8121041,34.6414811"},{"lat":36.7829306,"lng":34.6033463,"name":"Şebnem Eczanesi","address1":"1307 Sok. Fazlıoğlu Apt. No:16/B, Gazi, 33130 İçel Merkez/Yenişehir/Mersin, Turkey","address2":"mersin/yenişehir/şebnem eczanesi","direction":"https://www.google.com.tr/maps/dir/My+Location/36.7829306,34.6033463"},{"lat":36.8183329,"lng":34.6280136,"name":"Selçuklar Eczanesi","address1":"no, Selçuklar, 136. Cd., 33250 Toroslar/Mersin, Turkey","address2":"mersin/toroslar/selçuklar eczanesi","direction":"https://www.google.com.tr/maps/dir/My+Location/36.8183329,34.6280136"},{"lat":36.7895844,"lng":34.6120184,"name":"Sema Eczanesi","address1":"Pirireis, Gazi Mustafa Kemal Blv. No:277, 33000 Yenişehir/Mersin, Turkey","address2":"mersin/yenişehir/sema eczanesi","direction":"https://www.google.com.tr/maps/dir/My+Location/36.7895844,34.6120184"},{"lat":36.809056,"lng":34.620912,"name":"Şendur Eczanesi","address1":"İhsaniye, 4908. Sk. No:14, 33070 Akdeniz/Mersin, Turkey","address2":"mersin/akdeniz/şendur eczanesi","direction":"https://www.google.com.tr/maps/dir/My+Location/36.809056,34.620912"},{"lat":36.7475361,"lng":34.518219,"name":"Senem Eczanesi","address1":"Merkez, 33330 Mezitli/Mersin, Turkey","address2":"mersin/mezitli/senem eczanesi","direction":"https://www.google.com.tr/maps/dir/My+Location/36.7475361,34.518219"},{"lat":36.824962,"lng":34.600372,"name":"Sera Eczanesi","address1":"Akbelen, Toroslar Cd., 33220 Toroslar/Mersin, Turkey","address2":"mersin/toroslar/sera eczanesi","direction":"https://www.google.com.tr/maps/dir/My+Location/36.824962,34.600372"},{"lat":36.797857,"lng":34.625764,"name":"Serhat Eczanesi","address1":"Çankaya Mahallesi, İstiklal Cd. 76/A, 33010 Akdeniz/Mersin, Turkey","address2":"mersin/akdeniz/serhat eczanesi","direction":"https://www.google.com.tr/maps/dir/My+Location/36.797857,34.625764"},{"lat":36.805075,"lng":34.633806,"name":"Sezge Eczanesi","address1":"Yeni mh. Özbeyalp Apt. No:1/A, Yeni, 33050 Akdeniz/Mersin, Turkey","address2":"mersin/akdeniz/sezge eczanesi","direction":"https://www.google.com.tr/maps/dir/My+Location/36.805075,34.633806"},{"lat":36.810757,"lng":34.62214,"name":"Sıla Eczanesi","address1":"Nusratiye, 5024. Sk. No:54, 33050 Akdeniz/Mersin, Turkey","address2":"mersin/akdeniz/sıla eczanesi","direction":"https://www.google.com.tr/maps/dir/My+Location/36.810757,34.62214"},{"lat":36.7854961,"lng":34.592665,"name":"Silahtaroğlu Eczanesi","address1":"Güvenevler, 1911. Sk. No:15, 33140 Yenişehir/Mersin, Turkey","address2":"mersin/yenişehir/silahtaroğlu eczanesi","direction":"https://www.google.com.tr/maps/dir/My+Location/36.7854961,34.592665"},{"lat":36.7795,"lng":34.557928,"name":"Simay Eczanesi","address1":"Batıkent, 26140. Sk. Pk:33160, 33160 Yenişehir/Mersin, Turkey","address2":"mersin/yenişehir/simay eczanesi","direction":"https://www.google.com.tr/maps/dir/My+Location/36.7795,34.557928"},{"lat":36.7831759,"lng":34.5922362,"name":"Şimşek Eczanesi","address1":"Güvenevler, 1908. Sk. No:6, 33140 Yenişehir/Mersin, Turkey","address2":"mersin/yenişehir/şimşek eczanesi","direction":"https://www.google.com.tr/maps/dir/My+Location/36.7831759,34.5922362"},{"lat":36.8262685,"lng":34.6251522,"name":"Siteler Eczanesi","address1":"Kurdali, 100041. Sk., 33250 Toroslar/Mersin, Turkey","address2":"mersin/toroslar/siteler eczanesi","direction":"https://www.google.com.tr/maps/dir/My+Location/36.8262685,34.6251522"},{"lat":36.788527,"lng":34.611806,"name":"Soner Eczanesi","address1":"Pirireis, 1131. Sk. No:3, 33110 Yenişehir/Mersin, Turkey","address2":"mersin/yenişehir/soner eczanesi","direction":"https://www.google.com.tr/maps/dir/My+Location/36.788527,34.611806"},{"lat":36.8121041,"lng":34.6414811,"name":"Soyhan Eczanesi","address1":"Mersin, Akdeniz/Mersin, Turkey","address2":"mersin/akdeniz/soyhan eczanesi","direction":"https://www.google.com.tr/maps/dir/My+Location/36.8121041,34.6414811"},{"lat":36.790341,"lng":34.622299,"name":"Su Eczanesi","address1":"Kültür, Atatürk Cd., 33010 Akdeniz/Mersin, Turkey","address2":"mersin/akdeniz/su eczanesi","direction":"https://www.google.com.tr/maps/dir/My+Location/36.790341,34.622299"},{"lat":36.8108157,"lng":34.6225267,"name":"Sucuoğlu Eczanesi","address1":"NUSRATİYE MAHALLESİ, Müderris Mustafa Efendi Sitesi, Gazi Mustafa Kemal Blv., 33050 Akdeniz/Mersin, Turkey","address2":"mersin/akdeniz/sucuoğlu eczanesi","direction":"https://www.google.com.tr/maps/dir/My+Location/36.8108157,34.6225267"},{"lat":36.7856856,"lng":34.5301964,"name":"Şule Eczanesi","address1":"Çiftlikköy, Mersin Ünv., 33110 Akdeniz/Mersin, Turkey","address2":"mersin/akdeniz/şule eczanesi","direction":"https://www.google.com.tr/maps/dir/My+Location/36.7856856,34.5301964"},{"lat":36.7704321,"lng":34.5615013,"name":"Tanrıverdi Eczanesi","address1":"Eğriçam, Gazi Mustafa Kemal Blv. No:572, 33160 Yenişehir/Mersin, Turkey","address2":"mersin/yenişehir/tanrıverdi eczanesi","direction":"https://www.google.com.tr/maps/dir/My+Location/36.7704321,34.5615013"},{"lat":36.8121041,"lng":34.6414811,"name":"Tarım Eczanesi","address1":"Mersin, Akdeniz/Mersin, Turkey","address2":"mersin/akdeniz/tarım eczanesi","direction":"https://www.google.com.tr/maps/dir/My+Location/36.8121041,34.6414811"},{"lat":36.798733,"lng":34.625301,"name":"Tarkan Bir Eczanesi","address1":"Çankaya, 4738 Sok. 18/A, 33070 İçel Merkez/Mersin (İçel), Turkey","address2":"mersin (içel)/içel merkez/tarkan bir eczanesi","direction":"https://www.google.com.tr/maps/dir/My+Location/36.798733,34.625301"},{"lat":36.8370208,"lng":34.6101043,"name":"Tatlıdil Eczanesi","address1":"Çağdaşkent, 229. Cd. 42 A, 33230 Toroslar/Mersin, Turkey","address2":"mersin/toroslar/tatlıdil eczanesi","direction":"https://www.google.com.tr/maps/dir/My+Location/36.8370208,34.6101043"},{"lat":36.7830468,"lng":34.6041649,"name":"Taylan Eczanesi","address1":"Gazi, 1304. Sk. No:20, 33130 Yenişehir/Mersin, Turkey","address2":"mersin/yenişehir/taylan eczanesi","direction":"https://www.google.com.tr/maps/dir/My+Location/36.7830468,34.6041649"},{"lat":36.8060453,"lng":34.6249153,"name":"Tömük Eczanesi","address1":"Mesudiye, 112. Cad. 39/B, 33060 Akdeniz/Mersin, Turkey","address2":"mersin/akdeniz/tömük eczanesi","direction":"https://www.google.com.tr/maps/dir/My+Location/36.8060453,34.6249153"},{"lat":36.8109855,"lng":34.6273566,"name":"Tuğrul Eczanesi","address1":"Nusratiye, 5021. Sk. No:2/A, 33050 Akdeniz/Mersin, Turkey","address2":"mersin/akdeniz/tuğrul eczanesi","direction":"https://www.google.com.tr/maps/dir/My+Location/36.8109855,34.6273566"},{"lat":36.8075949,"lng":34.6186274,"name":"Tülin Eczanesi","address1":"İhsaniye mahallesi, Sait Çiftçi Cd. no:19 D:E, 33220 İçel Merkez/Mersin, Turkey","address2":"mersin/içel merkez/tülin eczanesi","direction":"https://www.google.com.tr/maps/dir/My+Location/36.8075949,34.6186274"},{"lat":36.7832799,"lng":34.5920705,"name":"Tuna Eczanesi","address1":"Güvenevler, 1908. Sk. No:8 - A, 33140 Yenişehir/Mersin, Turkey","address2":"mersin/yenişehir/tuna eczanesi","direction":"https://www.google.com.tr/maps/dir/My+Location/36.7832799,34.5920705"},{"lat":36.789662,"lng":34.587686,"name":"Uçan Eczanesi","address1":"Güvenevler, 20. Cd. No:48, 33140 Yenişehir/Mersin, Turkey","address2":"mersin/yenişehir/uçan eczanesi","direction":"https://www.google.com.tr/maps/dir/My+Location/36.789662,34.587686"},{"lat":36.807749,"lng":34.611547,"name":"Üçer Eczanesi","address1":"Turunçlu, 205. Cadde, 33090 Toroslar/Mersin, Turkey","address2":"mersin/toroslar/üçer eczanesi","direction":"https://www.google.com.tr/maps/dir/My+Location/36.807749,34.611547"},{"lat":36.8121041,"lng":34.6414811,"name":"Umut Eczanesi","address1":"Mersin, Akdeniz/Mersin, Turkey","address2":"mersin/akdeniz/umut eczanesi","direction":"https://www.google.com.tr/maps/dir/My+Location/36.8121041,34.6414811"},{"lat":36.790563,"lng":34.621396,"name":"Ünel Eczanesi","address1":"Hamidiye, Cengiz Topel Cd. No:17, 33010 Akdeniz/Mersin, Turkey","address2":"mersin/akdeniz/ünel eczanesi","direction":"https://www.google.com.tr/maps/dir/My+Location/36.790563,34.621396"},{"lat":36.7760962,"lng":34.5370583,"name":"Üniversite Eczanesi","address1":"Çiftlikköy, Üniversite Cd. No:34, 33110 Yenişehir/Mersin, Turkey","address2":"mersin/yenişehir/üniversite eczanesi","direction":"https://www.google.com.tr/maps/dir/My+Location/36.7760962,34.5370583"},{"lat":36.7475361,"lng":34.518219,"name":"Vitamin Eczanesi","address1":"Merkez, 33330 Mezitli/Mersin, Turkey","address2":"mersin/mezitli/vitamin eczanesi","direction":"https://www.google.com.tr/maps/dir/My+Location/36.7475361,34.518219"},{"lat":36.7896418,"lng":34.5870432,"name":"Yağmur Eczanesi","address1":"Güvenevler, 20. Cd., 33140 Yenişehir/Mersin, Turkey","address2":"mersin/yenişehir/yağmur eczanesi","direction":"https://www.google.com.tr/maps/dir/My+Location/36.7896418,34.5870432"},{"lat":36.807834,"lng":34.6309309,"name":"Yalçın Eczanesi","address1":"Yeni, 5330. Sk., 33050 Akdeniz/Mersin, Turkey","address2":"mersin/akdeniz/yalçın eczanesi","direction":"https://www.google.com.tr/maps/dir/My+Location/36.807834,34.6309309"},{"lat":36.8451857,"lng":34.6336068,"name":"Yalınayak Eczanesi","address1":"Toroslar Mareşal Fevzi Çakmak Cad No:98/A 33080, Korukent, 33230 Toroslar/Mersin, Turkey","address2":"mersin/toroslar/yalınayak eczanesi","direction":"https://www.google.com.tr/maps/dir/My+Location/36.8451857,34.6336068"},{"lat":36.7990484,"lng":34.6267759,"name":"Yamaç Eczanesi","address1":"Çankaya, Zeytinli Bahçe Cad. 11/B, 33070 İçel Merkez/Mersin (Icel), Turkey","address2":"mersin (icel)/içel merkez/yamaç eczanesi","direction":"https://www.google.com.tr/maps/dir/My+Location/36.7990484,34.6267759"},{"lat":36.805992,"lng":34.62273,"name":"Yeni Eczane Eczanesi","address1":"İhsaniye, 4905. Sk. No:3, 33070 Akdeniz/Mersin, Turkey","address2":"mersin/akdeniz/yeni eczane eczanesi","direction":"https://www.google.com.tr/maps/dir/My+Location/36.805992,34.62273"},{"lat":36.7475361,"lng":34.518219,"name":"Yeniderman Eczanesi","address1":"Merkez, 33330 Mezitli/Mersin, Turkey","address2":"mersin/mezitli/yeniderman eczanesi","direction":"https://www.google.com.tr/maps/dir/My+Location/36.7475361,34.518219"},{"lat":36.8661859,"lng":34.4863567,"name":"Yenişehir Eczanesi","address1":"Yenişehir/Mersin, Turkey","address2":"mersin/yenişehir/yenişehir eczanesi","direction":"https://www.google.com.tr/maps/dir/My+Location/36.8661859,34.4863567"},{"lat":36.8395762,"lng":34.6302414,"name":"Yıldızeli Eczanesi","address1":"Güneykent Mah., Toroslar, Farabi Cd. 38 Sok. No:23/A, 33240 Toroslar/Mersin, Turkey","address2":"mersin/toroslar/yıldızeli eczanesi","direction":"https://www.google.com.tr/maps/dir/My+Location/36.8395762,34.6302414"},{"lat":36.7895974,"lng":34.5708356,"name":"Yonca Eczanesi","address1":"Menteş, 33150 Yenişehir/Mersin, Turkey","address2":"mersin/yenişehir/yonca eczanesi","direction":"https://www.google.com.tr/maps/dir/My+Location/36.7895974,34.5708356"},{"lat":36.7901365,"lng":34.5875105,"name":"Yunus Eczanesi","address1":"ÖZEL FORUM YAŞAM HASTANESİ ACİL KARŞISI, Güvenevler, 1990. Sk., 33140 Yenişehir/Mersin, Turkey","address2":"mersin/yenişehir/yunus eczanesi","direction":"https://www.google.com.tr/maps/dir/My+Location/36.7901365,34.5875105"},{"lat":36.812865,"lng":34.61341,"name":"Zeynep Eczanesi","address1":"Osmaniye, 81036. Sk., 33220 Toroslar/Mersin, Turkey","address2":"mersin/toroslar/zeynep eczanesi","direction":"https://www.google.com.tr/maps/dir/My+Location/36.812865,34.61341"},{"lat":36.8121041,"lng":34.6414811,"name":"Zümrüt Eczanesi","address1":"Mersin, Akdeniz/Mersin, Turkey","address2":"mersin/akdeniz/zümrüt eczanesi","direction":"https://www.google.com.tr/maps/dir/My+Location/36.8121041,34.6414811"},{"lat":36.7663201,"lng":34.5473127,"name":"Akdemir Eczanesi","address1":"Atatürk mah., 48. Sokak, 33340 Mezitli/Mersin, Turkey","address2":"mersin/mezitli/akdemir eczanesi","direction":"https://www.google.com.tr/maps/dir/My+Location/36.7663201,34.5473127"},{"lat":36.799563,"lng":34.631877,"name":"Akmert Eczanesi","address1":"Cami Şerif, 5210 Sok. No:8, 33060 İçel Merkez/Mersin (Icel), Turkey","address2":"mersin (icel)/içel merkez/akmert eczanesi","direction":"https://www.google.com.tr/maps/dir/My+Location/36.799563,34.631877"},{"lat":36.7159581,"lng":34.4781512,"name":"Avcıoğlu Eczanesi","address1":"Davultepe, 33320 Mezitli/Mersin, Turkey","address2":"mersin/mezitli/avcıoğlu eczanesi","direction":"https://www.google.com.tr/maps/dir/My+Location/36.7159581,34.4781512"},{"lat":36.7564641,"lng":34.5374799,"name":"Aytaç Eczanesi","address1":"Yeni Mahalle, TOROS SEMT POLIKLIGI KARŞISI, Kelveli Cd. 3/D, 33330 Mezitli/Mersin, Turkey","address2":"mersin/mezitli/aytaç eczanesi","direction":"https://www.google.com.tr/maps/dir/My+Location/36.7564641,34.5374799"},{"lat":36.7578927,"lng":34.5426077,"name":"Babil Eczanesi","address1":"Atatürk, Gazi Mustafa Kemal Blv., 33170 Mezitli/Mersin, Turkey","address2":"mersin/mezitli/babil eczanesi","direction":"https://www.google.com.tr/maps/dir/My+Location/36.7578927,34.5426077"},{"lat":36.7572351,"lng":34.5348938,"name":"Beydağı Eczanesi","address1":"Yeni, 33180. Sk., 33330 Mezitli/Mersin, Turkey","address2":"mersin/mezitli/beydağı eczanesi","direction":"https://www.google.com.tr/maps/dir/My+Location/36.7572351,34.5348938"},{"lat":36.7489816,"lng":34.5290867,"name":"Çağla Eczanesi","address1":"Merkez, Gazi Mustafa Kemal Blv. Pk:33200, 33200 Mezitli/Mersin, Turkey","address2":"mersin/mezitli/çağla eczanesi","direction":"https://www.google.com.tr/maps/dir/My+Location/36.7489816,34.5290867"},{"lat":36.7431846,"lng":34.5167382,"name":"Cemre Eczanesi","address1":"Merkez, 52122. Sk., 33330 Bozön Köyü/Mezitli/Mersin, Turkey","address2":"mersin/mezitli/cemre eczanesi","direction":"https://www.google.com.tr/maps/dir/My+Location/36.7431846,34.5167382"},{"lat":36.7525478,"lng":34.5356722,"name":"Çil Eczanesi","address1":"Yeni, Gazi Mustafa Kemal Blv., 33330 Mezitli/Mersin, Turkey","address2":"mersin/mezitli/çil eczanesi","direction":"https://www.google.com.tr/maps/dir/My+Location/36.7525478,34.5356722"},{"lat":36.749687,"lng":34.528619,"name":"Derkuş Eczanesi","address1":"Merkez mahallesi karaoğlan cad, Merkez, 52030. Sk. 7/A, 33340 Mezitli/Mersin, Turkey","address2":"mersin/mezitli/derkuş eczanesi","direction":"https://www.google.com.tr/maps/dir/My+Location/36.749687,34.528619"},{"lat":36.749285,"lng":34.529225,"name":"Dönmez Eczanesi","address1":"Merkez, 52030. Sk. 2/b, 33200 Mezitli/Mersin, Turkey","address2":"mersin/mezitli/dönmez eczanesi","direction":"https://www.google.com.tr/maps/dir/My+Location/36.749285,34.529225"},{"lat":36.7642542,"lng":34.5480042,"name":"Duru Eczanesi","address1":"Atatürk, 31076. Sk., 33340 Mezitli/Mersin, Turkey","address2":"mersin/mezitli/duru eczanesi","direction":"https://www.google.com.tr/maps/dir/My+Location/36.7642542,34.5480042"},{"lat":36.75618,"lng":34.537807,"name":"Emek Eczanesi","address1":"Kaleyolu (kelveli cad), ünsal sitesi altı no :3 yenimahalle, TOROS DEVLET HASTANESİ SEMT POLİKLİNİĞİ KARŞISI, Yeni, 33200 Mezitli/Mezitli/Mezitli/Mezitli/Mezitli/Mersin, Turkey","address2":"mersin/mezitli/emek eczanesi","direction":"https://www.google.com.tr/maps/dir/My+Location/36.75618,34.537807"},{"lat":36.777999,"lng":34.5786508,"name":"Gül Eczanesi","address1":"Gazi Mustafa Kemal Blv., Mersin, Turkey","address2":"mersin/mezitli/gül eczanesi","direction":"https://www.google.com.tr/maps/dir/My+Location/36.777999,34.5786508"},{"lat":36.748698,"lng":34.542636,"name":"Hacettepe Eczanesi","address1":"Viranşehir, 34323. Sk. No:11, 33340 Mezitli/Mersin, Turkey","address2":"mersin/mezitli/hacettepe eczanesi","direction":"https://www.google.com.tr/maps/dir/My+Location/36.748698,34.542636"},{"lat":36.765235,"lng":34.54719,"name":"Hasbay Eczanesi","address1":"Atatürk, 31045. Sk (43. Sk.), 33340 Mezitli/Mersin, Turkey","address2":"mersin/mezitli/hasbay eczanesi","direction":"https://www.google.com.tr/maps/dir/My+Location/36.765235,34.54719"},{"lat":36.7409693,"lng":34.5258351,"name":"İlkerdem Eczanesi","address1":"Menderes Mah. Cevat Kutlu Cad. 35415 Sok. 29B/A, Menderes, 33190 Mezitli/Mersin, Turkey","address2":"mersin/mezitli/ilkerdem eczanesi","direction":"https://www.google.com.tr/maps/dir/My+Location/36.7409693,34.5258351"},{"lat":36.7574651,"lng":34.5464677,"name":"İşcan Eczanesi","address1":"Fatih, 30028. Sk. No:7, 33200 Mezitli/Mersin, Turkey","address2":"mersin/mezitli/işcan eczanesi","direction":"https://www.google.com.tr/maps/dir/My+Location/36.7574651,34.5464677"},{"lat":36.7564495,"lng":34.5379663,"name":"Işınsu Eczanesi","address1":"Yeni, 33180 Mezitli/Mersin, Turkey","address2":"mersin/mezitli/işınsu eczanesi","direction":"https://www.google.com.tr/maps/dir/My+Location/36.7564495,34.5379663"},{"lat":36.757431,"lng":34.536834,"name":"Kale Yolu Eczanesi","address1":"Bozön, Kelveli Cad. 11/A, 33200 Mezitli/Mersin, Turkey","address2":"mersin/mezitli/kale yolu eczanesi","direction":"https://www.google.com.tr/maps/dir/My+Location/36.757431,34.536834"},{"lat":36.748698,"lng":34.542636,"name":"Koç Eczanesi","address1":"Viranşehir, 34323. Sk. No:11, 33340 Mezitli/Mersin, Turkey","address2":"mersin/mezitli/koç eczanesi","direction":"https://www.google.com.tr/maps/dir/My+Location/36.748698,34.542636"},{"lat":36.7415999,"lng":34.5251316,"name":"Merkez Eczanesi","address1":"Menderes, Cevat Kutlu Cd. 11/E, 33340 Mezitli/Mersin, Turkey","address2":"mersin/mezitli/merkez eczanesi","direction":"https://www.google.com.tr/maps/dir/My+Location/36.7415999,34.5251316"},{"lat":36.7493444,"lng":34.5288895,"name":"Mezitli Eczanesi","address1":"Merkez, Karaoğlan Cad 5/A, 33330 Mezitli/Mersin, Turkey","address2":"mersin/mezitli/mezitli eczanesi","direction":"https://www.google.com.tr/maps/dir/My+Location/36.7493444,34.5288895"},{"lat":36.7073308,"lng":34.4652843,"name":"Nükhet Eczanesi","address1":"Seymenli, Mersin Silifke Yolu No:1180, 33290 tece - mezitli/Mezitli/Mersin, Turkey","address2":"mersin/mezitli/nükhet eczanesi","direction":"https://www.google.com.tr/maps/dir/My+Location/36.7073308,34.4652843"},{"lat":36.7579725,"lng":34.5459765,"name":"Okyay Eczanesi","address1":"Fatih, 30028. Sk., 33200 Mezitli/Mersin, Turkey","address2":"mersin/mezitli/okyay eczanesi","direction":"https://www.google.com.tr/maps/dir/My+Location/36.7579725,34.5459765"},{"lat":36.7634591,"lng":34.5477181,"name":"Onur Yılmaz Eczanesi","address1":"Çiftlikköy, Üniversite Cad. A 20 Blok D:8, 33110 Mezitli/Mersin (İçel), Turkey","address2":"mersin (içel)/mezitli/onur yılmaz eczanesi","direction":"https://www.google.com.tr/maps/dir/My+Location/36.7634591,34.5477181"},{"lat":36.7560466,"lng":34.5377404,"name":"Oya Eczanesi","address1":"Yenimahalle, Kelveli Cad. 33330 Mezitli/Mersin, Yeni, 33330 Mezitli/Mersin, Turkey","address2":"mersin/mezitli/oya eczanesi","direction":"https://www.google.com.tr/maps/dir/My+Location/36.7560466,34.5377404"},{"lat":36.7410301,"lng":34.5250538,"name":"Özgür Demir Eczanesi","address1":"Menderes, Cevat Kutlu Cad. Yalıkent Apt. 22/C, 33340 Mezitli/Mersin (Icel), Turkey","address2":"mersin (icel)/mezitli/özgür demir eczanesi","direction":"https://www.google.com.tr/maps/dir/My+Location/36.7410301,34.5250538"},{"lat":36.707377,"lng":34.4670228,"name":"Saba Eczanesi","address1":"seymenli mahallesi çaltana sitesi yanı, Seymenli, 45102 sokak, 33340 Mezitli/Mersin, Turkey","address2":"mersin/mezitli/saba eczanesi","direction":"https://www.google.com.tr/maps/dir/My+Location/36.707377,34.4670228"},{"lat":36.746621,"lng":34.5270166,"name":"Sahil Eczanesi","address1":"Menderes Mh., 33190 Mezitli/Mersin, Turkey","address2":"mersin/mezitli/sahil eczanesi","direction":"https://www.google.com.tr/maps/dir/My+Location/36.746621,34.5270166"},{"lat":36.7564495,"lng":34.5379663,"name":"Selçuk Eczanesi","address1":"Yeni, 33180 Mezitli/Mersin, Turkey","address2":"mersin/mezitli/selçuk eczanesi","direction":"https://www.google.com.tr/maps/dir/My+Location/36.7564495,34.5379663"},{"lat":36.7565134,"lng":34.5379787,"name":"Şenol Eczanesi","address1":"Yeni, Kastro Apt, Kelveli Cd. No:6 D:2, 33330 Mezitli/Mersin, Turkey","address2":"mersin/mezitli/şenol eczanesi","direction":"https://www.google.com.tr/maps/dir/My+Location/36.7565134,34.5379787"},{"lat":36.7466737,"lng":34.5370503,"name":"Serkut Eczanesi","address1":"Viranşehir, Viranşehir Cd. No:25, 33340 Mezitli/Mersin, Turkey","address2":"mersin/mezitli/serkut eczanesi","direction":"https://www.google.com.tr/maps/dir/My+Location/36.7466737,34.5370503"},{"lat":36.757364,"lng":34.535299,"name":"Toksoy Eczanesi","address1":"Yeni, 33180. Sk., 33330 Mezitli/Mersin, Turkey","address2":"mersin/mezitli/toksoy eczanesi","direction":"https://www.google.com.tr/maps/dir/My+Location/36.757364,34.535299"},{"lat":36.757728,"lng":34.546145,"name":"Turkuvaz Eczanesi","address1":"Fatih, 30028. Sk. Pk:33170, 33200 Mezitli/Mersin, Turkey","address2":"mersin/mezitli/turkuvaz eczanesi","direction":"https://www.google.com.tr/maps/dir/My+Location/36.757728,34.546145"},{"lat":36.757102,"lng":34.534984,"name":"Volkan Eczanesi","address1":"Yeni, 33180. Sk. No:26, 33330 Mezitli/Mersin, Turkey","address2":"mersin/mezitli/volkan eczanesi","direction":"https://www.google.com.tr/maps/dir/My+Location/36.757102,34.534984"},{"lat":36.7493048,"lng":34.5288036,"name":"Yasemin Eczanesi","address1":"Merkez, 52007. Sk., 33200 Mezitli/Mersin, Turkey","address2":"mersin/mezitli/yasemin eczanesi","direction":"https://www.google.com.tr/maps/dir/My+Location/36.7493048,34.5288036"},{"lat":36.7603706,"lng":34.5440628,"name":"Zehra Eczanesi","address1":"Atatürk, Medikal Park Hastanesi arkası, 31118. Sk., 33340 Mezitli/Mersin, Turkey","address2":"mersin/mezitli/zehra eczanesi","direction":"https://www.google.com.tr/maps/dir/My+Location/36.7603706,34.5440628"},{"lat":36.6432914,"lng":33.4418501,"name":"Alver Eczanesi","address1":"Pınarbaşı, Gazi İlkokulu Cd. No:50, 33600 Mut/Mersin, Turkey","address2":"mersin/mut/alver eczanesi","direction":"https://www.google.com.tr/maps/dir/My+Location/36.6432914,33.4418501"},{"lat":36.662625,"lng":33.421366,"name":"Canan Eczanesi","address1":"Barabanlı Mah Barabanlı Sok 353/E, Meydan, Yeni Hastane Karsisi, 33600 Mut/Mersin, Turkey","address2":"mersin/mut/canan eczanesi","direction":"https://www.google.com.tr/maps/dir/My+Location/36.662625,33.421366"},{"lat":36.644565,"lng":33.437421,"name":"Çerekçi Eczanesi","address1":"Kale, İnönü Cad. 3/B, 33600 Mut/Mersin (İçel), Turkey","address2":"mersin (içel)/mut/çerekçi eczanesi","direction":"https://www.google.com.tr/maps/dir/My+Location/36.644565,33.437421"},{"lat":36.64543,"lng":33.437119,"name":"Derman Eczanesi","address1":"Pınarbaşı, Prof. Hüseyin Gezer Cd. 1/A, 33600 Mut/Mersin, Turkey","address2":"mersin/mut/derman eczanesi","direction":"https://www.google.com.tr/maps/dir/My+Location/36.64543,33.437119"},{"lat":36.6624126,"lng":33.4221005,"name":"Ferda Eczanesi","address1":"Meydan, 33600 Mut/Mersin, Turkey","address2":"mersin/mut/ferda eczanesi","direction":"https://www.google.com.tr/maps/dir/My+Location/36.6624126,33.4221005"},{"lat":36.6442104,"lng":33.4369926,"name":"Filiz Eczanesi","address1":"Doğancı, İnönü Cd. No:11, 33600 Mut/Mersin, Turkey","address2":"mersin/mut/filiz eczanesi","direction":"https://www.google.com.tr/maps/dir/My+Location/36.6442104,33.4369926"},{"lat":36.6408,"lng":33.4336561,"name":"Gazi Eczanesi","address1":"Mesudiye Mahallesi, Uğur Mumcu Cad. No:7/A, 33600 Mut/Mersin, Turkey","address2":"mersin/mut/gazi eczanesi","direction":"https://www.google.com.tr/maps/dir/My+Location/36.6408,33.4336561"},{"lat":36.6624653,"lng":33.4224278,"name":"Kerem Eczanesi","address1":"Barabanlı, BARABANLI SOK No:354/29, 33600 Mut/Mersin, Turkey","address2":"mersin/mut/kerem eczanesi","direction":"https://www.google.com.tr/maps/dir/My+Location/36.6624653,33.4224278"},{"lat":36.6496546,"lng":33.4341681,"name":"Meydan Eczanesi","address1":"Meydan, Donatım Cd., 33600 Mut/Mersin, Turkey","address2":"mersin/mut/meydan eczanesi","direction":"https://www.google.com.tr/maps/dir/My+Location/36.6496546,33.4341681"},{"lat":36.6462531,"lng":33.4357844,"name":"Sıhhat Eczanesi","address1":"Mesudiye Mahallesi, Karaman Cad. No:8/B, 33600 Mut/Mersin, Turkey","address2":"mersin/mut/sıhhat eczanesi","direction":"https://www.google.com.tr/maps/dir/My+Location/36.6462531,33.4357844"},{"lat":36.6451054,"lng":33.4369608,"name":"Sinanlı Eczanesi","address1":"Kale, Cumhuriyet Cd. 1a, 33600 Mut/Mersin, Turkey","address2":"mersin/mut/sinanlı eczanesi","direction":"https://www.google.com.tr/maps/dir/My+Location/36.6451054,33.4369608"},{"lat":36.6625306,"lng":33.4220275,"name":"Tansel Eczanesi","address1":"Barabanlı mah.(yeni hastane karsisi Barabanlı sok.no353/D, Meydan, 33600 Mut/Mersin, Turkey","address2":"mersin/mut/tansel eczanesi","direction":"https://www.google.com.tr/maps/dir/My+Location/36.6625306,33.4220275"},{"lat":36.757581,"lng":34.534825,"name":"Aktaş Eczanesi","address1":"Yeni, 33180. Sk (180. Sk.) No:27, 33180 Mezitli/Mersin, Turkey","address2":"mersin/mezitli/aktaş eczanesi","direction":"https://www.google.com.tr/maps/dir/My+Location/36.757581,34.534825"},{"lat":36.3193147,"lng":33.879998,"name":"Beyhan Eczanesi","address1":"Taşucu Mahallesi İsmet İnönü Caddesi Mutlular İş Hanı No:16/I Çarşı içi, migros-jet karşısı, Taşucu, 33900 Silifke/Mersin, Turkey","address2":"mersin/silifke/beyhan eczanesi","direction":"https://www.google.com.tr/maps/dir/My+Location/36.3193147,33.879998"},{"lat":36.380596,"lng":33.932127,"name":"Bilgen Eczanesi","address1":"Göksu, Oğuz Kağan Cd. 22/A, 33960 Silifke/Mersin, Turkey","address2":"mersin/silifke/bilgen eczanesi","direction":"https://www.google.com.tr/maps/dir/My+Location/36.380596,33.932127"},{"lat":36.37633,"lng":33.925311,"name":"Çağdaş Eczanesi","address1":"Silifke, Mersin, Turkey","address2":"mersin/silifke/çağdaş eczanesi","direction":"https://www.google.com.tr/maps/dir/My+Location/36.37633,33.925311"},{"lat":36.380877,"lng":33.926861,"name":"Deva Eczanesi","address1":"Göksu, Celal Bayar Cd. 12/b, 33940 Silifke/Mersin, Turkey","address2":"mersin/silifke/deva eczanesi","direction":"https://www.google.com.tr/maps/dir/My+Location/36.380877,33.926861"},{"lat":36.3808508,"lng":33.9281117,"name":"Dolunay Eczanesi","address1":"Göksu Mahallesi, Celal Bayar Cd. no24/c, 33940 Silifke/Mersin, Turkey","address2":"mersin/silifke/dolunay eczanesi","direction":"https://www.google.com.tr/maps/dir/My+Location/36.3808508,33.9281117"},{"lat":36.3803376,"lng":33.9314167,"name":"Düşünsel Eczanesi","address1":"Göksu, Atatürk Blv. No:39, 33960 Silifke/Mersin, Turkey","address2":"mersin/silifke/düşünsel eczanesi","direction":"https://www.google.com.tr/maps/dir/My+Location/36.3803376,33.9314167"},{"lat":36.3803376,"lng":33.9314167,"name":"Erden Eczanesi","address1":"Göksu, Atatürk Blv. No:39, 33960 Silifke/Mersin, Turkey","address2":"mersin/silifke/erden eczanesi","direction":"https://www.google.com.tr/maps/dir/My+Location/36.3803376,33.9314167"},{"lat":36.319365,"lng":33.8799989,"name":"Fırat Eczanesi","address1":"Taşucu, PTT - Taşucu Şb., 33980 Silifke/Mersin, Turkey","address2":"mersin/silifke/fırat eczanesi","direction":"https://www.google.com.tr/maps/dir/My+Location/36.319365,33.8799989"},{"lat":36.3832352,"lng":33.9451585,"name":"Genç Eczanesi","address1":"No:8, 33960, Sarıcalar, Silifke Küçük Sanayi Sitesi, 33940 Silifke/Mersin, Turkey","address2":"mersin/silifke/genç eczanesi","direction":"https://www.google.com.tr/maps/dir/My+Location/36.3832352,33.9451585"},{"lat":36.3815642,"lng":33.9313616,"name":"Göksu Eczanesi","address1":"Göksu, Fatih Sultan Mehmet Cd. 7/B, 33960 Silifke/Mersin, Turkey","address2":"mersin/silifke/göksu eczanesi","direction":"https://www.google.com.tr/maps/dir/My+Location/36.3815642,33.9313616"},{"lat":36.3806953,"lng":33.9307519,"name":"Kuzulu Eczanesi","address1":"Göksu, 35. Sk. No:3, 33960 Silifke/Mersin, Turkey","address2":"mersin/silifke/kuzulu eczanesi","direction":"https://www.google.com.tr/maps/dir/My+Location/36.3806953,33.9307519"},{"lat":36.319623,"lng":33.875732,"name":"Neşeli Eczanesi","address1":"Taşucu, 7. Sok. 18/A, 33900 Silifke/Mersin (İçel), Turkey","address2":"mersin (içel)/silifke/neşeli eczanesi","direction":"https://www.google.com.tr/maps/dir/My+Location/36.319623,33.875732"},{"lat":36.3809711,"lng":33.9277825,"name":"Oğuz Eczanesi","address1":"Göksu, 33960 Silifke/Mersin, Turkey","address2":"mersin/silifke/oğuz eczanesi","direction":"https://www.google.com.tr/maps/dir/My+Location/36.3809711,33.9277825"},{"lat":36.3436873,"lng":33.9180592,"name":"Onuk Eczanesi","address1":"Burunucu Devlet Hastanesi Karşısı, Burunucu, D:187, 33900 Silifke/Mersin, Turkey","address2":"mersin/silifke/onuk eczanesi","direction":"https://www.google.com.tr/maps/dir/My+Location/36.3436873,33.9180592"},{"lat":36.3832134,"lng":33.9450818,"name":"Onur Çekiç Eczanesi","address1":"Türkmenli Sokak no:10/d, Sarıcalar, 33960 Silifke/Mersin, Turkey","address2":"mersin/silifke/onur çekiç eczanesi","direction":"https://www.google.com.tr/maps/dir/My+Location/36.3832134,33.9450818"},{"lat":36.3760972,"lng":33.9251144,"name":"Özkan Eczanesi","address1":"Pazarkaşı, Menderes Cd. No:72, 33950 Silifke/Mersin, Turkey","address2":"mersin/silifke/özkan eczanesi","direction":"https://www.google.com.tr/maps/dir/My+Location/36.3760972,33.9251144"},{"lat":36.3779618,"lng":33.926207,"name":"Özmen Eczanesi","address1":"Saray, Menderes Cd. Pk:33900, 33900 Silifke/Mersin, Turkey","address2":"mersin/silifke/özmen eczanesi","direction":"https://www.google.com.tr/maps/dir/My+Location/36.3779618,33.926207"},{"lat":36.3719773,"lng":33.9272269,"name":"Öznur Eczanesi","address1":"Saray, 33900 Silifke/Mersin, Turkey","address2":"mersin/silifke/öznur eczanesi","direction":"https://www.google.com.tr/maps/dir/My+Location/36.3719773,33.9272269"},{"lat":36.380793,"lng":33.9307672,"name":"Sağında Eczanesi","address1":"Göksu, 35. Sk. No:5, 33960 Silifke/Mersin, Turkey","address2":"mersin/silifke/sağında eczanesi","direction":"https://www.google.com.tr/maps/dir/My+Location/36.380793,33.9307672"},{"lat":36.319757,"lng":33.880404,"name":"Sağlık Eczanesi","address1":"taşucu mah. ismet inönü cad. 6/d silifke/mersin, Taşucu, 33940 Taşucu/Silifke/Silifke/Mersin, Turkey","address2":"mersin/silifke/sağlık eczanesi","direction":"https://www.google.com.tr/maps/dir/My+Location/36.319757,33.880404"},{"lat":36.3830705,"lng":33.9450864,"name":"Şifa Eczanesi","address1":"Sarıcalar, 33960 Silifke/Mersin, Turkey","address2":"mersin/silifke/şifa eczanesi","direction":"https://www.google.com.tr/maps/dir/My+Location/36.3830705,33.9450864"},{"lat":36.38036,"lng":33.9279181,"name":"Soldan Eczanesi","address1":"Göksu, Atatürk Blv. No:13, 33960 Silifke/Mersin, Turkey","address2":"mersin/silifke/soldan eczanesi","direction":"https://www.google.com.tr/maps/dir/My+Location/36.38036,33.9279181"},{"lat":36.4055598,"lng":34.0703255,"name":"Susanoğlu Eczanesi","address1":"Atakent, Silifke Cd. No:10, 33990 Silifke/Mersin, Turkey","address2":"mersin/silifke/susanoğlu eczanesi","direction":"https://www.google.com.tr/maps/dir/My+Location/36.4055598,34.0703255"},{"lat":36.3814501,"lng":33.9299525,"name":"Tol Eczanesi","address1":"Göksu, Özcan Seyhan Cd. No: 9, 33960 Silifke/Mersin, Turkey","address2":"mersin/silifke/tol eczanesi","direction":"https://www.google.com.tr/maps/dir/My+Location/36.3814501,33.9299525"},{"lat":36.3435577,"lng":33.9182389,"name":"Tuğba Eczanesi","address1":"Burnucu Mahallesi, 33960 Silifke/Mersin, Turkey","address2":"mersin/silifke/tuğba eczanesi","direction":"https://www.google.com.tr/maps/dir/My+Location/36.3435577,33.9182389"},{"lat":36.3808147,"lng":33.93081,"name":"Uğur Eczanesi","address1":"Göksu, 35. Sk. No:5, 33960 Silifke/Mersin, Turkey","address2":"mersin/silifke/uğur eczanesi","direction":"https://www.google.com.tr/maps/dir/My+Location/36.3808147,33.93081"},{"lat":36.3432991,"lng":33.9183287,"name":"Uysallar Eczanesi","address1":"Burunucu mah, hastane cad. 4/C Pk:33960, Burunucu, 33940 Silifke/Mersin, Turkey","address2":"mersin/silifke/uysallar eczanesi","direction":"https://www.google.com.tr/maps/dir/My+Location/36.3432991,33.9183287"},{"lat":36.38029,"lng":33.930703,"name":"Yener Eczanesi","address1":"Göksu, Atatürk Blv. No:33, 33960 Silifke/Mersin, Turkey","address2":"mersin/silifke/yener eczanesi","direction":"https://www.google.com.tr/maps/dir/My+Location/36.38029,33.930703"},{"lat":36.3432582,"lng":33.9184052,"name":"Yerlikaya Eczanesi","address1":"Burunucu, 33900 Silifke/Mersin, Turkey","address2":"mersin/silifke/yerlikaya eczanesi","direction":"https://www.google.com.tr/maps/dir/My+Location/36.3432582,33.9184052"},{"lat":36.3891227,"lng":33.9499154,"name":"Yıldız Eczanesi","address1":"Sarıcalar, Silifke/Mersin, Turkey","address2":"mersin/silifke/yıldız eczanesi","direction":"https://www.google.com.tr/maps/dir/My+Location/36.3891227,33.9499154"},{"lat":36.913221,"lng":34.8669022,"name":"Aslı Eczanesi(24:00 Kadar Açık)","address1":"Gazipaşa, 1963. Sk. No:1, 33430 Tarsus/Mersin, Turkey","address2":"mersin/tarsus/aslı eczanesi(24:00 kadar açık)","direction":"https://www.google.com.tr/maps/dir/My+Location/36.913221,34.8669022"},{"lat":36.917191,"lng":34.8877191,"name":"Aydan Eczanesi","address1":"Şehitmustafa, Muvaffak Uygur Cd No:1, 33440 Tarsus/Mersin, Turkey","address2":"mersin/tarsus/aydan eczanesi","direction":"https://www.google.com.tr/maps/dir/My+Location/36.917191,34.8877191"},{"lat":36.919495,"lng":34.900551,"name":"Aydın Eczanesi(24:00 Kadar Açık)","address1":"Reşadiye, Şht. Ayhan Bozpınar Cd. No:1, 33500 Tarsus/Mersin, Turkey","address2":"mersin/tarsus/aydın eczanesi(24:00 kadar açık)","direction":"https://www.google.com.tr/maps/dir/My+Location/36.919495,34.900551"},{"lat":36.9204469,"lng":34.8805859,"name":"Ayhan Eczanesi","address1":"Yeni Ömerli, Atatürk Cd No:74, 33430 Tarsus/Mersin, Turkey","address2":"mersin/tarsus/ayhan eczanesi","direction":"https://www.google.com.tr/maps/dir/My+Location/36.9204469,34.8805859"},{"lat":36.904415,"lng":34.885494,"name":"Barbaros Eczanesi(24:00 Kadar Açık)","address1":"Barbaros, 0692. Sk. No:2, 33450 Tarsus/Mersin, Turkey","address2":"mersin/tarsus/barbaros eczanesi(24:00 kadar açık)","direction":"https://www.google.com.tr/maps/dir/My+Location/36.904415,34.885494"},{"lat":36.9181109,"lng":34.8853443,"name":"Başak Eczanesi","address1":"Yeni Ömerli, Atatürk Cd Pk:33440, 33500 Tarsus/Mersin, Turkey","address2":"mersin/tarsus/başak eczanesi","direction":"https://www.google.com.tr/maps/dir/My+Location/36.9181109,34.8853443"},{"lat":36.920388,"lng":34.8777601,"name":"Bereket Eczanesi(24:00 Kadar Açık)","address1":"Anıt, 0321. Sk. No:20, 33430 Tarsus/Mersin, Turkey","address2":"mersin/tarsus/bereket eczanesi(24:00 kadar açık)","direction":"https://www.google.com.tr/maps/dir/My+Location/36.920388,34.8777601"},{"lat":36.913189,"lng":34.86683,"name":"Beren Eczanesi(24:00 Kadar Açık)","address1":"Gazipaşa Mh. Mehmet Akif Ersoy Cd. Pk:33430 Tarsus/mersin, Gazipaşa, 33430 Tarsus/Mersin, Turkey","address2":"mersin/tarsus/beren eczanesi(24:00 kadar açık)","direction":"https://www.google.com.tr/maps/dir/My+Location/36.913189,34.86683"},{"lat":36.9334861,"lng":34.8975824,"name":"Berna Eczanesi","address1":"Fahrettin Paşa, İstiklal Cd., 33440 Tarsus/Mersin, Turkey","address2":"mersin/tarsus/berna eczanesi","direction":"https://www.google.com.tr/maps/dir/My+Location/36.9334861,34.8975824"},{"lat":36.9114306,"lng":34.8808789,"name":"Bozkır Eczanesi(24:00 Kadar Açık)","address1":"Öğretmenler, 2907. Sk., 33440 Tarsus/Mersin, Turkey","address2":"mersin/tarsus/bozkır eczanesi(24:00 kadar açık)","direction":"https://www.google.com.tr/maps/dir/My+Location/36.9114306,34.8808789"},{"lat":36.8121041,"lng":34.6414811,"name":"Bulvar Eczanesi","address1":"Mersin, Akdeniz/Mersin, Turkey","address2":"mersin/akdeniz/bulvar eczanesi","direction":"https://www.google.com.tr/maps/dir/My+Location/36.8121041,34.6414811"},{"lat":36.9090273,"lng":34.8829776,"name":"Çakır Eczanesi","address1":"Öğretmenler Mahallesi Dumlupınar bulvari yıldızbakan, Öğretmenler, Sgk binası ve medical park hastanesi karşısı, park evleri altı no 4.c, 33440 Tarsus/Mersin, Turkey","address2":"mersin/tarsus/çakır eczanesi","direction":"https://www.google.com.tr/maps/dir/My+Location/36.9090273,34.8829776"},{"lat":36.9279684,"lng":34.9331012,"name":"Can Eczanesi(24:00 Kadar Açık)","address1":"Ferrahim Şalvuz Mah.1611 Sok. No:13, Ferahimşalvuz, Beydeğirmeni Asm Karşısı, 33470 Tarsus/Mersin, Turkey","address2":"mersin/tarsus/can eczanesi(24:00 kadar açık)","direction":"https://www.google.com.tr/maps/dir/My+Location/36.9279684,34.9331012"},{"lat":36.91454,"lng":34.882957,"name":"Darende Eczanesi","address1":"Öğretmenler mah 2903 sok TARSUS/MERSİN, Öğretmenler, 33420 TARSUS/Tarsus/Mersin, Turkey","address2":"mersin/tarsus/darende eczanesi","direction":"https://www.google.com.tr/maps/dir/My+Location/36.91454,34.882957"},{"lat":36.7377358,"lng":34.528561,"name":"Demircan Eczanesi(24:00 Kadar Açık)","address1":"Menderes, Denizhan 2 Sitesi, 33340 Mezitli/Mersin, Turkey","address2":"mersin/mezitli/demircan eczanesi(24:00 kadar açık)","direction":"https://www.google.com.tr/maps/dir/My+Location/36.7377358,34.528561"},{"lat":36.9174962,"lng":34.886977,"name":"Derman Eczanesi(24:00 Kadar Açık)","address1":"İsmetpaşa, Yarenlik, Atatürk Cd, 33500 Tarsus/Mersin, Turkey","address2":"mersin/tarsus/derman eczanesi(24:00 kadar açık)","direction":"https://www.google.com.tr/maps/dir/My+Location/36.9174962,34.886977"},{"lat":36.9178964,"lng":34.890687,"name":"Deva Eczanesi(24:00 Kadar Açık)","address1":"Yeni Ömerli, 33440 Tarsus/Mersin, Turkey","address2":"mersin/tarsus/deva eczanesi(24:00 kadar açık)","direction":"https://www.google.com.tr/maps/dir/My+Location/36.9178964,34.890687"},{"lat":36.9141133,"lng":34.9053305,"name":"Dikmen Eczanesi","address1":"Tekke, Donuktaş Cd. No:27, 33440 Tarsus/Mersin, Turkey","address2":"mersin/tarsus/dikmen eczanesi","direction":"https://www.google.com.tr/maps/dir/My+Location/36.9141133,34.9053305"},{"lat":36.9208116,"lng":34.8988882,"name":"Doğa Eczanesi(24:00 Kadar Açık)","address1":"Reşadiye, 3026. Sk. No:48, 33500 Tarsus/Mersin, Turkey","address2":"mersin/tarsus/doğa eczanesi(24:00 kadar açık)","direction":"https://www.google.com.tr/maps/dir/My+Location/36.9208116,34.8988882"},{"lat":36.914095,"lng":34.9038781,"name":"Emel Eczanesi","address1":"Cumhuriyet, 0922. Sk. No:7, 33440 Tarsus/Mersin, Turkey","address2":"mersin/tarsus/emel eczanesi","direction":"https://www.google.com.tr/maps/dir/My+Location/36.914095,34.9038781"},{"lat":36.9172581,"lng":34.8875401,"name":"Erdinç Eczanesi","address1":"Şehitmustafa, Muvaffak Uygur Cd No:1, 33440 Tarsus/Mersin, Turkey","address2":"mersin/tarsus/erdinç eczanesi","direction":"https://www.google.com.tr/maps/dir/My+Location/36.9172581,34.8875401"},{"lat":36.9238479,"lng":34.8830912,"name":"Erkan Eczanesi(24:00 Kadar Açık)","address1":"No:, Şehitishak, Nene Hatun Cd. No:36, 33410 Tarsus/Mersin, Turkey","address2":"mersin/tarsus/erkan eczanesi(24:00 kadar açık)","direction":"https://www.google.com.tr/maps/dir/My+Location/36.9238479,34.8830912"},{"lat":36.9270608,"lng":34.872199,"name":"Eroğlu Eczanesi(24:00 Kadar Açık)","address1":"Yeni, 33420 Tarsus/Mersin, Turkey","address2":"mersin/tarsus/eroğlu eczanesi(24:00 kadar açık)","direction":"https://www.google.com.tr/maps/dir/My+Location/36.9270608,34.872199"},{"lat":36.9176412,"lng":34.8871305,"name":"Esin Eczanesi","address1":"Yeni Ömerli, Atatürk Cd Pk:33440, 33500 Tarsus/Mersin, Turkey","address2":"mersin/tarsus/esin eczanesi","direction":"https://www.google.com.tr/maps/dir/My+Location/36.9176412,34.8871305"},{"lat":36.9170626,"lng":34.8843739,"name":"Eylül Eczanesi","address1":"Öğretmenler Mh. Rasim Dokur Cd, Öğretmenler, Lokman Hekim Çarşısı No:2/1, 33440 Tarsus/Mersin, Turkey","address2":"mersin/tarsus/eylül eczanesi","direction":"https://www.google.com.tr/maps/dir/My+Location/36.9170626,34.8843739"},{"lat":36.9244717,"lng":34.8699388,"name":"Fatih Eczanesi(24:00 Kadar Açık)","address1":"Gaziler, Kale Burcu Cd. No:84, 33420 Tarsus/Mersin, Turkey","address2":"mersin/tarsus/fatih eczanesi(24:00 kadar açık)","direction":"https://www.google.com.tr/maps/dir/My+Location/36.9244717,34.8699388"},{"lat":36.9176526,"lng":34.886827,"name":"Feray Eczanesi","address1":"Yeni Ömerli, Atatürk Cd Eliyeşil Apt. No:7, 33500 Tarsus/Mersin, Turkey","address2":"mersin/tarsus/feray eczanesi","direction":"https://www.google.com.tr/maps/dir/My+Location/36.9176526,34.886827"},{"lat":36.9223438,"lng":34.9093086,"name":"Fevzi Çakmak Eczanesi(24:00 Kadar Açık)","address1":"Fevzi Çakmak, Tarsus/Mersin, Turkey","address2":"mersin/tarsus/fevzi çakmak eczanesi(24:00 kadar açık)","direction":"https://www.google.com.tr/maps/dir/My+Location/36.9223438,34.9093086"},{"lat":36.9285029,"lng":34.8908452,"name":"Filiz Eczanesi(24:00 Kadar Açık)","address1":"Hürriyet, 2215. Sk. no 19, 33400 Tarsus/Mersin, Turkey","address2":"mersin/tarsus/filiz eczanesi(24:00 kadar açık)","direction":"https://www.google.com.tr/maps/dir/My+Location/36.9285029,34.8908452"},