[{"lat":39.5402937,"lng":43.6711099,"name":"Deva Eczanesi","address1":"Atatürk Mah / Fatih Cad / No:8, Atatürk, Diyadin / AĞRI, 04900 Diyadin/Ağrı, Turkey","address2":"ağrı/diyadin/deva eczanesi","direction":"https://www.google.com.tr/maps/dir/My+Location/39.5402937,43.6711099"},{"lat":39.5401,"lng":43.6772999,"name":"Diyadin Eczanesi","address1":"Atatürk, İnönü Cad. No:86, 04900 Diyadin/Ağrı, Turkey","address2":"ağrı/diyadin/diyadin eczanesi","direction":"https://www.google.com.tr/maps/dir/My+Location/39.5401,43.6772999"},{"lat":39.548185,"lng":43.6576437,"name":"Emin Eczanesi","address1":"Murat, Diyadin/Ağrı, Turkey","address2":"ağrı/diyadin/emin eczanesi","direction":"https://www.google.com.tr/maps/dir/My+Location/39.548185,43.6576437"},{"lat":39.5484656,"lng":44.0790689,"name":"Altınörs Eczanesi","address1":"Uluyol Mh. Sanat Sk. Pk:04400 Doğubayazıt/ağrı, Ahmedihani, 04400 Doğubayazıt/Ağrı, Turkey","address2":"ağrı/doğubayazıt/altınörs eczanesi","direction":"https://www.google.com.tr/maps/dir/My+Location/39.5484656,44.0790689"},{"lat":39.5482342,"lng":44.077312,"name":"Can Eczanesi","address1":"BÜYÜK AĞRI CAD, Ahmedihani, VİAR GİYİM YANI, Ağrı Cd., 04400 Doğubayazıt/Ağrı, Turkey","address2":"ağrı/doğubayazıt/can eczanesi","direction":"https://www.google.com.tr/maps/dir/My+Location/39.5482342,44.077312"},{"lat":39.5508267,"lng":44.0433006,"name":"Ege Eczanesi","address1":"Sanayi, 04400 Doğubayazıt/Ağrı, Turkey","address2":"ağrı/doğubayazıt/ege eczanesi","direction":"https://www.google.com.tr/maps/dir/My+Location/39.5508267,44.0433006"},{"lat":39.5483952,"lng":44.0784331,"name":"Mert Eczanesi","address1":"Ahmedihani, Ağrı Cd. No:264, 04400 Doğubayazıt/Ağrı, Turkey","address2":"ağrı/doğubayazıt/mert eczanesi","direction":"https://www.google.com.tr/maps/dir/My+Location/39.5483952,44.0784331"},{"lat":39.5481448,"lng":44.0768736,"name":"Nazlı Eczanesi","address1":"Ahmedihani, Ağrı Cd. No:280, 04400 Doğubayazıt/Ağrı, Turkey","address2":"ağrı/doğubayazıt/nazlı eczanesi","direction":"https://www.google.com.tr/maps/dir/My+Location/39.5481448,44.0768736"},{"lat":39.547079,"lng":44.0810899,"name":"Nefes Eczanesi","address1":"Uluyol Mh. İsa Geçit Cd. Pk:04400 Doğubayazıt/ağrı, Uluyol, 04400 Doğubayazıt/Ağrı, Turkey","address2":"ağrı/doğubayazıt/nefes eczanesi","direction":"https://www.google.com.tr/maps/dir/My+Location/39.547079,44.0810899"},{"lat":39.5487109,"lng":44.0807947,"name":"Şafak Eczanesi","address1":"Ahmedihani, Dr. İsmail Beşikçi Cad. 146/A, 04400 Doğubayazıt (Doğubeyazıt)/Ağrı, Turkey","address2":"ağrı/doğubayazıt (doğubeyazıt)/şafak eczanesi","direction":"https://www.google.com.tr/maps/dir/My+Location/39.5487109,44.0807947"},{"lat":39.547013,"lng":44.070286,"name":"Şahın Eczanesi","address1":"Uluyol Mh. Ağrı Cd. No:372 Pk:04400 Doğubayazıt/ağrı, Uluyol, 04400 Doğubayazıt/Ağrı, Turkey","address2":"ağrı/doğubayazıt/şahın eczanesi","direction":"https://www.google.com.tr/maps/dir/My+Location/39.547013,44.070286"},{"lat":39.5468114,"lng":44.0827772,"name":"Tekin Eczanesi","address1":"Çiftepınar, Güven Cd. No:3, 04400 Doğubayazıt/Ağrı, Turkey","address2":"ağrı/doğubayazıt/tekin eczanesi","direction":"https://www.google.com.tr/maps/dir/My+Location/39.5468114,44.0827772"},{"lat":39.5456527,"lng":44.0817127,"name":"Ümıt Eczanesi","address1":"Çiftepınar, Büyük Ağrı Cad. No:355, 04400 Doğubayazıt (Doğubeyazıt)/Ağrı, Turkey","address2":"ağrı/doğubayazıt (doğubeyazıt)/ümıt eczanesi","direction":"https://www.google.com.tr/maps/dir/My+Location/39.5456527,44.0817127"},{"lat":39.5486401,"lng":44.0742065,"name":"Yeni Halk Eczanesi","address1":"Ahmedihani, Dr. İsmail Beşikçi Cad. 159/A, 04400 Doğubayazıt (Doğubeyazıt)/Ağrı, Turkey","address2":"ağrı/doğubayazıt (doğubeyazıt)/yeni halk eczanesi","direction":"https://www.google.com.tr/maps/dir/My+Location/39.5486401,44.0742065"},{"lat":39.5485414,"lng":44.0800521,"name":"Yeni Melek Eczanesi","address1":"Ahmedihani, Ağrı Cd. No:230, 04400 Doğubayazıt/Ağrı, Turkey","address2":"ağrı/doğubayazıt/yeni melek eczanesi","direction":"https://www.google.com.tr/maps/dir/My+Location/39.5485414,44.0800521"},{"lat":39.553946,"lng":44.062572,"name":"Yeni Şifa Eczanesi","address1":"Büyük Ağrı Mh. Ağrı Doğubeyazıt Yolu Pk:04400 Doğubayazıt/ağrı, Büyük Ağrı, 04400 Doğubayazıt/Ağrı, Turkey","address2":"ağrı/doğubayazıt/yeni şifa eczanesi","direction":"https://www.google.com.tr/maps/dir/My+Location/39.553946,44.062572"},{"lat":39.5486401,"lng":44.0742065,"name":"Yeni Yağmur Eczanesi","address1":"Ahmedihani, Fatih Cad. No:324, 04400 Doğubayazıt (Doğubeyazıt)/Ağrı, Turkey","address2":"ağrı/doğubayazıt (doğubeyazıt)/yeni yağmur eczanesi","direction":"https://www.google.com.tr/maps/dir/My+Location/39.5486401,44.0742065"},{"lat":39.798121,"lng":42.677926,"name":"Duru Eczanesi","address1":"Lozan Mh. Cumhuriyet Cd. Pk:04600 Eleşkirt/ağrı, Lozan, 04600 Eleşkirt/Ağrı, Turkey","address2":"ağrı/eleşkirt/duru eczanesi","direction":"https://www.google.com.tr/maps/dir/My+Location/39.798121,42.677926"},{"lat":39.801453,"lng":42.676495,"name":"Eleşkirt Eczanesi","address1":"İstiklal, Cumhuriyet Cad. No:113, 04600 Eleşkirt/Ağrı, Turkey","address2":"ağrı/eleşkirt/eleşkirt eczanesi","direction":"https://www.google.com.tr/maps/dir/My+Location/39.801453,42.676495"},{"lat":39.8064834,"lng":42.687664,"name":"Şifa Eczanesi","address1":"İstiklal, Eleşkirt/Ağrı, Turkey","address2":"ağrı/eleşkirt/şifa eczanesi","direction":"https://www.google.com.tr/maps/dir/My+Location/39.8064834,42.687664"},{"lat":39.719074,"lng":43.050591,"name":"Ağrı Eczanesi","address1":"Ağrı, Ağrı Merkez/Ağrı, Turkey","address2":"ağrı/ağrı merkez/ağrı eczanesi","direction":"https://www.google.com.tr/maps/dir/My+Location/39.719074,43.050591"},{"lat":39.715375,"lng":43.052904,"name":"Arı Eczanesi","address1":"Murat Mah, Eski Van Cd. No: 125/E, 04100 MERKEZ/Ağrı, Turkey","address2":"ağrı/merkez/arı eczanesi","direction":"https://www.google.com.tr/maps/dir/My+Location/39.715375,43.052904"},{"lat":39.7196421,"lng":43.0517785,"name":"Büyük Konak Eczanesi","address1":"Yavuz, Cumhuriyet Cd. No:103, 04100 Ağrı Merkez/Ağrı, Turkey","address2":"ağrı/ağrı merkez/büyük konak eczanesi","direction":"https://www.google.com.tr/maps/dir/My+Location/39.7196421,43.0517785"},{"lat":39.7192751,"lng":43.0518839,"name":"Çare Eczanesi","address1":"No:2, Yavuz, Cumhuriyet Cd., 04100 Ağrı Merkez/Ağrı, Turkey","address2":"ağrı/ağrı merkez/çare eczanesi","direction":"https://www.google.com.tr/maps/dir/My+Location/39.7192751,43.0518839"},{"lat":39.718998,"lng":43.043722,"name":"Duman Eczanesi","address1":"Kazım Karabekir, Erzurum Cad No:75, 04100 Ağrı Merkez/Ağrı, Turkey","address2":"ağrı/ağrı merkez/duman eczanesi","direction":"https://www.google.com.tr/maps/dir/My+Location/39.718998,43.043722"},{"lat":39.721555,"lng":43.014221,"name":"Furkan Eczanesi","address1":"Abide, 1042. Sk., 04100 Ağrı Merkez/Ağrı, Turkey","address2":"ağrı/ağrı merkez/furkan eczanesi","direction":"https://www.google.com.tr/maps/dir/My+Location/39.721555,43.014221"},{"lat":39.714132,"lng":43.053549,"name":"Güven Eczanesi","address1":"Alpaslan Mh, Eski Van Cd. No:180, 04200 Pk:04100 Merkez/Ağrı, Turkey","address2":"ağrı/pk:04100 merkez/güven eczanesi","direction":"https://www.google.com.tr/maps/dir/My+Location/39.714132,43.053549"},{"lat":39.713788,"lng":43.053794,"name":"Lokman Eczanesi","address1":"Murat, Eski Van Cad. No:130, 04200 Ağrı Merkez/Ağrı, Turkey","address2":"ağrı/ağrı merkez/lokman eczanesi","direction":"https://www.google.com.tr/maps/dir/My+Location/39.713788,43.053794"},{"lat":39.713788,"lng":43.053794,"name":"Meydan Eczanesi","address1":"Murat, Eski Van Cad. No:130, 04200 Ağrı Merkez/Ağrı, Turkey","address2":"ağrı/ağrı merkez/meydan eczanesi","direction":"https://www.google.com.tr/maps/dir/My+Location/39.713788,43.053794"},{"lat":39.718943,"lng":43.032286,"name":"Neslişah Şifa Eczanesi","address1":"Abide, Erzurum Cad. No:13, 04100 Ağrı Merkez/Ağrı, Turkey","address2":"ağrı/ağrı merkez/neslişah şifa eczanesi","direction":"https://www.google.com.tr/maps/dir/My+Location/39.718943,43.032286"},{"lat":39.718943,"lng":43.032286,"name":"Neslişahşifa Eczanesi","address1":"Abide, Erzurum Cad. No:13, 04100 Ağrı Merkez/Ağrı, Turkey","address2":"ağrı/ağrı merkez/neslişahşifa eczanesi","direction":"https://www.google.com.tr/maps/dir/My+Location/39.718943,43.032286"},{"lat":39.7207531,"lng":43.0525138,"name":"Sevgi Eczanesi","address1":"Kazım Karabekir, Cumhuriyet Cad. No:142, 04200 Ağrı Merkez/Ağrı, Turkey","address2":"ağrı/ağrı merkez/sevgi eczanesi","direction":"https://www.google.com.tr/maps/dir/My+Location/39.7207531,43.0525138"},{"lat":39.7221406,"lng":43.0534625,"name":"Uğur Eczanesi","address1":"Hürriyet, 1808. Sk. No:1, 04100 Ağrı Merkez/Ağrı, Turkey","address2":"ağrı/ağrı merkez/uğur eczanesi","direction":"https://www.google.com.tr/maps/dir/My+Location/39.7221406,43.0534625"},{"lat":39.7220203,"lng":43.0540363,"name":"Yaşam Eczanesi","address1":"Yavuz, 04100 Ağrı Merkez/Ağrı, Turkey","address2":"ağrı/ağrı merkez/yaşam eczanesi","direction":"https://www.google.com.tr/maps/dir/My+Location/39.7220203,43.0540363"},{"lat":39.717541,"lng":43.0178165,"name":"Yol Eczanesi","address1":"Fırat Mh. Atalay Cd. Pk:04100 Ağrı Merkez/ağrı, Fırat, 04200 Ağrı Merkez/Ağrı, Turkey","address2":"ağrı/ağrı merkez/yol eczanesi","direction":"https://www.google.com.tr/maps/dir/My+Location/39.717541,43.0178165"},{"lat":39.7219913,"lng":43.0536477,"name":"Yonca Eczanesi","address1":"Leylek Pınar, Vali Konağı Cd. No: 41, 04100 Merkez/Ağrı, Turkey","address2":"ağrı/merkez/yonca eczanesi","direction":"https://www.google.com.tr/maps/dir/My+Location/39.7219913,43.0536477"},{"lat":39.7154553,"lng":43.052885,"name":"Zarif Eczanesi","address1":"Murat, Eski Van Cd. NO: 127, 04200 Ağrı Merkez/Ağrı, Turkey","address2":"ağrı/ağrı merkez/zarif eczanesi","direction":"https://www.google.com.tr/maps/dir/My+Location/39.7154553,43.052885"},{"lat":39.2315219,"lng":42.8618039,"name":"Ballı Eczanesi","address1":"İnönü, Malazgirt Cd. No:112, 04500 Patnos/Ağrı, Turkey","address2":"ağrı/patnos/ballı eczanesi","direction":"https://www.google.com.tr/maps/dir/My+Location/39.2315219,42.8618039"},{"lat":39.235582,"lng":42.861306,"name":"Derman Eczanesi","address1":"Yeni Mh. Park Cd. Pk:04500 Patnos/ağrı, Yeni, 04500 Patnos/Ağrı, Turkey","address2":"ağrı/patnos/derman eczanesi","direction":"https://www.google.com.tr/maps/dir/My+Location/39.235582,42.861306"},{"lat":39.235627,"lng":42.858385,"name":"Doğu Eczanesi","address1":"Yeni Mh, Menderes Blv. Pk:04500, 04500 Patnos/Ağrı, Turkey","address2":"ağrı/patnos/doğu eczanesi","direction":"https://www.google.com.tr/maps/dir/My+Location/39.235627,42.858385"},{"lat":39.228842,"lng":42.859344,"name":"Elif Eczanesi","address1":"Alparslan Mh. Malazgirt Cd. No:138 Pk:04500 Patnos/ağrı, Alpagut, 04500 Patnos/Ağrı, Turkey","address2":"ağrı/patnos/elif eczanesi","direction":"https://www.google.com.tr/maps/dir/My+Location/39.228842,42.859344"},{"lat":39.236298,"lng":42.852472,"name":"İlkadım Eczanesi","address1":"Atatürk Mh. 128. Sk. Pk:04500 Patnos/ağrı, Atatürk, 04500 Patnos/Ağrı, Turkey","address2":"ağrı/patnos/ilkadım eczanesi","direction":"https://www.google.com.tr/maps/dir/My+Location/39.236298,42.852472"},{"lat":39.2333979,"lng":42.8631985,"name":"Işık Eczanesi","address1":"İnönü Mh, Malazgirt Cd. No:13, 04500 Patnos/Ağrı, Turkey","address2":"ağrı/patnos/işık eczanesi","direction":"https://www.google.com.tr/maps/dir/My+Location/39.2333979,42.8631985"},{"lat":39.2359855,"lng":42.8499383,"name":"Latıfe Kasım Eczanesi","address1":"Atatürk Mh. Yavuz Sultan Selim Cd. Pk:04500 Patnos/ağrı, Atatürk, 04500 Patnos/Ağrı, Turkey","address2":"ağrı/patnos/latıfe kasım eczanesi","direction":"https://www.google.com.tr/maps/dir/My+Location/39.2359855,42.8499383"},{"lat":39.2341978,"lng":42.8615634,"name":"Lokman Hekim Eczanesi","address1":"Atatürk, Menderes Blv. No:158, 04500 Patnos/Ağrı, Turkey","address2":"ağrı/patnos/lokman hekim eczanesi","direction":"https://www.google.com.tr/maps/dir/My+Location/39.2341978,42.8615634"},{"lat":39.2320866,"lng":42.8624265,"name":"Nur Eczanesi","address1":"İnönü, Malazgirt Cd. No:93, 04500 Patnos/Ağrı, Turkey","address2":"ağrı/patnos/nur eczanesi","direction":"https://www.google.com.tr/maps/dir/My+Location/39.2320866,42.8624265"},{"lat":39.233578,"lng":42.863303,"name":"Özlem Eczanesi","address1":"Patnos, Ağrı, Turkey","address2":"ağrı/patnos/özlem eczanesi","direction":"https://www.google.com.tr/maps/dir/My+Location/39.233578,42.863303"},{"lat":39.233433,"lng":42.865204,"name":"Patnos Eczanesi","address1":"alpaslan mah malazgirt cad no:112, İnönü, 04000 patnos/Patnos/Ağrı, Turkey","address2":"ağrı/patnos/patnos eczanesi","direction":"https://www.google.com.tr/maps/dir/My+Location/39.233433,42.865204"},{"lat":39.234933,"lng":42.861149,"name":"Roza Eczanesi","address1":"Yeni Mh, 801. Sk. No:53, Pk:04500 Patnos/Ağrı, Turkey","address2":"ağrı/patnos/roza eczanesi","direction":"https://www.google.com.tr/maps/dir/My+Location/39.234933,42.861149"},{"lat":39.236717,"lng":42.863925,"name":"Serhad Eczanesi","address1":"Yeni, Ağrı Van Cad., 04500 Patnos/Ağrı, Turkey","address2":"ağrı/patnos/serhad eczanesi","direction":"https://www.google.com.tr/maps/dir/My+Location/39.236717,42.863925"},{"lat":39.634311,"lng":43.376898,"name":"Taşlıçay Eczanesi","address1":"Cumhuriyet Mh. Transit Cd. Pk:04800 Taşlıçay/ağrı, Cumhuriyet, 04800 Taşlıçay/Ağrı, Turkey","address2":"ağrı/taşlıçay/taşlıçay eczanesi","direction":"https://www.google.com.tr/maps/dir/My+Location/39.634311,43.376898"},{"lat":39.63608,"lng":43.3810328,"name":"Umutcan Eczanesi","address1":"Cumhuriyet, 04800 Taşlıçay/Ağrı, Turkey","address2":"ağrı/taşlıçay/umutcan eczanesi","direction":"https://www.google.com.tr/maps/dir/My+Location/39.63608,43.3810328"},{"lat":39.5422,"lng":42.7718002,"name":"Sağlık Eczanesi","address1":"Murat, Cumhuriyet Cd. No:35 D:No:35, 04700 Tutak/Ağrı, Turkey","address2":"ağrı/tutak/sağlık eczanesi","direction":"https://www.google.com.tr/maps/dir/My+Location/39.5422,42.7718002"},{"lat":39.5382243,"lng":42.7711866,"name":"Tutak Eczanesi","address1":"Cami, Kazım Karabekir Cd. No:19, 04700 Tutak/Ağrı, Turkey","address2":"ağrı/tutak/tutak eczanesi","direction":"https://www.google.com.tr/maps/dir/My+Location/39.5382243,42.7711866"},{"lat":39.715375,"lng":43.052904,"name":"Ağrı Eczanesi","address1":"Murat Mah, Eski Van Cd. No: 125/E, 04100 MERKEZ/Ağrı, Turkey","address2":"ağrı/merkez/ağrı eczanesi","direction":"https://www.google.com.tr/maps/dir/My+Location/39.715375,43.052904"}]