[{"lat":37.041484,"lng":35.2521269,"name":"100.Yıl Eczanesi","address1":"Yüzüncüyıl, 85253. Sk. No:4, 01360 Çukurova/Adana, Turkey","address2":"adana/çukurova/100.yıl eczanesi","direction":"https://www.google.com.tr/maps/dir/My+Location/37.041484,35.2521269"},{"lat":37.0534552,"lng":35.2734695,"name":"Abacı Eczanesi","address1":"A Blok Bekaroğlu Sit 93/2-D, Huzurevleri, Süleyman Demirel Blv., 01360 Çukurova/Adana, Turkey","address2":"adana/çukurova/abacı eczanesi","direction":"https://www.google.com.tr/maps/dir/My+Location/37.0534552,35.2734695"},{"lat":37.050312,"lng":35.2635119,"name":"Alperen Eczanesi","address1":"Belediye Evleri, Turgut Özal Blv., 01170 Çukurova/Adana, Turkey","address2":"adana/çukurova/alperen eczanesi","direction":"https://www.google.com.tr/maps/dir/My+Location/37.050312,35.2635119"},{"lat":37.048335,"lng":35.289363,"name":"Arda Eczanesi","address1":"C, Dörtler Köyü 187, Toros, Turgut Özal Blv., 01170 Çukurova/Adana, Turkey","address2":"adana/çukurova/arda eczanesi","direction":"https://www.google.com.tr/maps/dir/My+Location/37.048335,35.289363"},{"lat":37.040491,"lng":35.296848,"name":"Ardıç Eczanesi","address1":"Hayal Park, Toros, 78114. Sk. No:1 D:sitesi a blok, 01170 Çukurova/Adana, Turkey","address2":"adana/çukurova/ardıç eczanesi","direction":"https://www.google.com.tr/maps/dir/My+Location/37.040491,35.296848"},{"lat":37.04273,"lng":35.311832,"name":"Aşkım Eczanesi","address1":".:TURGUT ÖZAL BULVARI ÇAGLA APT.NO:73/A, Mahfesığmaz, 01170 ÇUKUROVA/Çukurova/Adana, Turkey","address2":"adana/çukurova/aşkım eczanesi","direction":"https://www.google.com.tr/maps/dir/My+Location/37.04273,35.311832"},{"lat":37.0363837,"lng":35.2820248,"name":"Aşlamacı Eczanesi","address1":"Huzurevleri, İsmet Atlı Blv. No:18, 01360 Çukurova/Adana, Turkey","address2":"adana/çukurova/aşlamacı eczanesi","direction":"https://www.google.com.tr/maps/dir/My+Location/37.0363837,35.2820248"},{"lat":37.043798,"lng":35.297878,"name":"Asya Eczanesi","address1":"Toros, Ali Sepici Blv. No:51, 01170 Çukurova/Adana, Turkey","address2":"adana/çukurova/asya eczanesi","direction":"https://www.google.com.tr/maps/dir/My+Location/37.043798,35.297878"},{"lat":37.0431516,"lng":35.2921493,"name":"Aynil Eczanesi","address1":"Toros Mahallesi 78158 Sok. Miba1 Apartmanı 13/a Toros3 Asm Karşısı, Toros, Çukurova / Adana, 01173 Çukurova/Adana, Turkey","address2":"adana/çukurova/aynil eczanesi","direction":"https://www.google.com.tr/maps/dir/My+Location/37.0431516,35.2921493"},{"lat":37.032433,"lng":35.3153408,"name":"Aytekin Eczanesi","address1":"Beyazevler, 01150 Çukurova/Adana, Turkey","address2":"adana/çukurova/aytekin eczanesi","direction":"https://www.google.com.tr/maps/dir/My+Location/37.032433,35.3153408"},{"lat":37.0341052,"lng":35.3192802,"name":"Balcalı Eczanesi","address1":"Güzelyalı Mh, Adnan Kahveci Blv. No:41/B, 01170 Çukurova/Adana, Turkey","address2":"adana/çukurova/balcalı eczanesi","direction":"https://www.google.com.tr/maps/dir/My+Location/37.0341052,35.3192802"},{"lat":37.040583,"lng":35.2602011,"name":"Barkın Eczanesi","address1":"Belediye Evleri, 84206. Sk. No:16, 01170 Çukurova/Adana, Turkey","address2":"adana/çukurova/barkın eczanesi","direction":"https://www.google.com.tr/maps/dir/My+Location/37.040583,35.2602011"},{"lat":37.0389773,"lng":35.2948773,"name":"Batu Eczanesi","address1":"Toros, 78112. Sk. No:2, 01170 Çukurova/Adana, Turkey","address2":"adana/çukurova/batu eczanesi","direction":"https://www.google.com.tr/maps/dir/My+Location/37.0389773,35.2948773"},{"lat":37.0530812,"lng":35.2847657,"name":"Belgin Eczanesi","address1":"A, Güzelyalı, 81209. Sk. No:11, 01170 Çukurova/Adana, Turkey","address2":"adana/çukurova/belgin eczanesi","direction":"https://www.google.com.tr/maps/dir/My+Location/37.0530812,35.2847657"},{"lat":37.04382,"lng":35.3083219,"name":"Berkay Eczanesi","address1":"Mahfesığmaz, 79112. Sk. 2/A, 01170 Çukurova/Adana, Turkey","address2":"adana/çukurova/berkay eczanesi","direction":"https://www.google.com.tr/maps/dir/My+Location/37.04382,35.3083219"},{"lat":37.0320902,"lng":35.3211144,"name":"Beyaz Eczanesi","address1":"Beyazevler, 01150 Çukurova/Adana, Turkey","address2":"adana/çukurova/beyaz eczanesi","direction":"https://www.google.com.tr/maps/dir/My+Location/37.0320902,35.3211144"},{"lat":37.0441932,"lng":35.308563,"name":"Beyza Eczanesi","address1":"Mahfesığmaz, Turgut Özal Blv. No:2/C, 01170 Çukurova/Adana, Turkey","address2":"adana/çukurova/beyza eczanesi","direction":"https://www.google.com.tr/maps/dir/My+Location/37.0441932,35.308563"},{"lat":37.0346181,"lng":35.3198078,"name":"Bolayırlı Eczanesi","address1":"GÜZELYALI MAHALLESİ ADNAN KAHVECİ BULVARI TUNCAY KENANOĞLU APARTMANI ALTI, Güzelyalı, NO:59, 01250 ÇUKUROVA/Çukurova/Adana, Turkey","address2":"adana/çukurova/bolayırlı eczanesi","direction":"https://www.google.com.tr/maps/dir/My+Location/37.0346181,35.3198078"},{"lat":37.0405361,"lng":35.314227,"name":"Bulvar Eczanesi","address1":"Mafhesığmaz Mah. Turgut Özal Bulvarı Polis Evi Kavşağı Civarı, Mahfesığmaz, Abbas Bilir Sitesi C Blok Altı No:67, 01170 Çukurova/Adana, Turkey","address2":"adana/çukurova/bulvar eczanesi","direction":"https://www.google.com.tr/maps/dir/My+Location/37.0405361,35.314227"},{"lat":37.0444133,"lng":35.3083466,"name":"Burçak Eczanesi","address1":"Mahfesığmaz, 79112. Sok. & Turgut Özal Bulv. Astem Apt. D:C Blok, No:61/A, 01170 Çukurova/Adana, Turkey","address2":"adana/çukurova/burçak eczanesi","direction":"https://www.google.com.tr/maps/dir/My+Location/37.0444133,35.3083466"},{"lat":37.0477189,"lng":35.2986672,"name":"Burcu Toklu Eczanesi","address1":"Toros, Şehitler Blv 103/B, 01170 Çukurova/Adana, Turkey","address2":"adana/çukurova/burcu toklu eczanesi","direction":"https://www.google.com.tr/maps/dir/My+Location/37.0477189,35.2986672"},{"lat":37.0484161,"lng":35.294997,"name":"Çelen Eczanesi","address1":"Güzelyalı, Turgut Özal Blv. 118 C, 01170 Çukurova/Adana, Turkey","address2":"adana/çukurova/çelen eczanesi","direction":"https://www.google.com.tr/maps/dir/My+Location/37.0484161,35.294997"},{"lat":37.0545076,"lng":35.2759855,"name":"Çelik Eczanesi","address1":"Huzurevleri, Kurttepe Cd. 35 A, 01360 Çukurova/Adana, Turkey","address2":"adana/çukurova/çelik eczanesi","direction":"https://www.google.com.tr/maps/dir/My+Location/37.0545076,35.2759855"},{"lat":37.0598948,"lng":35.2806285,"name":"Cemre Eczanesi","address1":"Kurttepe, 83025. Sk. No:4 D:J, 01170 Çukurova/Adana, Turkey","address2":"adana/çukurova/cemre eczanesi","direction":"https://www.google.com.tr/maps/dir/My+Location/37.0598948,35.2806285"},{"lat":37.053089,"lng":35.244456,"name":"Çevikelli Eczanesi","address1":"Mahfesığmaz, 322 Sok. Tekart Sitesi 121. Blok D:1, 01170 Çukurova/Adana, Turkey","address2":"adana/çukurova/çevikelli eczanesi","direction":"https://www.google.com.tr/maps/dir/My+Location/37.053089,35.244456"},{"lat":37.0600501,"lng":35.2805331,"name":"Ceylan Eczanesi","address1":"Kurttepe mahallesi Çukurova Devlet Hastanesi Yanı Süleyman Demirel Bulv, Kurttepe, 83025. Sk. No:9, 01170 Çukurova/Adana, Turkey","address2":"adana/çukurova/ceylan eczanesi","direction":"https://www.google.com.tr/maps/dir/My+Location/37.0600501,35.2805331"},{"lat":37.035241,"lng":35.314105,"name":"Çolak Eczanesi","address1":"Güzelyalı, Turgut Özal Blv. Anıl Apt. D:10/B, 01170 Çukurova/Adana, Turkey","address2":"adana/çukurova/çolak eczanesi","direction":"https://www.google.com.tr/maps/dir/My+Location/37.035241,35.314105"},{"lat":37.0433774,"lng":35.2920416,"name":"Dedeoğlu Eczanesi","address1":"Mahfesığmaz, 78159 Sok. Yavuz Apt. No:11/D, 01170 Çukurova/Adana, Turkey","address2":"adana/çukurova/dedeoğlu eczanesi","direction":"https://www.google.com.tr/maps/dir/My+Location/37.0433774,35.2920416"},{"lat":37.049544,"lng":35.271714,"name":"Deniz Eczanesi","address1":"Huzurevleri, 154 Sok. Tümer Apt. A Blok No:21, 01330 Çukurova/Adana, Turkey","address2":"adana/çukurova/deniz eczanesi","direction":"https://www.google.com.tr/maps/dir/My+Location/37.049544,35.271714"},{"lat":37.0486848,"lng":35.2870526,"name":"Derya Can Eczanesi","address1":"Mahfesığmaz, Turgut Özal Bulv. Dosteller Apt., 01170 Çukurova/Adana, Turkey","address2":"adana/çukurova/derya can eczanesi","direction":"https://www.google.com.tr/maps/dir/My+Location/37.0486848,35.2870526"},{"lat":37.053356,"lng":35.2845158,"name":"Doğa Eczanesi","address1":"Güzelyalı, 136. Sokak, Aslan Ali Şenöz ASM Altı Şenöz Apt. Altı D:No.16/B, 01170 Çukurova/Adana, Turkey","address2":"adana/çukurova/doğa eczanesi","direction":"https://www.google.com.tr/maps/dir/My+Location/37.053356,35.2845158"},{"lat":37.0549085,"lng":35.2762367,"name":"Ebru Eczanesi","address1":"Yurt Mah., Süieyman Demirel Bulv. Kurttepe Cad. No:56, 01170 Seyhan/Çukurova/Adana, Turkey","address2":"adana/çukurova/ebru eczanesi","direction":"https://www.google.com.tr/maps/dir/My+Location/37.0549085,35.2762367"},{"lat":37.054227,"lng":35.273823,"name":"Ece Eczanesi","address1":"Kurttepe Mahallesi, Gündoğdu istikametine doğru 100mt, Kurttepe kavşağından,kurttepe postanesi yanı, Kurttepe, Süleyman Demirel Blv. No:96, 01170, 01170 Çukurova/Adana, Turkey","address2":"adana/çukurova/ece eczanesi","direction":"https://www.google.com.tr/maps/dir/My+Location/37.054227,35.273823"},{"lat":37.0517344,"lng":35.2544592,"name":"Ege Eczanesi","address1":"Belediye Evleri, Turgut Özal Blv. Panorama Evleri 281 B, 01360 Çukurova/Adana, Turkey","address2":"adana/çukurova/ege eczanesi","direction":"https://www.google.com.tr/maps/dir/My+Location/37.0517344,35.2544592"},{"lat":37.0293366,"lng":35.3001018,"name":"Emregün Eczanesi","address1":"Toros, Mavi Blv. 58\\A, 01170 Çukurova/Adana, Turkey","address2":"adana/çukurova/emregün eczanesi","direction":"https://www.google.com.tr/maps/dir/My+Location/37.0293366,35.3001018"},{"lat":37.045674,"lng":35.2638259,"name":"Erdinç Eczanesi","address1":"Belediye Evleri, 01360 Çukurova/Adana, Turkey","address2":"adana/çukurova/erdinç eczanesi","direction":"https://www.google.com.tr/maps/dir/My+Location/37.045674,35.2638259"},{"lat":37.0354049,"lng":35.3074414,"name":"Eren Eczanesi","address1":"Mahfesığmaz, Şehitler Blv 22 B, 01170 Çukurova/Adana, Turkey","address2":"adana/çukurova/eren eczanesi","direction":"https://www.google.com.tr/maps/dir/My+Location/37.0354049,35.3074414"},{"lat":37.0430328,"lng":35.2832945,"name":"Feyza Eczanesi","address1":"Huzurevleri, Alpaslan Türkeş Blv./77154 Sok. Alper Apt. No:1, 01330 Çukurova/Adana, Turkey","address2":"adana/çukurova/feyza eczanesi","direction":"https://www.google.com.tr/maps/dir/My+Location/37.0430328,35.2832945"},{"lat":37.0598217,"lng":35.2806528,"name":"Figen Eczanesi","address1":"Mahfesığmaz, 83025. Sok. 4/H, 01170 Çukurova/Adana, Turkey","address2":"adana/çukurova/figen eczanesi","direction":"https://www.google.com.tr/maps/dir/My+Location/37.0598217,35.2806528"},{"lat":37.0442419,"lng":35.3004965,"name":"Gökben Eczanesi","address1":"Toros, Şehitler Blv No:85, 01170 Çukurova/Adana, Turkey","address2":"adana/çukurova/gökben eczanesi","direction":"https://www.google.com.tr/maps/dir/My+Location/37.0442419,35.3004965"},{"lat":37.040194,"lng":35.314153,"name":"Gökçen Eczanesi","address1":"Mahfesığmaz, 79091. Sk., 01170 Çukurova/Adana, Turkey","address2":"adana/çukurova/gökçen eczanesi","direction":"https://www.google.com.tr/maps/dir/My+Location/37.040194,35.314153"},{"lat":37.040258,"lng":35.314533,"name":"Gökpınar Eczanesi","address1":"Mahfesığmaz, Turgut Özal Bulv. Bakırlar Apt. 65/B, 01170 Çukurova/Adana, Turkey","address2":"adana/çukurova/gökpınar eczanesi","direction":"https://www.google.com.tr/maps/dir/My+Location/37.040258,35.314533"},{"lat":37.0475699,"lng":35.2953855,"name":"Gül Eczanesi","address1":"Mahfesığmaz, 78182. Sok. No:3, 01170 Çukurova/Adana, Turkey","address2":"adana/çukurova/gül eczanesi","direction":"https://www.google.com.tr/maps/dir/My+Location/37.0475699,35.2953855"},{"lat":37.0347604,"lng":35.3074276,"name":"Gülen Eczanesi","address1":"Toros, Şehitler Blv 35/D, 01170 Çukurova/Adana, Turkey","address2":"adana/çukurova/gülen eczanesi","direction":"https://www.google.com.tr/maps/dir/My+Location/37.0347604,35.3074276"},{"lat":37.0121746,"lng":35.3787925,"name":"Gülin Eczanesi","address1":"555/A, Ptt, Kozan Cd., 01240 Yüreğir/Adana, Turkey","address2":"adana/yüreğir/gülin eczanesi","direction":"https://www.google.com.tr/maps/dir/My+Location/37.0121746,35.3787925"},{"lat":37.0484526,"lng":35.2967537,"name":"Gültekin Eczanesi","address1":"Güzelyalı, Turgut Özal Blv. 110/D, 01170 Çukurova/Adana, Turkey","address2":"adana/çukurova/gültekin eczanesi","direction":"https://www.google.com.tr/maps/dir/My+Location/37.0484526,35.2967537"},{"lat":37.0332432,"lng":35.2600404,"name":"Gündüz Eczanesi","address1":"Mahfesığmaz, 84028 Sok. No:23, 01170 Çukurova/Adana, Turkey","address2":"adana/çukurova/gündüz eczanesi","direction":"https://www.google.com.tr/maps/dir/My+Location/37.0332432,35.2600404"},{"lat":37.051886,"lng":35.254351,"name":"Gürkan Öztürk Eczanesi","address1":"Belediye Evleri Mah. Turgut Özal Bul. Panaroma Evleri A Blok No: 281/C, Belediye Evleri, Özel Medline Adana Hastanesi Karşısı, 01360 Çukurova/Adana, Turkey","address2":"adana/çukurova/gürkan öztürk eczanesi","direction":"https://www.google.com.tr/maps/dir/My+Location/37.051886,35.254351"},{"lat":37.0483243,"lng":35.2977881,"name":"Güzelyalı Eczanesi","address1":"Güzelyalı Mahallesi Turgut Özal Bulvari Emrah Apt. D:104/E, Güzelyalı, 01170 Çukurova/Adana, Turkey","address2":"adana/çukurova/güzelyalı eczanesi","direction":"https://www.google.com.tr/maps/dir/My+Location/37.0483243,35.2977881"},{"lat":37.040491,"lng":35.296848,"name":"Hayal Eczanesi","address1":"Hayal Park, Toros, 78114. Sk. No:1 D:sitesi a blok, 01170 Çukurova/Adana, Turkey","address2":"adana/çukurova/hayal eczanesi","direction":"https://www.google.com.tr/maps/dir/My+Location/37.040491,35.296848"},{"lat":37.036402,"lng":35.3015015,"name":"Kamer Eczanesi","address1":"Toros, 78084. Sk. No:18, 01170 Çukurova/Adana, Turkey","address2":"adana/çukurova/kamer eczanesi","direction":"https://www.google.com.tr/maps/dir/My+Location/37.036402,35.3015015"},{"lat":37.053745,"lng":35.2444651,"name":"Kara Eczanesi","address1":"100. Yıl. Mahallesi, 85253. Sk. Mektebim Koleji Karşısı No:3 D:126 Blok, 01170 Çukurova/Adana, Turkey","address2":"adana/çukurova/kara eczanesi","direction":"https://www.google.com.tr/maps/dir/My+Location/37.053745,35.2444651"},{"lat":37.032458,"lng":35.3155021,"name":"Kesilmez Eczanesi","address1":"Beyazevler, Adnan Kahveci Bulv. Sezgi Apt. No:30, 01170 Çukurova/Adana, Turkey","address2":"adana/çukurova/kesilmez eczanesi","direction":"https://www.google.com.tr/maps/dir/My+Location/37.032458,35.3155021"},{"lat":37.0479,"lng":35.2986271,"name":"Kıraç Eczanesi","address1":"Mahfesığmaz, Turgut Özal Buvl. Ata Sitesi 55/B, 01170 Çukurova/Adana, Turkey","address2":"adana/çukurova/kıraç eczanesi","direction":"https://www.google.com.tr/maps/dir/My+Location/37.0479,35.2986271"},{"lat":37.0452148,"lng":35.264386,"name":"Koray Eczanesi","address1":"Mahfesığmaz, 84171. Sok. Umut Apt. 3/C, 01170 Çukurova/Adana, Turkey","address2":"adana/çukurova/koray eczanesi","direction":"https://www.google.com.tr/maps/dir/My+Location/37.0452148,35.264386"},{"lat":37.047656,"lng":35.291619,"name":"Korkmaz Eczanesi","address1":"78192. Sk.,Toros,01170 Dörtler/Çukurova/Adana, Toros, 01170 ÇUKUROVA/Çukurova/Adana, Turkey","address2":"adana/çukurova/korkmaz eczanesi","direction":"https://www.google.com.tr/maps/dir/My+Location/37.047656,35.291619"},{"lat":37.050294,"lng":35.26365,"name":"Kubilay Eczanesi","address1":"Belediye Evleri, Turgut Özal Blv., 01170 Çukurova/Adana, Turkey","address2":"adana/çukurova/kubilay eczanesi","direction":"https://www.google.com.tr/maps/dir/My+Location/37.050294,35.26365"},{"lat":37.043515,"lng":35.283027,"name":"Küçükoğlu Eczanesi","address1":"Huzurevleri Mh., Alparslan Türkeş Bulvarı & 116. Sok. Akşen Apt. D:A Blok, No: 23, 01330 Çukurova/Adana, Turkey","address2":"adana/çukurova/küçükoğlu eczanesi","direction":"https://www.google.com.tr/maps/dir/My+Location/37.043515,35.283027"},{"lat":37.0552253,"lng":35.2753971,"name":"Kurttepe Eczanesi","address1":"Kurttepe, Süleyman Demirel Blv. No:1/D, 01170 Çukurova/Adana, Turkey","address2":"adana/çukurova/kurttepe eczanesi","direction":"https://www.google.com.tr/maps/dir/My+Location/37.0552253,35.2753971"},{"lat":37.0362956,"lng":35.3012694,"name":"Kutbek Topaloğlu Eczanesi","address1":"Toros, 01170 Çukurova/Adana, Turkey","address2":"adana/çukurova/kutbek topaloğlu eczanesi","direction":"https://www.google.com.tr/maps/dir/My+Location/37.0362956,35.3012694"},{"lat":37.048372,"lng":35.2894489,"name":"Mahfesığmaz Eczanesi","address1":"Toros, 01170 Çukurova/Adana, Turkey","address2":"adana/çukurova/mahfesığmaz eczanesi","direction":"https://www.google.com.tr/maps/dir/My+Location/37.048372,35.2894489"},{"lat":37.0293366,"lng":35.3001018,"name":"Mavi Bulvar Eczanesi","address1":"Toros, Mavi Blv. 58\\A, 01170 Çukurova/Adana, Turkey","address2":"adana/çukurova/mavi bulvar eczanesi","direction":"https://www.google.com.tr/maps/dir/My+Location/37.0293366,35.3001018"},{"lat":37.0502496,"lng":35.2638741,"name":"Melisa Eczanesi","address1":"Belediye Evleri, Turgut Özal Blv. 233 D, 01170 Çukurova/Adana, Turkey","address2":"adana/çukurova/melisa eczanesi","direction":"https://www.google.com.tr/maps/dir/My+Location/37.0502496,35.2638741"},{"lat":37.0468908,"lng":35.3032625,"name":"Mete Eczanesi","address1":"Güzelyalı, Turgut Özal Blv. 90/A, 01170 Çukurova/Adana, Turkey","address2":"adana/çukurova/mete eczanesi","direction":"https://www.google.com.tr/maps/dir/My+Location/37.0468908,35.3032625"},{"lat":37.0478057,"lng":35.2914329,"name":"Mügem Eczanesi","address1":"Toros, 78192. Sk., 01170 Çukurova/Adana, Turkey","address2":"adana/çukurova/mügem eczanesi","direction":"https://www.google.com.tr/maps/dir/My+Location/37.0478057,35.2914329"},{"lat":37.0458196,"lng":35.3062021,"name":"Necla Eczanesi","address1":"Mahfesığmaz, Turgut Özal Bulv. 109/B, 01170 Çukurova/Adana, Turkey","address2":"adana/çukurova/necla eczanesi","direction":"https://www.google.com.tr/maps/dir/My+Location/37.0458196,35.3062021"},{"lat":37.0351115,"lng":35.3168573,"name":"Nimet Eczanesi","address1":"Mahfesığmaz, 81022 Sok. Karanfil Apt. No:2, 01170 Çukurova/Adana, Turkey","address2":"adana/çukurova/nimet eczanesi","direction":"https://www.google.com.tr/maps/dir/My+Location/37.0351115,35.3168573"},{"lat":37.0599836,"lng":35.280614,"name":"Öğretmenoğlu Eczanesi","address1":"Mahfesığmaz, 83025 Sok. Poz İş Merkezi No:8, 01170 Çukurova/Adana, Turkey","address2":"adana/çukurova/öğretmenoğlu eczanesi","direction":"https://www.google.com.tr/maps/dir/My+Location/37.0599836,35.280614"},{"lat":37.041683,"lng":35.312724,"name":"Olgun Eczanesi","address1":"Mahfesığmaz, Polis Evi Kavşağı/79097 Sok. Kameroğlu Apt. No:3 D:1, 01170 Çukurova/Adana, Turkey","address2":"adana/çukurova/olgun eczanesi","direction":"https://www.google.com.tr/maps/dir/My+Location/37.041683,35.312724"},{"lat":37.044436,"lng":35.308211,"name":"Ozan Eczanesi","address1":"Mahfesığmaz, 79112. Sk. 6/A, 01170 Çukurova/Adana, Turkey","address2":"adana/çukurova/ozan eczanesi","direction":"https://www.google.com.tr/maps/dir/My+Location/37.044436,35.308211"},{"lat":37.0419959,"lng":35.3030853,"name":"Özbek Eczanesi","address1":"kenan evren bulvarı mahfesığmaz mahallesi, Rukiye hanım apt altı, 58/F, Mahfesığmaz, 01170 Çukurova/Adana, Turkey","address2":"adana/çukurova/özbek eczanesi","direction":"https://www.google.com.tr/maps/dir/My+Location/37.0419959,35.3030853"},{"lat":37.0413981,"lng":35.2522358,"name":"Özdemir Eczanesi","address1":"Yüzüncüyıl, 85112. Sk., 01170 Çukurova/Adana, Turkey","address2":"adana/çukurova/özdemir eczanesi","direction":"https://www.google.com.tr/maps/dir/My+Location/37.0413981,35.2522358"},{"lat":37.0481429,"lng":35.2869822,"name":"Özdeş Eczanesi","address1":"Zemin Kat, Toros, Turgut Özal Blv. Dağlik Apt. No:193, 01170 Çukurova/Adana, Turkey","address2":"adana/çukurova/özdeş eczanesi","direction":"https://www.google.com.tr/maps/dir/My+Location/37.0481429,35.2869822"},{"lat":37.0525241,"lng":35.2848098,"name":"Özgüden Eczanesi","address1":"Güzelyalı, 81206. Sk. 12 A, 01170 Çukurova/Adana, Turkey","address2":"adana/çukurova/özgüden eczanesi","direction":"https://www.google.com.tr/maps/dir/My+Location/37.0525241,35.2848098"},{"lat":37.0453802,"lng":35.307839,"name":"Parlak Eczanesi","address1":"Mahfesığmaz, Turgut Özal Blv. 109\\C, 01120 Çukurova/Adana, Turkey","address2":"adana/çukurova/parlak eczanesi","direction":"https://www.google.com.tr/maps/dir/My+Location/37.0453802,35.307839"},{"lat":37.0438109,"lng":35.2828973,"name":"Sağlık Eczanesi","address1":"Akşen Apt. 341/F D:Altı B Blok, Huzurevleri, 77155. Sk., 01360 Çukurova/Adana, Turkey","address2":"adana/çukurova/sağlık eczanesi","direction":"https://www.google.com.tr/maps/dir/My+Location/37.0438109,35.2828973"},{"lat":37.0530701,"lng":35.243865,"name":"Sarp Eczanesi","address1":"100.YIL MAHALLESİ 85253 SOKAK HANIMELİ APT ALTI NO NO, 3/B, Yüzüncüyıl, 01170 Çukurova/Adana, Turkey","address2":"adana/çukurova/sarp eczanesi","direction":"https://www.google.com.tr/maps/dir/My+Location/37.0530701,35.243865"},{"lat":37.033404,"lng":35.260843,"name":"Saygı Eczanesi","address1":"Belediye Evleri Mh, 84029. Sk. 3/e, 01360 Çukurova/Adana, Turkey","address2":"adana/çukurova/saygı eczanesi","direction":"https://www.google.com.tr/maps/dir/My+Location/37.033404,35.260843"},{"lat":37.0538505,"lng":35.2734128,"name":"Seda Olcar Eczanesi","address1":"Kurttepe, Süleyman Demirel Blv. No:98, 01170 Çukurova/Adana, Turkey","address2":"adana/çukurova/seda olcar eczanesi","direction":"https://www.google.com.tr/maps/dir/My+Location/37.0538505,35.2734128"},{"lat":37.0394226,"lng":35.2607019,"name":"Servet Eczanesi","address1":"Belediye Evleri, 84206. Sk. No:12 D:12, 01170 Çukurova/Adana, Turkey","address2":"adana/çukurova/servet eczanesi","direction":"https://www.google.com.tr/maps/dir/My+Location/37.0394226,35.2607019"},{"lat":37.0540083,"lng":35.2737441,"name":"Sevinçler Eczanesi","address1":"Kurttepe Mahallesi Süleyman Demirel Bulvarı, Kurttepe PTT ASM Yanı, Kurttepe, 98/E, 01170 Çukurova/Adana, Turkey","address2":"adana/çukurova/sevinçler eczanesi","direction":"https://www.google.com.tr/maps/dir/My+Location/37.0540083,35.2737441"},{"lat":37.0416775,"lng":35.3130259,"name":"Sinem Eczanesi","address1":"Mahfesığmaz, Turgut Özal Blv. 63 B, 01170 Çukurova/Adana, Turkey","address2":"adana/çukurova/sinem eczanesi","direction":"https://www.google.com.tr/maps/dir/My+Location/37.0416775,35.3130259"},{"lat":37.053137,"lng":35.273289,"name":"Şüheda Eczanesi","address1":"Reşatbey, Huzurevleri, Süleyman Demirel Blv. No:95/E, 01360 Çukurova/Adana, Turkey","address2":"adana/çukurova/şüheda eczanesi","direction":"https://www.google.com.tr/maps/dir/My+Location/37.053137,35.273289"},{"lat":37.053356,"lng":35.2845158,"name":"Taştepe Eczanesi","address1":"Güzelyalı, 136. Sokak, Aslan Ali Şenöz ASM Altı Şenöz Apt. Altı D:No.16/B, 01170 Çukurova/Adana, Turkey","address2":"adana/çukurova/taştepe eczanesi","direction":"https://www.google.com.tr/maps/dir/My+Location/37.053356,35.2845158"},{"lat":37.0426575,"lng":35.2597259,"name":"Tör Eczanesi","address1":"Belediye Evleri, 84206. Sk. No:24, 01170 Çukurova/Adana, Turkey","address2":"adana/çukurova/tör eczanesi","direction":"https://www.google.com.tr/maps/dir/My+Location/37.0426575,35.2597259"},{"lat":37.0320586,"lng":35.3123205,"name":"Tuba Eczanesi","address1":"Mahfesığmaz, Adnan Kahveci Blv. No:13, 01170 Çukurova/Adana, Turkey","address2":"adana/çukurova/tuba eczanesi","direction":"https://www.google.com.tr/maps/dir/My+Location/37.0320586,35.3123205"},{"lat":37.03237,"lng":35.315854,"name":"Turgut Eczanesi","address1":"Beyazevler, Adnan Kahveci Blv. 30 D, 01170 Çukurova/Adana, Turkey","address2":"adana/çukurova/turgut eczanesi","direction":"https://www.google.com.tr/maps/dir/My+Location/37.03237,35.315854"},{"lat":37.0392737,"lng":35.3031264,"name":"Uysal Eczanesi","address1":"Toros, Ali Sepici Blv., 01170 Çukurova/Adana, Turkey","address2":"adana/çukurova/uysal eczanesi","direction":"https://www.google.com.tr/maps/dir/My+Location/37.0392737,35.3031264"},{"lat":37.0364734,"lng":35.3018169,"name":"Yaşam Eczanesi","address1":"Toros, 78090. Sk. No:11, 01170 Çukurova/Adana, Turkey","address2":"adana/çukurova/yaşam eczanesi","direction":"https://www.google.com.tr/maps/dir/My+Location/37.0364734,35.3018169"},{"lat":37.04515,"lng":35.2972004,"name":"Yasemen Eczanesi","address1":"Toros, Ali Sepici Blv. 33 B, 01170 Çukurova/Adana, Turkey","address2":"adana/çukurova/yasemen eczanesi","direction":"https://www.google.com.tr/maps/dir/My+Location/37.04515,35.2972004"},{"lat":37.0352165,"lng":35.3170259,"name":"Yeni Hayat Eczanesi","address1":"Güzelyalı, 81022. Sk. Melahat Baltacı Apt D:5, 01170 Çukurova/Adana, Turkey","address2":"adana/çukurova/yeni hayat eczanesi","direction":"https://www.google.com.tr/maps/dir/My+Location/37.0352165,35.3170259"},{"lat":37.0367,"lng":35.3018909,"name":"Yeni Hediye Eczanesi","address1":"Toros, Şehitler Blv No:2, 01170 Çukurova/Adana, Turkey","address2":"adana/çukurova/yeni hediye eczanesi","direction":"https://www.google.com.tr/maps/dir/My+Location/37.0367,35.3018909"},{"lat":37.0365043,"lng":35.3018285,"name":"Yeni Toros Eczanesi","address1":"Toros Mahallesi, Toros, 78090. Sokak, Toros Muhtarlığı Karşısı Ulusoğlu 4 Apt. D:No. 11/A, 01170 Çukurova/Adana, Turkey","address2":"adana/çukurova/yeni toros eczanesi","direction":"https://www.google.com.tr/maps/dir/My+Location/37.0365043,35.3018285"},{"lat":37.0430069,"lng":35.2819988,"name":"Zerrin Eczanesi","address1":"Huzurevleri, 01330 Çukurova/Adana, Turkey","address2":"adana/çukurova/zerrin eczanesi","direction":"https://www.google.com.tr/maps/dir/My+Location/37.0430069,35.2819988"},{"lat":37.036075,"lng":35.2820125,"name":"Zeynep Eczanesi","address1":"Sitesi A Blok No:13/C, Metro, Huzurevleri, İsmet Atlı Blv., 01360 Seyhan/Adana, Turkey","address2":"adana/seyhan/zeynep eczanesi","direction":"https://www.google.com.tr/maps/dir/My+Location/37.036075,35.2820125"},{"lat":37.0426315,"lng":35.4136047,"name":"Atak Eczanesi","address1":"Yeşiltepe, Dilek Atlığ Cd. No:11, 01250 Sarıçam/Adana, Turkey","address2":"adana/sarıçam/atak eczanesi","direction":"https://www.google.com.tr/maps/dir/My+Location/37.0426315,35.4136047"},{"lat":37.0374795,"lng":35.4193799,"name":"Ayçam Eczanesi","address1":"Yavuz Sultan Selim, 13. Sk., 01250 Sarıçam/Adana, Turkey","address2":"adana/sarıçam/ayçam eczanesi","direction":"https://www.google.com.tr/maps/dir/My+Location/37.0374795,35.4193799"},{"lat":37.0334335,"lng":35.4105834,"name":"Bizim Eczanesi","address1":"Esentepe, 3002 SKK NO 12B, 01250 Sarıçam/Adana, Turkey","address2":"adana/sarıçam/bizim eczanesi","direction":"https://www.google.com.tr/maps/dir/My+Location/37.0334335,35.4105834"},{"lat":37.0415569,"lng":35.424769,"name":"Bozyiğit Eczanesi","address1":"Yavuz Sultan Selim, Sarıçam/Adana, Turkey","address2":"adana/sarıçam/bozyiğit eczanesi","direction":"https://www.google.com.tr/maps/dir/My+Location/37.0415569,35.424769"},{"lat":37.0150051,"lng":35.3895347,"name":"Çakır Eczanesi","address1":"Mehmet Akif Ersoy Mahallesi, Muhsin Yazıcıoğlu Caddesi, Mehmet Akif Ersoy, No:28/A Sarıçam (Mehmet Akif Ersoy ASM karşısı), 01250 Yüreğir/Sarıçam/Adana, Turkey","address2":"adana/sarıçam/çakır eczanesi","direction":"https://www.google.com.tr/maps/dir/My+Location/37.0150051,35.3895347"},{"lat":37.042873,"lng":35.430187,"name":"Efe Eczanesi","address1":"Tufanbeyli Cad. No:9/1 Buruk mezarlığı karşısı, Yavuz Sultan Selim, 01250 Sarıçam/Adana, Turkey","address2":"adana/sarıçam/efe eczanesi","direction":"https://www.google.com.tr/maps/dir/My+Location/37.042873,35.430187"},{"lat":37.0341333,"lng":35.4027664,"name":"Ekin Eczanesi","address1":"Gültepe, Fevzi Çakmak Cd No:1, 01250 Sarıçam/Adana, Turkey","address2":"adana/sarıçam/ekin eczanesi","direction":"https://www.google.com.tr/maps/dir/My+Location/37.0341333,35.4027664"},{"lat":37.026413,"lng":35.4021592,"name":"Erdi Eczanesi","address1":"Yıldırım Beyazıt Mahallesi, 3489. Sk. No:38, 01250 Sarıçam/Adana, Turkey","address2":"adana/sarıçam/erdi eczanesi","direction":"https://www.google.com.tr/maps/dir/My+Location/37.026413,35.4021592"},{"lat":37.034401,"lng":35.4033235,"name":"Gökhan Eczanesi","address1":"Yeşiltepe, Hatice Yavuz Caddesi No:1, 01170 Sarıçam/Adana, Turkey","address2":"adana/sarıçam/gökhan eczanesi","direction":"https://www.google.com.tr/maps/dir/My+Location/37.034401,35.4033235"},{"lat":37.0337951,"lng":35.4031733,"name":"Gültepe Eczanesi","address1":"Yeşiltepe, 2826. Sokak No:4, 01250 Sarıçam/Adana, Turkey","address2":"adana/sarıçam/gültepe eczanesi","direction":"https://www.google.com.tr/maps/dir/My+Location/37.0337951,35.4031733"},{"lat":37.0299403,"lng":35.4055264,"name":"Gündoğdu Eczanesi","address1":"Yeşiltepe, Kozan Yolu Üzeri Çatalan Yolu Kavşaği Sofulu Beldesi 5/E, 01250 Sarıçam/Adana, Turkey","address2":"adana/sarıçam/gündoğdu eczanesi","direction":"https://www.google.com.tr/maps/dir/My+Location/37.0299403,35.4055264"},{"lat":37.0362362,"lng":35.4200449,"name":"Kelebek Eczanesi","address1":"Orhangazi, 01000 Sarıçam/Adana, Turkey","address2":"adana/sarıçam/kelebek eczanesi","direction":"https://www.google.com.tr/maps/dir/My+Location/37.0362362,35.4200449"},{"lat":37.0273644,"lng":35.4017321,"name":"Kozan Sağlık Eczanesi","address1":"Yıldırım Beyazıt Mahallesi, Kozan Cd. No:755, 01250 Sarıçam/Adana, Turkey","address2":"adana/sarıçam/kozan sağlık eczanesi","direction":"https://www.google.com.tr/maps/dir/My+Location/37.0273644,35.4017321"},{"lat":37.0332416,"lng":35.4221283,"name":"Kozan Yeni Sağlık Eczanesi","address1":"Şahintepe, Adnan Kahveci Blv. No:12, 01250 Sarıçam/Adana, Turkey","address2":"adana/sarıçam/kozan yeni sağlık eczanesi","direction":"https://www.google.com.tr/maps/dir/My+Location/37.0332416,35.4221283"},{"lat":37.0156889,"lng":35.3892644,"name":"Melike Eczanesi","address1":"Mehmet Akif Ersoy Mh., Muhsin Yazıcıoğlu Caddesi No:25, 01250 Sarıçam/Adana, Turkey","address2":"adana/sarıçam/melike eczanesi","direction":"https://www.google.com.tr/maps/dir/My+Location/37.0156889,35.3892644"},{"lat":37.0334903,"lng":35.4105583,"name":"Neva Eczanesi","address1":"Esentepe Mahallesi, Sofu Dede Cd. No:22, 01250 Sarıçam/Adana, Turkey","address2":"adana/sarıçam/neva eczanesi","direction":"https://www.google.com.tr/maps/dir/My+Location/37.0334903,35.4105583"},{"lat":37.0149006,"lng":35.3896981,"name":"Yılmazcan Eczanesi","address1":"Mehmet Akif Ersoy Mh Muhsin Yazıcıoğlu Cad A Blk No: 30, Mehmet Akif Ersoy, 01250 Sarıçam/Adana, Turkey","address2":"adana/sarıçam/yılmazcan eczanesi","direction":"https://www.google.com.tr/maps/dir/My+Location/37.0149006,35.3896981"},{"lat":37.0326945,"lng":35.4098683,"name":"Zühal Cengiz Eczanesi","address1":"Yeşiltepe Mahallesi, Dilek Atlığ Cd. 9/A, 01410 Sarıçam/Adana, Turkey","address2":"adana/sarıçam/zühal cengiz eczanesi","direction":"https://www.google.com.tr/maps/dir/My+Location/37.0326945,35.4098683"},{"lat":37.028844,"lng":35.2685019,"name":"2000 Evler Eczanesi","address1":"2000 Evler, Bülent Ecevit Blv. No:19, 01200 Seyhan/Adana, Turkey","address2":"adana/seyhan/2000 evler eczanesi","direction":"https://www.google.com.tr/maps/dir/My+Location/37.028844,35.2685019"},{"lat":36.9863486,"lng":35.3271248,"name":"Abidinpaşa Eczanesi","address1":"Karasoku, Abidinpaşa Cd. 40/C, 01010 Seyhan/Adana, Turkey","address2":"adana/seyhan/abidinpaşa eczanesi","direction":"https://www.google.com.tr/maps/dir/My+Location/36.9863486,35.3271248"},{"lat":36.9960114,"lng":35.3138562,"name":"Acembekiroğlu Eczanesi","address1":"Döşeme, Emlakbank Evleri 60067. Sokak Melek Apt. D:No. 6/E, 01130 Seyhan/Adana, Turkey","address2":"adana/seyhan/acembekiroğlu eczanesi","direction":"https://www.google.com.tr/maps/dir/My+Location/36.9960114,35.3138562"},{"lat":37.017486,"lng":35.3214439,"name":"Adıyaman Eczanesi","address1":"Yenibaraj, 01140 Seyhan/Adana, Turkey","address2":"adana/seyhan/adıyaman eczanesi","direction":"https://www.google.com.tr/maps/dir/My+Location/37.017486,35.3214439"},{"lat":37.003229,"lng":35.3076509,"name":"Akan Eczanesi","address1":"Mithatpaşa, 58139. Sk. 1/A, 01130 Seyhan/Adana, Turkey","address2":"adana/seyhan/akan eczanesi","direction":"https://www.google.com.tr/maps/dir/My+Location/37.003229,35.3076509"},{"lat":37.000381,"lng":35.281955,"name":"Akçatekir Eczanesi","address1":"Demetevler, 53072. Sk., 01180 Seyhan/Adana, Turkey","address2":"adana/seyhan/akçatekir eczanesi","direction":"https://www.google.com.tr/maps/dir/My+Location/37.000381,35.281955"},{"lat":37.0228977,"lng":35.2740859,"name":"Akdağ Eczanesi","address1":"Gürselpaşa, 75380. Sk. no:9/A, 01200 Seyhan/Adana, Turkey","address2":"adana/seyhan/akdağ eczanesi","direction":"https://www.google.com.tr/maps/dir/My+Location/37.0228977,35.2740859"},{"lat":36.9999607,"lng":35.298949,"name":"Akgün Eczanesi","address1":"NARLICA MAHALLESİ ŞEHİT MEHMET ÖZEL CAD. NO 47 Seyhan / ADANA, SEYHAN, 01180 Seyhan/Adana, Turkey","address2":"adana/seyhan/akgün eczanesi","direction":"https://www.google.com.tr/maps/dir/My+Location/36.9999607,35.298949"},{"lat":36.9787603,"lng":35.2226728,"name":"Akpınar Eczanesi","address1":"Sarıhamzalı, 47014. Sk., 01110 Seyhan/Adana, Turkey","address2":"adana/seyhan/akpınar eczanesi","direction":"https://www.google.com.tr/maps/dir/My+Location/36.9787603,35.2226728"},{"lat":36.9874635,"lng":35.2706817,"name":"Aksa Eczanesi","address1":"Cumhuriyet Mahallesi, Onur Sk., 01080 Seyhan/Adana, Turkey","address2":"adana/seyhan/aksa eczanesi","direction":"https://www.google.com.tr/maps/dir/My+Location/36.9874635,35.2706817"},{"lat":36.9788716,"lng":35.3144251,"name":"Akşam Eczanesi","address1":"Kuruköprü Mah., Obalar Cad. 72/B, 01040 Seyhan/Adana, Turkey","address2":"adana/seyhan/akşam eczanesi","direction":"https://www.google.com.tr/maps/dir/My+Location/36.9788716,35.3144251"},{"lat":36.9724712,"lng":35.3281169,"name":"Aksoy Eczanesi","address1":"122/A, Yenibey, Emin Ağa Cd., 01020 Seyhan/Adana, Turkey","address2":"adana/seyhan/aksoy eczanesi","direction":"https://www.google.com.tr/maps/dir/My+Location/36.9724712,35.3281169"},{"lat":37.0182814,"lng":35.3125652,"name":"Aksöz Eczanesi","address1":"Denizli Mahallesi, Seyhan, şehit mehmet özer cad 122/b, 01130 Seyhan/Adana, Turkey","address2":"adana/seyhan/aksöz eczanesi","direction":"https://www.google.com.tr/maps/dir/My+Location/37.0182814,35.3125652"},{"lat":37.029127,"lng":35.356856,"name":"Alara Eczanesi","address1":"Kışla, Kışla TOKİ Konutları, 01370 Yüreğir/Adana, Turkey","address2":"adana/yüreğir/alara eczanesi","direction":"https://www.google.com.tr/maps/dir/My+Location/37.029127,35.356856"},{"lat":37.024986,"lng":35.3115619,"name":"Alper Eczanesi","address1":"Yeşilyurt, 01140 Seyhan/Adana, Turkey","address2":"adana/seyhan/alper eczanesi","direction":"https://www.google.com.tr/maps/dir/My+Location/37.024986,35.3115619"},{"lat":37.0236301,"lng":35.2813089,"name":"Arhan Eczanesi","address1":"PINAR MAH, SERAPARK SİTESİ D:6 BLOK, 01200 Seyhan/Adana, Turkey","address2":"adana/seyhan/arhan eczanesi","direction":"https://www.google.com.tr/maps/dir/My+Location/37.0236301,35.2813089"},{"lat":37.00739,"lng":35.3230769,"name":"Arı Eczanesi","address1":"Gazipaşa Mh., 01120 Seyhan/Adana, Turkey","address2":"adana/seyhan/arı eczanesi","direction":"https://www.google.com.tr/maps/dir/My+Location/37.00739,35.3230769"},{"lat":37.0223223,"lng":35.292687,"name":"Arıkan Eczanesi","address1":"Fatih, Mücahitler Cd. 289/A, 01160 Seyhan/Adana, Turkey","address2":"adana/seyhan/arıkan eczanesi","direction":"https://www.google.com.tr/maps/dir/My+Location/37.0223223,35.292687"},{"lat":37.019919,"lng":35.320136,"name":"Aslı Eczanesi","address1":"Yenibaraj, 01140 Seyhan/Adana, Turkey","address2":"adana/seyhan/aslı eczanesi","direction":"https://www.google.com.tr/maps/dir/My+Location/37.019919,35.320136"},{"lat":36.9858612,"lng":35.3214549,"name":"Atalı Eczanesi","address1":"Kocavezir, Pazarlar Cd. No:65, 01060 Seyhan/Adana, Turkey","address2":"adana/seyhan/atalı eczanesi","direction":"https://www.google.com.tr/maps/dir/My+Location/36.9858612,35.3214549"},{"lat":36.9874966,"lng":35.3156587,"name":"Aydın Eczanesi","address1":"Hurmalı, Bakımyurdu Cd. No:100, 01060 Seyhan/Adana, Turkey","address2":"adana/seyhan/aydın eczanesi","direction":"https://www.google.com.tr/maps/dir/My+Location/36.9874966,35.3156587"},{"lat":37.002978,"lng":35.272532,"name":"Aydınlar Eczanesi","address1":"Barış, 50082. Sk. No:10, 01190 Seyhan/Adana, Turkey","address2":"adana/seyhan/aydınlar eczanesi","direction":"https://www.google.com.tr/maps/dir/My+Location/37.002978,35.272532"},{"lat":37.0033915,"lng":35.3076757,"name":"Ayfer Eczanesi","address1":"Mithatpaşa, 58139. Sk. No:39, 01040 Seyhan/Adana, Turkey","address2":"adana/seyhan/ayfer eczanesi","direction":"https://www.google.com.tr/maps/dir/My+Location/37.0033915,35.3076757"},{"lat":37.02286,"lng":35.2939578,"name":"Ayhan Eczanesi","address1":"Tellidere, 72083 Sok. No:22, 01160 Seyhan/Adana, Turkey","address2":"adana/seyhan/ayhan eczanesi","direction":"https://www.google.com.tr/maps/dir/My+Location/37.02286,35.2939578"},{"lat":36.9984618,"lng":35.3265847,"name":"Ayşegül Eczanesi","address1":"Reşatbey, 01120 Seyhan/Adana, Turkey","address2":"adana/seyhan/ayşegül eczanesi","direction":"https://www.google.com.tr/maps/dir/My+Location/36.9984618,35.3265847"},{"lat":36.996057,"lng":35.313952,"name":"Badem Eczanesi","address1":"Döşeme, 60067. Sk. No:6, 01130 Seyhan/Adana, Turkey","address2":"adana/seyhan/badem eczanesi","direction":"https://www.google.com.tr/maps/dir/My+Location/36.996057,35.313952"},{"lat":36.9835827,"lng":35.309971,"name":"Bahar Eczanesi","address1":"Meydan Mah, Meydan Cd. No: 44/A, 01070 Seyhan/Adana, Turkey","address2":"adana/seyhan/bahar eczanesi","direction":"https://www.google.com.tr/maps/dir/My+Location/36.9835827,35.309971"},{"lat":36.9618053,"lng":35.304946,"name":"Baraj Eczanesi","address1":"Akkapı, Şıh Cemil Cd. 180/A, 01040 Seyhan/Adana, Turkey","address2":"adana/seyhan/baraj eczanesi","direction":"https://www.google.com.tr/maps/dir/My+Location/36.9618053,35.304946"},{"lat":36.965515,"lng":35.324761,"name":"Barbaros Eczanesi","address1":"Barbaros, 17102. Sk. 82/A, 01030 Seyhan/Adana, Turkey","address2":"adana/seyhan/barbaros eczanesi","direction":"https://www.google.com.tr/maps/dir/My+Location/36.965515,35.324761"},{"lat":37.0240813,"lng":35.3127442,"name":"Başarı Eczanesi","address1":"Reşatbey Mahallesi, İbo Osman Cad. 165/A, 01120 Seyhan/Adana, Turkey","address2":"adana/seyhan/başarı eczanesi","direction":"https://www.google.com.tr/maps/dir/My+Location/37.0240813,35.3127442"},{"lat":37.016742,"lng":35.3216583,"name":"Başkent Eczanesi","address1":"Yenibaraj, 01140 Seyhan/Adana, Turkey","address2":"adana/seyhan/başkent eczanesi","direction":"https://www.google.com.tr/maps/dir/My+Location/37.016742,35.3216583"},{"lat":36.9874149,"lng":35.2528902,"name":"Bayram Eczanesi","address1":"Yeşiloba, 46087. Sk. No:2, 01100 Seyhan/Adana, Turkey","address2":"adana/seyhan/bayram eczanesi","direction":"https://www.google.com.tr/maps/dir/My+Location/36.9874149,35.2528902"},{"lat":36.994059,"lng":35.3253871,"name":"Belde Eczanesi","address1":"Reşatbey Mahallesi, Atatürk Cd. No:14/D, 01120 Seyhan/Adana, Turkey","address2":"adana/seyhan/belde eczanesi","direction":"https://www.google.com.tr/maps/dir/My+Location/36.994059,35.3253871"},{"lat":36.9757338,"lng":35.2869635,"name":"Berdan Eczanesi","address1":"Gülbahçesi, Obalar Cd. 585/B, 01050 Seyhan/Adana, Turkey","address2":"adana/seyhan/berdan eczanesi","direction":"https://www.google.com.tr/maps/dir/My+Location/36.9757338,35.2869635"},{"lat":36.9734899,"lng":35.306257,"name":"Berfin Eczanesi","address1":"Dağlıoğlu Karakol ve Sağlık Ocağı karşısı Bahçelievler Caddesi No: 258, Gülbahçesi, 01040 Seyhan/Adana, Turkey","address2":"adana/seyhan/berfin eczanesi","direction":"https://www.google.com.tr/maps/dir/My+Location/36.9734899,35.306257"},{"lat":37.0034642,"lng":35.2880845,"name":"Bilge Eczanesi","address1":"Bahçelievler, Mehmet Akif Ersoy Cd. No:74, 01190 Seyhan/Adana, Turkey","address2":"adana/seyhan/bilge eczanesi","direction":"https://www.google.com.tr/maps/dir/My+Location/37.0034642,35.2880845"},{"lat":36.9872077,"lng":35.3097202,"name":"Bilgehan Eczanesi","address1":"İstiklal, Bakımyurdu Cd. No:168, 01060 Seyhan/Adana, Turkey","address2":"adana/seyhan/bilgehan eczanesi","direction":"https://www.google.com.tr/maps/dir/My+Location/36.9872077,35.3097202"},{"lat":37.0182955,"lng":35.3177264,"name":"Birlik Eczanesi","address1":"Yenibaraj, 68019. Sk. No:1, 01150 Seyhan/Adana, Turkey","address2":"adana/seyhan/birlik eczanesi","direction":"https://www.google.com.tr/maps/dir/My+Location/37.0182955,35.3177264"},{"lat":36.9976278,"lng":35.3267404,"name":"Buğra Eczanesi","address1":"Reşatbey, Gazipaşa Blv. No:1, 01120 Seyhan/Adana, Turkey","address2":"adana/seyhan/buğra eczanesi","direction":"https://www.google.com.tr/maps/dir/My+Location/36.9976278,35.3267404"},{"lat":36.9746892,"lng":35.3291482,"name":"Bulut Eczanesi","address1":"Yenibey Mahallesi, Seyhan, Emin Ağa Caddesi, 01020 Seyhan/Adana, Turkey","address2":"adana/seyhan/bulut eczanesi","direction":"https://www.google.com.tr/maps/dir/My+Location/36.9746892,35.3291482"},{"lat":37.018735,"lng":35.3207948,"name":"Burçin Eczanesi","address1":"Yenibaraj, 68024. Sk. No:18, 01140 Seyhan/Adana, Turkey","address2":"adana/seyhan/burçin eczanesi","direction":"https://www.google.com.tr/maps/dir/My+Location/37.018735,35.3207948"},{"lat":37.018797,"lng":35.3205749,"name":"Burcu Eczanesi","address1":"Yenibaraj, 68024. Sk. No:18, 01140 Seyhan/Adana, Turkey","address2":"adana/seyhan/burcu eczanesi","direction":"https://www.google.com.tr/maps/dir/My+Location/37.018797,35.3205749"},{"lat":36.998779,"lng":35.3230282,"name":"Burcum Eczanesi","address1":"Kurtuluş, 01120 Seyhan/Adana, Turkey","address2":"adana/seyhan/burcum eczanesi","direction":"https://www.google.com.tr/maps/dir/My+Location/36.998779,35.3230282"},{"lat":36.9801506,"lng":35.323664,"name":"Büyük Eczanesi","address1":"Sucuzade Mahallesi, 30043 Sokak, Televi Sağlık Ocağı Yanı No:11, 01030 Seyhan/Adana, Turkey","address2":"adana/seyhan/büyük eczanesi","direction":"https://www.google.com.tr/maps/dir/My+Location/36.9801506,35.323664"},{"lat":36.9881239,"lng":35.2750372,"name":"Çağdaş Eczanesi","address1":"Ömür Tıp Merkezi Karşısı 10/A, Şakirpaşa, Onur Cd., 01080 Seyhan/Adana, Turkey","address2":"adana/seyhan/çağdaş eczanesi","direction":"https://www.google.com.tr/maps/dir/My+Location/36.9881239,35.2750372"},{"lat":37.013137,"lng":35.2798811,"name":"Çağlayan Eczanesi","address1":"Gürselpaşa, 75001. Sk. No:6, 01200 Seyhan/Adana, Turkey","address2":"adana/seyhan/çağlayan eczanesi","direction":"https://www.google.com.tr/maps/dir/My+Location/37.013137,35.2798811"},{"lat":36.9945461,"lng":35.3269716,"name":"Can Eczanesi","address1":"Reşatbey, 62003. Sk., 01120 Seyhan/Adana, Turkey","address2":"adana/seyhan/can eczanesi","direction":"https://www.google.com.tr/maps/dir/My+Location/36.9945461,35.3269716"},{"lat":36.9614776,"lng":35.304622,"name":"Çare Eczanesi","address1":"Akkapı, Şıh Cemil Cd. No:189 D:A, 01040 Seyhan/Adana, Turkey","address2":"adana/seyhan/çare eczanesi","direction":"https://www.google.com.tr/maps/dir/My+Location/36.9614776,35.304622"},{"lat":36.977212,"lng":35.327799,"name":"Cihan Eczanesi","address1":"Hürriyet, 20047. Sk. No:3, 01020 Seyhan/Adana, Turkey","address2":"adana/seyhan/cihan eczanesi","direction":"https://www.google.com.tr/maps/dir/My+Location/36.977212,35.327799"},{"lat":37.0000794,"lng":35.2993023,"name":"Çınar Eczanesi","address1":"Denizli Mahallesi Şehit Mehmet, Denizli, Özel Cad No:60, 01130 Seyhan/Adana, Turkey","address2":"adana/seyhan/çınar eczanesi","direction":"https://www.google.com.tr/maps/dir/My+Location/37.0000794,35.2993023"},{"lat":36.981985,"lng":35.3028218,"name":"Çukurova Eczanesi","address1":"Dumlupınar, Kıbrıs Cd. No:16, 01070 Seyhan/Adana, Turkey","address2":"adana/seyhan/çukurova eczanesi","direction":"https://www.google.com.tr/maps/dir/My+Location/36.981985,35.3028218"},{"lat":37.0287725,"lng":35.302891,"name":"Cumhuriyet Eczanesi","address1":"Yeşilyurt, Mavi Blv., Seyhan/Adana, Turkey","address2":"adana/seyhan/cumhuriyet eczanesi","direction":"https://www.google.com.tr/maps/dir/My+Location/37.0287725,35.302891"},{"lat":36.9734285,"lng":35.3061281,"name":"Dağlıoğlu Eczanesi","address1":"Gülbahçesi, Bahçelievler Cd. No:260, 01050 Seyhan/Adana, Turkey","address2":"adana/seyhan/dağlıoğlu eczanesi","direction":"https://www.google.com.tr/maps/dir/My+Location/36.9734285,35.3061281"},{"lat":37.0177755,"lng":35.2883313,"name":"Dalkıran Eczanesi","address1":"Pınar, 74175 Sokak Biricik Apt. D:A Blok, No. 19/4, 01160 Seyhan/Adana, Turkey","address2":"adana/seyhan/dalkıran eczanesi","direction":"https://www.google.com.tr/maps/dir/My+Location/37.0177755,35.2883313"},{"lat":37.0149204,"lng":35.3224392,"name":"Damla Eczanesi","address1":"Ziyapaşa, Baraj Cd. 100/A, 01140 Seyhan/Adana, Turkey","address2":"adana/seyhan/damla eczanesi","direction":"https://www.google.com.tr/maps/dir/My+Location/37.0149204,35.3224392"},{"lat":37.0008219,"lng":35.3277681,"name":"Defne Eczanesi","address1":"Cemalpaşa, Bahar Cd. No:40, 01120 Seyhan/Adana, Turkey","address2":"adana/seyhan/defne eczanesi","direction":"https://www.google.com.tr/maps/dir/My+Location/37.0008219,35.3277681"},{"lat":37.0205785,"lng":35.3117271,"name":"Derman Eczanesi","address1":"Yeşilyurt, İbo Osman Cad./70154 Sok. No:15/A, 01150 Seyhan/Adana, Turkey","address2":"adana/seyhan/derman eczanesi","direction":"https://www.google.com.tr/maps/dir/My+Location/37.0205785,35.3117271"},{"lat":36.9848059,"lng":35.3249364,"name":"Deva Eczanesi","address1":"Karasoku, Saydam Cd. No:79, 01010 Seyhan/Adana, Turkey","address2":"adana/seyhan/deva eczanesi","direction":"https://www.google.com.tr/maps/dir/My+Location/36.9848059,35.3249364"},{"lat":36.9797566,"lng":35.3236939,"name":"Didem Eczanesi","address1":"Sucuzade, 30043. Sk., 01030 Seyhan/Adana, Turkey","address2":"adana/seyhan/didem eczanesi","direction":"https://www.google.com.tr/maps/dir/My+Location/36.9797566,35.3236939"},{"lat":37.0000288,"lng":35.3224683,"name":"Dilek Eczanesi","address1":"Kurtuluş Mh, 64019. Sk. Gülbahçesi Sitesi No:27/B D:C Blok, 01120 Seyhan/Adana, Turkey","address2":"adana/seyhan/dilek eczanesi","direction":"https://www.google.com.tr/maps/dir/My+Location/37.0000288,35.3224683"},{"lat":36.96556,"lng":35.3249525,"name":"Diyar Eczanesi","address1":"Barbaros, 17102. Sk., 01030 Seyhan/Adana, Turkey","address2":"adana/seyhan/diyar eczanesi","direction":"https://www.google.com.tr/maps/dir/My+Location/36.96556,35.3249525"},{"lat":37.019865,"lng":35.315956,"name":"Doğancem Eczanesi","address1":"Sümer, Bülent Angın Blv. No:69 D:207, 01140 Seyhan/Adana, Turkey","address2":"adana/seyhan/doğancem eczanesi","direction":"https://www.google.com.tr/maps/dir/My+Location/37.019865,35.315956"},{"lat":36.9874723,"lng":35.317152,"name":"Doğumevi Eczanesi","address1":"Yeşilyuva, Bakımyurdu Cd. No:83, 01060 Seyhan/Adana, Turkey","address2":"adana/seyhan/doğumevi eczanesi","direction":"https://www.google.com.tr/maps/dir/My+Location/36.9874723,35.317152"},{"lat":36.9874787,"lng":35.3153217,"name":"Doğuş Eczanesi","address1":"Hurmalı, Bakımyurdu Cd. No:94, 01060 Seyhan/Adana, Turkey","address2":"adana/seyhan/doğuş eczanesi","direction":"https://www.google.com.tr/maps/dir/My+Location/36.9874787,35.3153217"},{"lat":36.982743,"lng":35.30295,"name":"Dumlupınar Eczanesi","address1":"Dumlupınar, Kıbrıs Cd., 01070 Seyhan/Adana, Turkey","address2":"adana/seyhan/dumlupınar eczanesi","direction":"https://www.google.com.tr/maps/dir/My+Location/36.982743,35.30295"},{"lat":37.0010256,"lng":35.3149707,"name":"Duran Eczanesi","address1":"Seyhan, Mücahitler Bulvarı Altuğ Apt. D:16/A, 01120 Seyhan/Adana, Turkey","address2":"adana/seyhan/duran eczanesi","direction":"https://www.google.com.tr/maps/dir/My+Location/37.0010256,35.3149707"},{"lat":37.013639,"lng":35.303078,"name":"Duygum Eczanesi","address1":"Fatih, Mücahitler Cd. 135/A, 01160 Seyhan/Adana, Turkey","address2":"adana/seyhan/duygum eczanesi","direction":"https://www.google.com.tr/maps/dir/My+Location/37.013639,35.303078"},{"lat":37.014295,"lng":35.324702,"name":"Ekrem Eczanesi","address1":"Ziyapaşa, 67055. Sokak & Cemalpaşa Bulvarı 5/6, 01140 Seyhan/Adana, Turkey","address2":"adana/seyhan/ekrem eczanesi","direction":"https://www.google.com.tr/maps/dir/My+Location/37.014295,35.324702"},{"lat":36.9902617,"lng":35.3050452,"name":"Emek Eczanesi","address1":"Emek, Emek Cad., 41005 Sokak Koza Yemekçilik Yenı 2/A, 01080 Seyhan/Adana, Turkey","address2":"adana/seyhan/emek eczanesi","direction":"https://www.google.com.tr/maps/dir/My+Location/36.9902617,35.3050452"},{"lat":36.9862117,"lng":35.3246126,"name":"Emel Eczanesi","address1":"Kocavezir, Pazarlar Cd. No:14, 01060 Seyhan/Adana, Turkey","address2":"adana/seyhan/emel eczanesi","direction":"https://www.google.com.tr/maps/dir/My+Location/36.9862117,35.3246126"},{"lat":36.999962,"lng":35.270268,"name":"Emin Eczanesi","address1":"vefa caddesi 48094 sokak no:179, Fevzipaşa, 01190 seyhan/Seyhan/Adana, Turkey","address2":"adana/seyhan/emin eczanesi","direction":"https://www.google.com.tr/maps/dir/My+Location/36.999962,35.270268"},{"lat":36.9733668,"lng":35.3059313,"name":"Erdoğan Eczanesi","address1":"Gülbahçesi, Bahçelievler Cd. 262/A, 01050 Seyhan/Adana, Turkey","address2":"adana/seyhan/erdoğan eczanesi","direction":"https://www.google.com.tr/maps/dir/My+Location/36.9733668,35.3059313"},{"lat":36.991738,"lng":35.2862572,"name":"Erkan Eczanesi","address1":"Şakirpaşa, 42011. Sk. No:9, 01080 Seyhan/Adana, Turkey","address2":"adana/seyhan/erkan eczanesi","direction":"https://www.google.com.tr/maps/dir/My+Location/36.991738,35.2862572"},{"lat":36.9874854,"lng":35.3148795,"name":"Eroğlu Eczanesi","address1":"İstiklal, Bakımyurdu Cd. 96/C, 01060 Seyhan/Adana, Turkey","address2":"adana/seyhan/eroğlu eczanesi","direction":"https://www.google.com.tr/maps/dir/My+Location/36.9874854,35.3148795"},{"lat":36.9900925,"lng":35.3196545,"name":"Ersalan Eczanesi","address1":"Hurmalı, Kurtuluş Cd. No:25, 01060 Seyhan/Adana, Turkey","address2":"adana/seyhan/ersalan eczanesi","direction":"https://www.google.com.tr/maps/dir/My+Location/36.9900925,35.3196545"},{"lat":36.9982888,"lng":35.3266062,"name":"Ersoylar Eczanesi","address1":"Reşatbey, Stadyum Cd 51 A, 01120 Seyhan/Adana, Turkey","address2":"adana/seyhan/ersoylar eczanesi","direction":"https://www.google.com.tr/maps/dir/My+Location/36.9982888,35.3266062"},{"lat":36.9873365,"lng":35.3049734,"name":"Ertürk Eczanesi","address1":"Meydan, Emek Sk. No:269, 01070 Seyhan/Adana, Turkey","address2":"adana/seyhan/ertürk eczanesi","direction":"https://www.google.com.tr/maps/dir/My+Location/36.9873365,35.3049734"},{"lat":36.9835122,"lng":35.309984,"name":"Esin Eczanesi","address1":"Meydan, Meydan Cd. No:42, 01070 Seyhan/Adana, Turkey","address2":"adana/seyhan/esin eczanesi","direction":"https://www.google.com.tr/maps/dir/My+Location/36.9835122,35.309984"},{"lat":36.999448,"lng":35.326416,"name":"Esin Kıraç Eczanesi","address1":"Seyhan, 18. Sk, 01120 Yüreğir/Adana, Turkey","address2":"adana/yüreğir/esin kıraç eczanesi","direction":"https://www.google.com.tr/maps/dir/My+Location/36.999448,35.326416"},{"lat":36.9722694,"lng":35.3279972,"name":"Evgin Eczanesi","address1":"128/A, Yenibey, Emin Ağa Cd., 01230 Seyhan/Adana, Turkey","address2":"adana/seyhan/evgin eczanesi","direction":"https://www.google.com.tr/maps/dir/My+Location/36.9722694,35.3279972"},{"lat":37.01331,"lng":35.294954,"name":"Fatih Eczanesi","address1":"Fatih, 73123. Sk. No:7, 01160 Seyhan/Adana, Turkey","address2":"adana/seyhan/fatih eczanesi","direction":"https://www.google.com.tr/maps/dir/My+Location/37.01331,35.294954"},{"lat":36.9958896,"lng":35.3251625,"name":"Fehiman Eczanesi","address1":"Reşatbey, Atatürk Cd. No:40, 01120 Seyhan/Adana, Turkey","address2":"adana/seyhan/fehiman eczanesi","direction":"https://www.google.com.tr/maps/dir/My+Location/36.9958896,35.3251625"},{"lat":37.001242,"lng":35.262411,"name":"Fevzipaşa Eczanesi","address1":"Fevzipaşa, Vefa Cad. No:171/A, 01190 Seyhan/Adana, Turkey","address2":"adana/seyhan/fevzipaşa eczanesi","direction":"https://www.google.com.tr/maps/dir/My+Location/37.001242,35.262411"},{"lat":36.9824164,"lng":35.3028924,"name":"Fikir Eczanesi","address1":"Dumlupınar, Kıbrıs Cd. 81/B, 01070 Seyhan/Adana, Turkey","address2":"adana/seyhan/fikir eczanesi","direction":"https://www.google.com.tr/maps/dir/My+Location/36.9824164,35.3028924"},{"lat":37.0005928,"lng":35.3154574,"name":"Fulya Akgün Eczanesi","address1":"Kurtuluş, Mücahitler Cd. No:90, 01130 Seyhan/Adana, Turkey","address2":"adana/seyhan/fulya akgün eczanesi","direction":"https://www.google.com.tr/maps/dir/My+Location/37.0005928,35.3154574"},{"lat":36.951249,"lng":35.3148779,"name":"Galen Eczanesi","address1":"Mıdık, Hasan Balıkçı Blv. No:241, 01030 Seyhan/Adana, Turkey","address2":"adana/seyhan/galen eczanesi","direction":"https://www.google.com.tr/maps/dir/My+Location/36.951249,35.3148779"},{"lat":36.998206,"lng":35.330811,"name":"Gazipaşa Eczanesi","address1":"Seyhan, Stadyum Cad. Baykal Apt. 21/B, 01120 Seyhan/Adana, Turkey","address2":"adana/seyhan/gazipaşa eczanesi","direction":"https://www.google.com.tr/maps/dir/My+Location/36.998206,35.330811"},{"lat":37.0017195,"lng":35.3230238,"name":"Gizem Eczanesi","address1":"Atatürk Cd. & 64020. Sk., Kurtuluş, 01130 Seyhan/Adana, Turkey","address2":"adana/seyhan/gizem eczanesi","direction":"https://www.google.com.tr/maps/dir/My+Location/37.0017195,35.3230238"},{"lat":36.9698566,"lng":35.3077848,"name":"Gökçe Eczanesi","address1":"Akkapı, 12042. Sk. 43/B, 01040 Seyhan/Adana, Turkey","address2":"adana/seyhan/gökçe eczanesi","direction":"https://www.google.com.tr/maps/dir/My+Location/36.9698566,35.3077848"},{"lat":37.0289101,"lng":35.2675583,"name":"Gözü Eczanesi","address1":"2000 Evler, 76023. Sk. 3-2, 01200 Seyhan/Adana, Turkey","address2":"adana/seyhan/gözü eczanesi","direction":"https://www.google.com.tr/maps/dir/My+Location/37.0289101,35.2675583"},{"lat":37.0149469,"lng":35.3217447,"name":"Gülaçtı Eczanesi","address1":"Sümer Mahallesi 69126 Sokak Dotaşapt. No:8/c Seyhan, Sümer, Hastaneler Kavşağı Yapıkredi Bank Arkası Sümer Asm Yanı, 01140 Seyhan/Adana, Turkey","address2":"adana/seyhan/gülaçtı eczanesi","direction":"https://www.google.com.tr/maps/dir/My+Location/37.0149469,35.3217447"},{"lat":36.987433,"lng":35.272334,"name":"Gülbahar Eczanesi","address1":"Ova, Şakirpaşa Cd. 157/A, 01080 Seyhan/Adana, Turkey","address2":"adana/seyhan/gülbahar eczanesi","direction":"https://www.google.com.tr/maps/dir/My+Location/36.987433,35.272334"},{"lat":37.0182906,"lng":35.3211874,"name":"Gülhane Eczanesi","address1":"HASTANELER CADDESİ ESKİ ASKERİ HASTANE KARŞISI, Yenibaraj, 01140 Seyhan/Adana, Turkey","address2":"adana/seyhan/gülhane eczanesi","direction":"https://www.google.com.tr/maps/dir/My+Location/37.0182906,35.3211874"},{"lat":36.983365,"lng":35.309827,"name":"Gülpınar Eczanesi","address1":"Gülpınar, Meydan Cd. No:17, 01070 Seyhan/Adana, Turkey","address2":"adana/seyhan/gülpınar eczanesi","direction":"https://www.google.com.tr/maps/dir/My+Location/36.983365,35.309827"},{"lat":37.0207304,"lng":35.3198726,"name":"Gülşah Eczanesi","address1":"Yenibaraj, Hacı Ömer Sabancı Cd SSK Acil Karşısı 24/D, 01150 Seyhan/Adana, Turkey","address2":"adana/seyhan/gülşah eczanesi","direction":"https://www.google.com.tr/maps/dir/My+Location/37.0207304,35.3198726"},{"lat":36.9872353,"lng":35.3083211,"name":"Gülşen Eczanesi","address1":"Meydan, Bakımyurdu Cd. No:142, 01070 Seyhan/Adana, Turkey","address2":"adana/seyhan/gülşen eczanesi","direction":"https://www.google.com.tr/maps/dir/My+Location/36.9872353,35.3083211"},{"lat":37.01548,"lng":35.321327,"name":"Güneş Eczanesi","address1":"Adana, Seyhan, Sümer mah. Baraj cad. 85 / A - Hastaneler Kavşağı, 01140 Seyhan/Adana, Turkey","address2":"adana/seyhan/güneş eczanesi","direction":"https://www.google.com.tr/maps/dir/My+Location/37.01548,35.321327"},{"lat":37.0279949,"lng":35.2998425,"name":"Güzide Eczanesi","address1":"Yeşilyurt, 71229. Sk. 3/1A, 01150 Seyhan/Adana, Turkey","address2":"adana/seyhan/güzide eczanesi","direction":"https://www.google.com.tr/maps/dir/My+Location/37.0279949,35.2998425"},{"lat":37.01441,"lng":35.3248469,"name":"Hacettepe Eczanesi","address1":"ZİYAPAŞA MAH. 67055 SK. GÖRKEM APT. B BLOK NO 4/A, Ziyapaşa, 01140 Seyhan/Adana, Turkey","address2":"adana/seyhan/hacettepe eczanesi","direction":"https://www.google.com.tr/maps/dir/My+Location/37.01441,35.3248469"},{"lat":36.9872111,"lng":35.3077498,"name":"Handenaz Eczanesi","address1":"Meydan, Bakımyurdu Cd. 163/C D:163/C, 01070 Seyhan/Adana, Turkey","address2":"adana/seyhan/handenaz eczanesi","direction":"https://www.google.com.tr/maps/dir/My+Location/36.9872111,35.3077498"},{"lat":36.971607,"lng":35.3192771,"name":"Havuzlubahçe Eczanesi","address1":"Bey, Şht. Astğm. Kemal Yüzgeç Blv. No:5 D:A, 01030 Seyhan/Adana, Turkey","address2":"adana/seyhan/havuzlubahçe eczanesi","direction":"https://www.google.com.tr/maps/dir/My+Location/36.971607,35.3192771"},{"lat":37.002546,"lng":35.272054,"name":"Havva Eczanesi","address1":"Barış, 50030 Sokak 6/A, 01190 Seyhan/Adana, Turkey","address2":"adana/seyhan/havva eczanesi","direction":"https://www.google.com.tr/maps/dir/My+Location/37.002546,35.272054"},{"lat":37.0133688,"lng":35.2941004,"name":"Haziran Eczanesi","address1":"Fatih, 73123. Sk., 01160 Seyhan/Adana, Turkey","address2":"adana/seyhan/haziran eczanesi","direction":"https://www.google.com.tr/maps/dir/My+Location/37.0133688,35.2941004"},{"lat":36.97097,"lng":35.3083622,"name":"Hekimoğlu Eczanesi","address1":"Dağlıoğlu, 14088. Sk. No:18 D:C, 01040 Seyhan/Adana, Turkey","address2":"adana/seyhan/hekimoğlu eczanesi","direction":"https://www.google.com.tr/maps/dir/My+Location/36.97097,35.3083622"},{"lat":36.9981301,"lng":35.3206263,"name":"Huzur Eczanesi","address1":"Kurtuluş, 01120 Seyhan/Adana, Turkey","address2":"adana/seyhan/huzur eczanesi","direction":"https://www.google.com.tr/maps/dir/My+Location/36.9981301,35.3206263"},{"lat":37.0096317,"lng":35.3240529,"name":"Ihlamur Eczanesi","address1":"Ziyapaşa, 67087. Sk. 1/C, 01140 Seyhan/Adana, Turkey","address2":"adana/seyhan/ihlamur eczanesi","direction":"https://www.google.com.tr/maps/dir/My+Location/37.0096317,35.3240529"},{"lat":37.0205574,"lng":35.3199292,"name":"İhtisas Eczanesi","address1":"Yenibaraj, Hacı Ömer Sabancı Cd 24/A, 01150 Seyhan/Adana, Turkey","address2":"adana/seyhan/ihtisas eczanesi","direction":"https://www.google.com.tr/maps/dir/My+Location/37.0205574,35.3199292"},{"lat":37.0075454,"lng":35.3213052,"name":"İlgi Eczanesi","address1":"Gazipaşa, 66035. Sk., 01140 Seyhan/Adana, Turkey","address2":"adana/seyhan/ilgi eczanesi","direction":"https://www.google.com.tr/maps/dir/My+Location/37.0075454,35.3213052"},{"lat":36.9873454,"lng":35.3149001,"name":"İlhan Eczanesi","address1":"Yeşilyuva, 01070 Seyhan/Adana, Turkey","address2":"adana/seyhan/ilhan eczanesi","direction":"https://www.google.com.tr/maps/dir/My+Location/36.9873454,35.3149001"},{"lat":37.0286991,"lng":35.2431004,"name":"İpek Eczanesi","address1":"Bahçeşehir, Mehmet Fuat Diblan Cd No:94/A, 01170 Seyhan/Adana, Turkey","address2":"adana/seyhan/ipek eczanesi","direction":"https://www.google.com.tr/maps/dir/My+Location/37.0286991,35.2431004"},{"lat":37.0079459,"lng":35.3236393,"name":"İrem Eczanesi","address1":"Gazipaşa, Baraj Cd. No:5, 01140 Seyhan/Adana, Turkey","address2":"adana/seyhan/irem eczanesi","direction":"https://www.google.com.tr/maps/dir/My+Location/37.0079459,35.3236393"},{"lat":36.9951065,"lng":35.3136276,"name":"İyilik Eczanesi","address1":"Döşeme Mahallesi Ahmet Cevdet Yağ Bulvarı, Döşeme, D:No:7, 01060 Seyhan/Adana, Turkey","address2":"adana/seyhan/iyilik eczanesi","direction":"https://www.google.com.tr/maps/dir/My+Location/36.9951065,35.3136276"},{"lat":37.0018802,"lng":35.3190845,"name":"Kadıoğlu Eczanesi","address1":"Gülay Apt, Kurtuluş, 64016. Sk. 1/B, 01120 Seyhan/Adana, Turkey","address2":"adana/seyhan/kadıoğlu eczanesi","direction":"https://www.google.com.tr/maps/dir/My+Location/37.0018802,35.3190845"},{"lat":37.017793,"lng":35.287854,"name":"Karakaya Eczanesi","address1":"pınar mah . 74175 sk no 1-a, Pınar, 01160 seyhan/Seyhan/Adana, Turkey","address2":"adana/seyhan/karakaya eczanesi","direction":"https://www.google.com.tr/maps/dir/My+Location/37.017793,35.287854"},{"lat":37.0139397,"lng":35.3145255,"name":"Kardelen Eczanesi","address1":"Yeşilyurt Mahallesi, İbo Osman Cd. 45/A, 01150 Seyhan/Adana, Turkey","address2":"adana/seyhan/kardelen eczanesi","direction":"https://www.google.com.tr/maps/dir/My+Location/37.0139397,35.3145255"},{"lat":37.0217472,"lng":35.3083134,"name":"Kardeş Eczanesi","address1":"Yeşilyurt, 70001. Sk. 41/C, 01150 Seyhan/Adana, Turkey","address2":"adana/seyhan/kardeş eczanesi","direction":"https://www.google.com.tr/maps/dir/My+Location/37.0217472,35.3083134"},{"lat":37.00043,"lng":35.288201,"name":"Karnas Eczanesi","address1":"Bahçelievler, 01190 Seyhan/Adana, Turkey","address2":"adana/seyhan/karnas eczanesi","direction":"https://www.google.com.tr/maps/dir/My+Location/37.00043,35.288201"},{"lat":37.0284414,"lng":35.2433064,"name":"Kınalı Eczanesi","address1":"No:87/A, Bahçeşehir, Bahçeşehir Mahallesi, Mehmet Fuat Diblan Bulvarı, 01200 Seyhan/Adana, Turkey","address2":"adana/seyhan/kınalı eczanesi","direction":"https://www.google.com.tr/maps/dir/My+Location/37.0284414,35.2433064"},{"lat":37.001572,"lng":35.208091,"name":"Kipri Eczanesi","address1":"Küçükdikili Çınarlı, Eminağa Cad. No:100, 01430 Seyhan/Adana, Turkey","address2":"adana/seyhan/kipri eczanesi","direction":"https://www.google.com.tr/maps/dir/My+Location/37.001572,35.208091"},{"lat":36.9897037,"lng":35.3302878,"name":"Konak Eczanesi","address1":"Kayalıbağ, İnönü Cd. No:3, 01010 Seyhan/Adana, Turkey","address2":"adana/seyhan/konak eczanesi","direction":"https://www.google.com.tr/maps/dir/My+Location/36.9897037,35.3302878"},{"lat":37.0200319,"lng":35.3187866,"name":"Köse Eczanesi","address1":"Yenibaraj, Hacı Ömer Sabancı Cd 18 B, 01150 Seyhan/Adana, Turkey","address2":"adana/seyhan/köse eczanesi","direction":"https://www.google.com.tr/maps/dir/My+Location/37.0200319,35.3187866"},{"lat":37.0017409,"lng":35.329007,"name":"Kozan Eczanesi","address1":"Cemalpaşa, Toros Cd. No:9, 01120 Seyhan/Adana, Turkey","address2":"adana/seyhan/kozan eczanesi","direction":"https://www.google.com.tr/maps/dir/My+Location/37.0017409,35.329007"},{"lat":36.9799937,"lng":35.3364666,"name":"Kübra Eczanesi","address1":"Mestanzade, Regülatör Köprü No:12, Seyhan/Adana, Turkey","address2":"adana/seyhan/kübra eczanesi","direction":"https://www.google.com.tr/maps/dir/My+Location/36.9799937,35.3364666"},{"lat":37.022009,"lng":35.2931198,"name":"Lokman Eczanesi","address1":"Tellidere, 72082. Sk. No:9, 01160 Seyhan/Adana, Turkey","address2":"adana/seyhan/lokman eczanesi","direction":"https://www.google.com.tr/maps/dir/My+Location/37.022009,35.2931198"},{"lat":36.9792919,"lng":35.3240302,"name":"Mengü Eczanesi","address1":"Sucuzade, Saydam Cd. 130/A, 01030 Seyhan/Adana, Turkey","address2":"adana/seyhan/mengü eczanesi","direction":"https://www.google.com.tr/maps/dir/My+Location/36.9792919,35.3240302"},{"lat":37.029419,"lng":35.3060592,"name":"Meral Eczanesi","address1":"Yeşilyurt Mh., Mavi Bulv., 70595 Sk. Tugay Apt. D:26, 01150 Seyhan/Adana, Turkey","address2":"adana/seyhan/meral eczanesi","direction":"https://www.google.com.tr/maps/dir/My+Location/37.029419,35.3060592"},{"lat":37.004356,"lng":35.275663,"name":"Merkez Eczanesi","address1":"Barış, 50124. Sk., 01190 Seyhan/Adana, Turkey","address2":"adana/seyhan/merkez eczanesi","direction":"https://www.google.com.tr/maps/dir/My+Location/37.004356,35.275663"},{"lat":37.0207309,"lng":35.3166472,"name":"Mert Eczanesi","address1":"Yenibaraj, 68030. Sk., 01150 Dörtler Köyü/Seyhan/Adana, Turkey","address2":"adana/seyhan/mert eczanesi","direction":"https://www.google.com.tr/maps/dir/My+Location/37.0207309,35.3166472"},{"lat":36.9987161,"lng":35.2882054,"name":"Merve Eczanesi","address1":"Bahçelievler Mh, Mehmet Akif Ersoy Cd. no: 48/b, 01190 Seyhan/Adana, Turkey","address2":"adana/seyhan/merve eczanesi","direction":"https://www.google.com.tr/maps/dir/My+Location/36.9987161,35.2882054"},{"lat":36.9873059,"lng":35.305017,"name":"Metropol Eczanesi","address1":"Meydan, Bakımyurdu Cd., 01070 Seyhan/Adana, Turkey","address2":"adana/seyhan/metropol eczanesi","direction":"https://www.google.com.tr/maps/dir/My+Location/36.9873059,35.305017"},{"lat":36.9980831,"lng":35.3303445,"name":"Müge Eczanesi","address1":"Reşatbey, Stadyum Cd No:25, 01120 Seyhan/Adana, Turkey","address2":"adana/seyhan/müge eczanesi","direction":"https://www.google.com.tr/maps/dir/My+Location/36.9980831,35.3303445"},{"lat":37.0051303,"lng":35.315407,"name":"Murat Çakmak Eczanesi","address1":"Namık kemal mah. 2 sokak ertem apt altı (metro hast. arkası ), Seyhan, 65003 Sok. No:2, 01140 Seyhan/Adana, Turkey","address2":"adana/seyhan/murat çakmak eczanesi","direction":"https://www.google.com.tr/maps/dir/My+Location/37.0051303,35.315407"},{"lat":37.0186446,"lng":35.3209119,"name":"Mürsel Eczanesi","address1":"Hacı Ömer Sabancı Cad 68019 Sok. Sulular Apt. No.: 20/F, Yenibaraj, 01140 Seyhan/Adana, Turkey","address2":"adana/seyhan/mürsel eczanesi","direction":"https://www.google.com.tr/maps/dir/My+Location/37.0186446,35.3209119"},{"lat":36.986032,"lng":35.331286,"name":"Mustafa Rıfat Gülek Eczanesi","address1":"Ulucami, 25008. Sk. No:1, 01010 Seyhan/Adana, Turkey","address2":"adana/seyhan/mustafa rıfat gülek eczanesi","direction":"https://www.google.com.tr/maps/dir/My+Location/36.986032,35.331286"},{"lat":37.0207626,"lng":35.3117781,"name":"Nadir Eczanesi","address1":"Yeşilyurt, 01140 Seyhan/Adana, Turkey","address2":"adana/seyhan/nadir eczanesi","direction":"https://www.google.com.tr/maps/dir/My+Location/37.0207626,35.3117781"},{"lat":37.0087263,"lng":35.3136457,"name":"Namık Kemal Eczanesi","address1":"Namık Kemal, 65104. Sk. No:42, 01140 Seyhan/Adana, Turkey","address2":"adana/seyhan/namık kemal eczanesi","direction":"https://www.google.com.tr/maps/dir/My+Location/37.0087263,35.3136457"},{"lat":36.991341,"lng":35.286224,"name":"Nazlı Eczanesi","address1":"Şakirpaşa, 42009. Sk., 01080 Seyhan/Adana, Turkey","address2":"adana/seyhan/nazlı eczanesi","direction":"https://www.google.com.tr/maps/dir/My+Location/36.991341,35.286224"},{"lat":37.018607,"lng":35.320744,"name":"Necef Eczanesi","address1":"Hacı Ömer Sabancı Caddesi,68019 Sokak,sulular Apartmanı 20/c,hastaneler Civarı, Yenibaraj, 01140 Seyhan/Adana, Turkey","address2":"adana/seyhan/necef eczanesi","direction":"https://www.google.com.tr/maps/dir/My+Location/37.018607,35.320744"},{"lat":36.9988731,"lng":35.2881694,"name":"Nesli Eczanesi","address1":"Bahçelievler Mh Mehmet Akif Ersoy Cad. Hayat Tıp Merkezi Yanı 52/A, Bahçelievler, 01180 Seyhan/Adana, Turkey","address2":"adana/seyhan/nesli eczanesi","direction":"https://www.google.com.tr/maps/dir/My+Location/36.9988731,35.2881694"},{"lat":36.9835172,"lng":35.3102993,"name":"Nihan Eczanesi","address1":"Meydan, Meydan Cd. No. 38, 01060 Seyhan/Adana, Turkey","address2":"adana/seyhan/nihan eczanesi","direction":"https://www.google.com.tr/maps/dir/My+Location/36.9835172,35.3102993"},{"lat":37.019956,"lng":35.316392,"name":"Nilsu Eczanesi","address1":"Yenibaraj, 68029. Sk., 01150 Seyhan/Adana, Turkey","address2":"adana/seyhan/nilsu eczanesi","direction":"https://www.google.com.tr/maps/dir/My+Location/37.019956,35.316392"},{"lat":37.0132977,"lng":35.2795303,"name":"Nilüfer Eczanesi","address1":"Gürselpaşa, 75001. Sk. 12/A, 01200 Seyhan/Adana, Turkey","address2":"adana/seyhan/nilüfer eczanesi","direction":"https://www.google.com.tr/maps/dir/My+Location/37.0132977,35.2795303"},{"lat":37.000307,"lng":35.297274,"name":"Nisan Eczanesi","address1":"Narlıca, 56020. Sk., 01180 Seyhan/Adana, Turkey","address2":"adana/seyhan/nisan eczanesi","direction":"https://www.google.com.tr/maps/dir/My+Location/37.000307,35.297274"},{"lat":37.0171449,"lng":35.3190792,"name":"Nüket Eczanesi","address1":"Bülent Angın Bulv, Yenibaraj, Durak Tahsin Derici, Baraj Cd. No:4 D:Apt. 18/D, 01140 Seyhan/Adana, Turkey","address2":"adana/seyhan/nüket eczanesi","direction":"https://www.google.com.tr/maps/dir/My+Location/37.0171449,35.3190792"},{"lat":37.0182432,"lng":35.3211823,"name":"Numune Şifa Eczanesi","address1":"Yenibaraj, Hacı Ömer Sabancı Cd no 13 D:c, 01150 Seyhan/Adana, Turkey","address2":"adana/seyhan/numune şifa eczanesi","direction":"https://www.google.com.tr/maps/dir/My+Location/37.0182432,35.3211823"},{"lat":37.019094,"lng":35.314124,"name":"Nurdan Eczanesi","address1":"Yeşilyurt, İbo Osman Cad. No:95/M, 01150 Seyhan/Adana, Turkey","address2":"adana/seyhan/nurdan eczanesi","direction":"https://www.google.com.tr/maps/dir/My+Location/37.019094,35.314124"},{"lat":36.9980872,"lng":35.328415,"name":"Nurstad Eczanesi","address1":"Reşatbey, Stadyum Cd No:52, 01120 Seyhan/Adana, Turkey","address2":"adana/seyhan/nurstad eczanesi","direction":"https://www.google.com.tr/maps/dir/My+Location/36.9980872,35.328415"},{"lat":36.989852,"lng":35.3293042,"name":"Okan Eczanesi","address1":"Tepebağ, İnönü Cd. 23/A, 01010 Seyhan/Adana, Turkey","address2":"adana/seyhan/okan eczanesi","direction":"https://www.google.com.tr/maps/dir/My+Location/36.989852,35.3293042"},{"lat":37.019625,"lng":35.320426,"name":"Ömür Eczanesi","address1":"Yenibaraj, Hacı Ömer Sabancı Cd 16/A, 01150 Seyhan/Adana, Turkey","address2":"adana/seyhan/ömür eczanesi","direction":"https://www.google.com.tr/maps/dir/My+Location/37.019625,35.320426"},{"lat":37.014041,"lng":35.3249071,"name":"Önem Eczanesi","address1":"Ziyapaşa, 67073. Sk. No:7, 01140 Seyhan/Adana, Turkey","address2":"adana/seyhan/önem eczanesi","direction":"https://www.google.com.tr/maps/dir/My+Location/37.014041,35.3249071"},{"lat":36.9946904,"lng":35.3153621,"name":"Onur Eczanesi","address1":"Döşeme, 60035. Sk. No:56, 01130 Seyhan/Adana, Turkey","address2":"adana/seyhan/onur eczanesi","direction":"https://www.google.com.tr/maps/dir/My+Location/36.9946904,35.3153621"},{"lat":37.0137662,"lng":35.3223049,"name":"Orhan Eczanesi","address1":"Sümer, Baraj Cd., 01140 Seyhan/Adana, Turkey","address2":"adana/seyhan/orhan eczanesi","direction":"https://www.google.com.tr/maps/dir/My+Location/37.0137662,35.3223049"},{"lat":36.9875004,"lng":35.3154934,"name":"Orkide Eczanesi","address1":"Hurmalı, Bakımyurdu Cd. No:94, 01060 Seyhan/Adana, Turkey","address2":"adana/seyhan/orkide eczanesi","direction":"https://www.google.com.tr/maps/dir/My+Location/36.9875004,35.3154934"},{"lat":36.9844679,"lng":35.3030467,"name":"Öykü Eczanesi","address1":"Meydan, Kıbrıs Cad., 01070 Seyhan/Adana, Turkey","address2":"adana/seyhan/öykü eczanesi","direction":"https://www.google.com.tr/maps/dir/My+Location/36.9844679,35.3030467"},{"lat":37.0226547,"lng":35.3149778,"name":"Özbilge Eczanesi","address1":"Sümer, Bülent Angın Blv. No:125, 01140 Seyhan/Adana, Turkey","address2":"adana/seyhan/özbilge eczanesi","direction":"https://www.google.com.tr/maps/dir/My+Location/37.0226547,35.3149778"},{"lat":36.9874859,"lng":35.272486,"name":"Özde Eczanesi","address1":"Ova, Şakirpaşa Cd. 234/B, 01080 Seyhan/Adana, Turkey","address2":"adana/seyhan/özde eczanesi","direction":"https://www.google.com.tr/maps/dir/My+Location/36.9874859,35.272486"},{"lat":36.9880168,"lng":35.2750381,"name":"Özdoğru Eczanesi","address1":"Şakirpaşa, Onur Cd. 2/C, 01080 Seyhan/Adana, Turkey","address2":"adana/seyhan/özdoğru eczanesi","direction":"https://www.google.com.tr/maps/dir/My+Location/36.9880168,35.2750381"},{"lat":37.0049805,"lng":35.3157365,"name":"Özen Eczanesi","address1":"Namık Kemal, 65003. Sok. 43/A, 01140 Seyhan/Adana, Turkey","address2":"adana/seyhan/özen eczanesi","direction":"https://www.google.com.tr/maps/dir/My+Location/37.0049805,35.3157365"},{"lat":36.986305,"lng":35.327552,"name":"Özkurt Eczanesi","address1":"Karasoku, Abidinpaşa Cd. No:24, 01010 Seyhan/Adana, Turkey","address2":"adana/seyhan/özkurt eczanesi","direction":"https://www.google.com.tr/maps/dir/My+Location/36.986305,35.327552"},{"lat":36.997497,"lng":35.312418,"name":"Öznur Eczanesi","address1":"Döşeme Mah 60064 Sk., Seyhan, Akasya Apt. Zemin Kat, 01130 Seyhan/Adana, Turkey","address2":"adana/seyhan/öznur eczanesi","direction":"https://www.google.com.tr/maps/dir/My+Location/36.997497,35.312418"},{"lat":36.9879206,"lng":35.2750327,"name":"Özsaydı Eczanesi","address1":"Şakirpaşa Mah., Onur Cd. 8/A, 01080 Seyhan/Adana, Turkey","address2":"adana/seyhan/özsaydı eczanesi","direction":"https://www.google.com.tr/maps/dir/My+Location/36.9879206,35.2750327"},{"lat":36.9809786,"lng":35.3321488,"name":"Özsoy Eczanesi","address1":"Türkocağı, Regülatör Cd. No:9, 01020 Seyhan/Adana, Turkey","address2":"adana/seyhan/özsoy eczanesi","direction":"https://www.google.com.tr/maps/dir/My+Location/36.9809786,35.3321488"},{"lat":37.0236398,"lng":35.3060741,"name":"Özveren Eczanesi","address1":"Yeşilyurt, Karaafat Cd 84/B, 01150 Seyhan/Adana, Turkey","address2":"adana/seyhan/özveren eczanesi","direction":"https://www.google.com.tr/maps/dir/My+Location/37.0236398,35.3060741"},{"lat":37.00022,"lng":35.323526,"name":"Park Eczanesi","address1":"Kurtuluş, Atatürk Cd. No:65, 01130 Seyhan/Adana, Turkey","address2":"adana/seyhan/park eczanesi","direction":"https://www.google.com.tr/maps/dir/My+Location/37.00022,35.323526"},{"lat":37.017733,"lng":35.2884071,"name":"Pınarşifa Eczanesi","address1":"Pınar, 01160 Seyhan/Adana, Turkey","address2":"adana/seyhan/pınarşifa eczanesi","direction":"https://www.google.com.tr/maps/dir/My+Location/37.017733,35.2884071"},{"lat":37.019973,"lng":35.2957298,"name":"Pırıl Eczanesi","address1":"Fatih, Mücahitler Cd. 253/B, 01160 Seyhan/Adana, Turkey","address2":"adana/seyhan/pırıl eczanesi","direction":"https://www.google.com.tr/maps/dir/My+Location/37.019973,35.2957298"},{"lat":36.999809,"lng":35.3170635,"name":"Refikacanan Eczanesi","address1":"Kurtuluş, 01120 Seyhan/Adana, Turkey","address2":"adana/seyhan/refikacanan eczanesi","direction":"https://www.google.com.tr/maps/dir/My+Location/36.999809,35.3170635"},{"lat":37.0291183,"lng":35.2678707,"name":"Rengin Eczanesi","address1":"2000 Evler, Bülent Ecevit Blv. 28-1, 01200 Seyhan/Adana, Turkey","address2":"adana/seyhan/rengin eczanesi","direction":"https://www.google.com.tr/maps/dir/My+Location/37.0291183,35.2678707"},{"lat":36.993601,"lng":35.324617,"name":"Renin Eczanesi","address1":"Çınarlı Mah., 61019. Sok. Pamuk Apt. D:3/D, 01120 Seyhan/Adana, Turkey","address2":"adana/seyhan/renin eczanesi","direction":"https://www.google.com.tr/maps/dir/My+Location/36.993601,35.324617"},{"lat":37.020729,"lng":35.3119849,"name":"Sadıkoğlu Eczanesi","address1":"Yeşilyurt Mh., 70154 Sok 13/A, 01170 Seyhan/Adana, Turkey","address2":"adana/seyhan/sadıkoğlu eczanesi","direction":"https://www.google.com.tr/maps/dir/My+Location/37.020729,35.3119849"},{"lat":37.0197734,"lng":35.3105792,"name":"Şadiyecemil Eczanesi","address1":"Yeşilyurt, 70082. Sk. 39/A, 01150 Seyhan/Adana, Turkey","address2":"adana/seyhan/şadiyecemil eczanesi","direction":"https://www.google.com.tr/maps/dir/My+Location/37.0197734,35.3105792"},{"lat":36.98241,"lng":35.324983,"name":"Şahin Eczanesi","address1":"Alidede, Saydam Cd. No:169, 01020 Seyhan/Adana, Turkey","address2":"adana/seyhan/şahin eczanesi","direction":"https://www.google.com.tr/maps/dir/My+Location/36.98241,35.324983"},{"lat":36.977835,"lng":35.323575,"name":"Şahinkanat Eczanesi","address1":"Hürriyet, Saydam Cd. No:135, 01020 Seyhan/Adana, Turkey","address2":"adana/seyhan/şahinkanat eczanesi","direction":"https://www.google.com.tr/maps/dir/My+Location/36.977835,35.323575"},{"lat":36.987321,"lng":35.271665,"name":"Şakirpaşa Eczanesi","address1":"Ova, Şakirpaşa Cd. No:163, 01080 Seyhan/Adana, Turkey","address2":"adana/seyhan/şakirpaşa eczanesi","direction":"https://www.google.com.tr/maps/dir/My+Location/36.987321,35.271665"},{"lat":37.0206332,"lng":35.3197426,"name":"Savaş Eczanesi","address1":"Yenibaraj, Hacı Ömer Sabancı Cd No.: 18/B, 01140 Seyhan/Adana, Turkey","address2":"adana/seyhan/savaş eczanesi","direction":"https://www.google.com.tr/maps/dir/My+Location/37.0206332,35.3197426"},{"lat":37.008887,"lng":35.3138077,"name":"Saygın Eczanesi","address1":"Namık Kemal, Nesrin Olgun Sk. No:69, 01140 Seyhan/Adana, Turkey","address2":"adana/seyhan/saygın eczanesi","direction":"https://www.google.com.tr/maps/dir/My+Location/37.008887,35.3138077"},{"lat":37.0230876,"lng":35.3197725,"name":"Saygıncan Eczanesi","address1":"Yenibaraj, 68066. Sk. No:2, 01150 Seyhan/Adana, Turkey","address2":"adana/seyhan/saygıncan eczanesi","direction":"https://www.google.com.tr/maps/dir/My+Location/37.0230876,35.3197725"},{"lat":36.988135,"lng":35.274809,"name":"Seçgin Eczanesi","address1":"Onur, Onur Cd. No:7, 01100 Seyhan/Adana, Turkey","address2":"adana/seyhan/seçgin eczanesi","direction":"https://www.google.com.tr/maps/dir/My+Location/36.988135,35.274809"},{"lat":37.0181044,"lng":35.2890185,"name":"Seda Eczanesi","address1":"Pınar, 74175. Sk., 01160 Seyhan/Adana, Turkey","address2":"adana/seyhan/seda eczanesi","direction":"https://www.google.com.tr/maps/dir/My+Location/37.0181044,35.2890185"},{"lat":36.9834173,"lng":35.2996133,"name":"Selda Eczanesi","address1":"Meydan, Kıbrıs Cad., 01070 Seyhan/Adana, Turkey","address2":"adana/seyhan/selda eczanesi","direction":"https://www.google.com.tr/maps/dir/My+Location/36.9834173,35.2996133"},{"lat":36.969309,"lng":35.308103,"name":"Semiha Eczanesi","address1":"Akkapı, Dağlıoğlu Sk. 37/A, 01040 Seyhan/Adana, Turkey","address2":"adana/seyhan/semiha eczanesi","direction":"https://www.google.com.tr/maps/dir/My+Location/36.969309,35.308103"},{"lat":37.013137,"lng":35.2798811,"name":"Sena Eczanesi","address1":"Gürselpaşa, 75001. Sk. No:4, 01200 Seyhan/Adana, Turkey","address2":"adana/seyhan/sena eczanesi","direction":"https://www.google.com.tr/maps/dir/My+Location/37.013137,35.2798811"},{"lat":36.9957998,"lng":35.3288001,"name":"Şencan Eczanesi","address1":"Gazipaşa, Cumhuriyet Cad. 25/D, 01120 Seyhan/Adana, Turkey","address2":"adana/seyhan/şencan eczanesi","direction":"https://www.google.com.tr/maps/dir/My+Location/36.9957998,35.3288001"},{"lat":37.0209971,"lng":35.3197635,"name":"Senem Eczanesi","address1":"Yenibaraj, Hacı Ömer Sabancı Cd 54A, 01150 Seyhan/Adana, Turkey","address2":"adana/seyhan/senem eczanesi","direction":"https://www.google.com.tr/maps/dir/My+Location/37.0209971,35.3197635"},{"lat":37.0022262,"lng":35.320201,"name":"Şenöz Eczanesi","address1":"Kurtuluş, 64019. Sk. 4/A, 01130 Seyhan/Adana, Turkey","address2":"adana/seyhan/şenöz eczanesi","direction":"https://www.google.com.tr/maps/dir/My+Location/37.0022262,35.320201"},{"lat":37.0065217,"lng":35.2911213,"name":"Serap Eczanesi","address1":"İsmetpaşa Mh., 51010 Sk. No:33, 01180 Seyhan/Adana, Turkey","address2":"adana/seyhan/serap eczanesi","direction":"https://www.google.com.tr/maps/dir/My+Location/37.0065217,35.2911213"},{"lat":36.9732238,"lng":35.3058579,"name":"Serhad Eczanesi","address1":"Dağlıoğlu, Ahmet Cevdet Yağ Cad., Sk. No. 243/A, 01040 Seyhan/Adana, Turkey","address2":"adana/seyhan/serhad eczanesi","direction":"https://www.google.com.tr/maps/dir/My+Location/36.9732238,35.3058579"},{"lat":36.9784259,"lng":35.3095196,"name":"Sevindik Eczanesi","address1":"373/B, Dağlıoğlu, Obalar Cd., 01040 Seyhan/Adana, Turkey","address2":"adana/seyhan/sevindik eczanesi","direction":"https://www.google.com.tr/maps/dir/My+Location/36.9784259,35.3095196"},{"lat":37.015191,"lng":35.3213566,"name":"Şeyma Eczanesi","address1":"Sümer Mahallesi 69126 Sokak No 4/D-E, Sümer, 01140 Seyhan/Adana, Turkey","address2":"adana/seyhan/şeyma eczanesi","direction":"https://www.google.com.tr/maps/dir/My+Location/37.015191,35.3213566"},{"lat":36.994862,"lng":35.315328,"name":"Şifa Eczanesi","address1":"Döşeme, 60045. Sk. No:7, 01130 Seyhan/Adana, Turkey","address2":"adana/seyhan/şifa eczanesi","direction":"https://www.google.com.tr/maps/dir/My+Location/36.994862,35.315328"},{"lat":37.007518,"lng":35.3229811,"name":"Sıhhat Eczanesi","address1":"Gazipaşa, 01120 Seyhan/Adana, Turkey","address2":"adana/seyhan/sıhhat eczanesi","direction":"https://www.google.com.tr/maps/dir/My+Location/37.007518,35.3229811"},{"lat":37.0210856,"lng":35.319709,"name":"Şimal Eczanesi","address1":"Yenibaraj Mahallesi, Hacı Ömer Sabancı Cd No:40 D:E, 01150 Seyhan/Adana, Turkey","address2":"adana/seyhan/şimal eczanesi","direction":"https://www.google.com.tr/maps/dir/My+Location/37.0210856,35.319709"},{"lat":37.00094,"lng":35.299107,"name":"Sıtkı Esen Eczanesi","address1":"Denizli, 42 Sok. Şakayık Apt. No:11, 01130 Seyhan/Adana, Turkey","address2":"adana/seyhan/sıtkı esen eczanesi","direction":"https://www.google.com.tr/maps/dir/My+Location/37.00094,35.299107"},{"lat":36.9872205,"lng":35.3071009,"name":"Sökün Eczanesi","address1":"Meydan, Bakımyurdu Cd. No:183, 01070 Seyhan/Adana, Turkey","address2":"adana/seyhan/sökün eczanesi","direction":"https://www.google.com.tr/maps/dir/My+Location/36.9872205,35.3071009"},{"lat":37.027,"lng":35.290357,"name":"Sorguç Eczanesi","address1":"Mücahitler Cad. Pınar Mah. (Yaşam Tıp Merkezi Karşısı), Pınar, 74018 Sk No:2/A, 01160 Seyhan/Adana, Turkey","address2":"adana/seyhan/sorguç eczanesi","direction":"https://www.google.com.tr/maps/dir/My+Location/37.027,35.290357"},{"lat":36.987744,"lng":35.2768979,"name":"Soytoprak Eczanesi","address1":"Şakirpaşa, Şakirpaşa Cd. 206/A, 01080 Seyhan/Adana, Turkey","address2":"adana/seyhan/soytoprak eczanesi","direction":"https://www.google.com.tr/maps/dir/My+Location/36.987744,35.2768979"},{"lat":36.969522,"lng":35.307916,"name":"Su Eczanesi","address1":"Akkapı Mahallesi Dağlıoğlu Sokak 43/A++ ÖZEL GÜNEY ADANA HASTANESİ YANI, Akkapı, 01040 Seyhan/Adana, Turkey","address2":"adana/seyhan/su eczanesi","direction":"https://www.google.com.tr/maps/dir/My+Location/36.969522,35.307916"},{"lat":36.9796385,"lng":35.3237251,"name":"Sucuzade Eczanesi","address1":"Sucuzade, 30041. Sk. No:19, 01030 Seyhan/Adana, Turkey","address2":"adana/seyhan/sucuzade eczanesi","direction":"https://www.google.com.tr/maps/dir/My+Location/36.9796385,35.3237251"},{"lat":37.028844,"lng":35.2685019,"name":"Şükran Eczanesi","address1":"2000 Evler, Bülent Ecevit Blv. No:19, 01200 Seyhan/Adana, Turkey","address2":"adana/seyhan/şükran eczanesi","direction":"https://www.google.com.tr/maps/dir/My+Location/37.028844,35.2685019"},{"lat":37.008717,"lng":35.3133061,"name":"Şükran Özel Eczanesi","address1":"Namık Kemal, Nesrin Olgun Sk. 60 A, 01140 Seyhan/Adana, Turkey","address2":"adana/seyhan/şükran özel eczanesi","direction":"https://www.google.com.tr/maps/dir/My+Location/37.008717,35.3133061"},{"lat":37.0050005,"lng":35.3148188,"name":"Sular Eczanesi","address1":"Namık Kemal, 65003. Sk. 35/A, 01140 Seyhan/Adana, Turkey","address2":"adana/seyhan/sular eczanesi","direction":"https://www.google.com.tr/maps/dir/My+Location/37.0050005,35.3148188"},{"lat":36.9996678,"lng":35.2987127,"name":"Sultan Eczanesi","address1":"Narlıca, 27 Mayıs Cd. 5/A, 01180 Seyhan/Adana, Turkey","address2":"adana/seyhan/sultan eczanesi","direction":"https://www.google.com.tr/maps/dir/My+Location/36.9996678,35.2987127"},{"lat":36.987329,"lng":35.272069,"name":"Sunam Eczanesi","address1":"Ova, Şakirpaşa Cd. No:159, 01080 Seyhan/Adana, Turkey","address2":"adana/seyhan/sunam eczanesi","direction":"https://www.google.com.tr/maps/dir/My+Location/36.987329,35.272069"},{"lat":37.0079443,"lng":35.3228751,"name":"Takadaş Eczanesi","address1":"Gazipaşa, Adana Büyükşehir Belediyesi, 01120 Seyhan/Adana, Turkey","address2":"adana/seyhan/takadaş eczanesi","direction":"https://www.google.com.tr/maps/dir/My+Location/37.0079443,35.3228751"},{"lat":37.0014516,"lng":35.3272556,"name":"Tambay Eczanesi","address1":"Cemalpaşa, 63007. Sk. No:28, 01120 Seyhan/Adana, Turkey","address2":"adana/seyhan/tambay eczanesi","direction":"https://www.google.com.tr/maps/dir/My+Location/37.0014516,35.3272556"},{"lat":36.969309,"lng":35.308103,"name":"Taşkın Eczanesi","address1":"Akkapı, Dağlıoğlu Sk. 37/A, 01040 Seyhan/Adana, Turkey","address2":"adana/seyhan/taşkın eczanesi","direction":"https://www.google.com.tr/maps/dir/My+Location/36.969309,35.308103"},{"lat":37.0011469,"lng":35.2616547,"name":"Taylan Eczanesi","address1":"Fevzipaşa, Vefa Cad. 295 A, 01190 Seyhan/Adana, Turkey","address2":"adana/seyhan/taylan eczanesi","direction":"https://www.google.com.tr/maps/dir/My+Location/37.0011469,35.2616547"},{"lat":37.002086,"lng":35.272014,"name":"Tekin Eczanesi","address1":"Barış, Aydınlar Cd. 30/A, 01190 Seyhan/Adana, Turkey","address2":"adana/seyhan/tekin eczanesi","direction":"https://www.google.com.tr/maps/dir/My+Location/37.002086,35.272014"},{"lat":36.9947978,"lng":35.314751,"name":"Tekir Eczanesi","address1":"Döşeme, Cumhuriyet Cad. 129/A, 01130 Seyhan/Adana, Turkey","address2":"adana/seyhan/tekir eczanesi","direction":"https://www.google.com.tr/maps/dir/My+Location/36.9947978,35.314751"},{"lat":37.0219878,"lng":35.2939093,"name":"Tellidere Eczanesi","address1":"Tellidere, 72081. Sk. No:236, 01160 Seyhan/Adana, Turkey","address2":"adana/seyhan/tellidere eczanesi","direction":"https://www.google.com.tr/maps/dir/My+Location/37.0219878,35.2939093"},{"lat":37.0101871,"lng":35.3237385,"name":"Toksöz Eczanesi","address1":"Ziyapaşa, Baraj Cd. 68/C, 01140 Seyhan/Adana, Turkey","address2":"adana/seyhan/toksöz eczanesi","direction":"https://www.google.com.tr/maps/dir/My+Location/37.0101871,35.3237385"},{"lat":36.9978614,"lng":35.3242501,"name":"Topaloğlu Eczanesi","address1":"Atatürk Cd., Seyhan/Adana, Turkey","address2":"adana/seyhan/topaloğlu eczanesi","direction":"https://www.google.com.tr/maps/dir/My+Location/36.9978614,35.3242501"},{"lat":36.9824164,"lng":35.3028924,"name":"Toprak Eczanesi","address1":"Dumlupınar, Kıbrıs Cd. 81/B, 01070 Seyhan/Adana, Turkey","address2":"adana/seyhan/toprak eczanesi","direction":"https://www.google.com.tr/maps/dir/My+Location/36.9824164,35.3028924"},{"lat":37.0137899,"lng":35.3248629,"name":"Tuğçe Dalkır Eczanesi","address1":"Ziyapaşa, 67065. Sk., 01140 Seyhan/Adana, Turkey","address2":"adana/seyhan/tuğçe dalkır eczanesi","direction":"https://www.google.com.tr/maps/dir/My+Location/37.0137899,35.3248629"},{"lat":37.01755,"lng":35.3214151,"name":"Tuğçe Eczanesi","address1":"Yenibaraj, 01140 Seyhan/Adana, Turkey","address2":"adana/seyhan/tuğçe eczanesi","direction":"https://www.google.com.tr/maps/dir/My+Location/37.01755,35.3214151"},{"lat":36.980161,"lng":35.328932,"name":"Tuğra Eczanesi","address1":"Beşocak, 22017. Sk. NO: 7/B, 01020 Seyhan/Adana, Turkey","address2":"adana/seyhan/tuğra eczanesi","direction":"https://www.google.com.tr/maps/dir/My+Location/36.980161,35.328932"},{"lat":37.0014432,"lng":35.3198506,"name":"Türker Eczanesi","address1":"Reşatbey, Ziyapaşa Blv. NO:9/02, 01130 Seyhan/Adana, Turkey","address2":"adana/seyhan/türker eczanesi","direction":"https://www.google.com.tr/maps/dir/My+Location/37.0014432,35.3198506"},{"lat":36.9723945,"lng":35.3281779,"name":"Türkmen Eczanesi","address1":"Yenibey, Emin Ağa Cd., 01020 Seyhan/Adana, Turkey","address2":"adana/seyhan/türkmen eczanesi","direction":"https://www.google.com.tr/maps/dir/My+Location/36.9723945,35.3281779"},{"lat":36.973273,"lng":35.305755,"name":"Turunç Eczanesi","address1":"Gülbahçesi, Bahçelievler Cd., 01050 Seyhan/Adana, Turkey","address2":"adana/seyhan/turunç eczanesi","direction":"https://www.google.com.tr/maps/dir/My+Location/36.973273,35.305755"},{"lat":36.9975323,"lng":35.3266151,"name":"Uğur Eczanesi","address1":"Reşatbey, Gazipaşa Blv. No:2, 01120 Seyhan/Adana, Turkey","address2":"adana/seyhan/uğur eczanesi","direction":"https://www.google.com.tr/maps/dir/My+Location/36.9975323,35.3266151"},{"lat":37.0168122,"lng":35.3216396,"name":"Ülker Eczanesi","address1":"Yenibaraj, Hacı Ömer Sabancı Cd No:9, 01150 Seyhan/Adana, Turkey","address2":"adana/seyhan/ülker eczanesi","direction":"https://www.google.com.tr/maps/dir/My+Location/37.0168122,35.3216396"},{"lat":37.018122,"lng":35.3211266,"name":"Ulular Eczanesi","address1":"Yenibaraj, Hacı Sabancı Blv. 40/A, 01150 Seyhan/Adana, Turkey","address2":"adana/seyhan/ulular eczanesi","direction":"https://www.google.com.tr/maps/dir/My+Location/37.018122,35.3211266"},{"lat":36.966787,"lng":35.316346,"name":"Ümit Eczanesi","address1":"Bey, 16038. Sk. No:3, 01030 Seyhan/Adana, Turkey","address2":"adana/seyhan/ümit eczanesi","direction":"https://www.google.com.tr/maps/dir/My+Location/36.966787,35.316346"},{"lat":37.0134931,"lng":35.2789311,"name":"Umut Eczanesi","address1":"Gürselpaşa, 75250. Sk. 78 A, 01200 Seyhan/Adana, Turkey","address2":"adana/seyhan/umut eczanesi","direction":"https://www.google.com.tr/maps/dir/My+Location/37.0134931,35.2789311"},{"lat":36.9881102,"lng":35.2820312,"name":"Ünsal Eczanesi","address1":"Uçak, Şakirpaşa Cd. 77/A, 01080 Seyhan/Adana, Turkey","address2":"adana/seyhan/ünsal eczanesi","direction":"https://www.google.com.tr/maps/dir/My+Location/36.9881102,35.2820312"},{"lat":37.0067145,"lng":35.3045723,"name":"Utku Eczanesi","address1":"Mithatpaşa, Defne Cd. No:42, 01130 Seyhan/Adana, Turkey","address2":"adana/seyhan/utku eczanesi","direction":"https://www.google.com.tr/maps/dir/My+Location/37.0067145,35.3045723"},{"lat":36.9997986,"lng":35.3257195,"name":"Valiyolu Eczanesi","address1":"Cemalpaşa, 63002. Sk. No:2, 01120 Seyhan/Adana, Turkey","address2":"adana/seyhan/valiyolu eczanesi","direction":"https://www.google.com.tr/maps/dir/My+Location/36.9997986,35.3257195"},{"lat":37.0227007,"lng":35.2939383,"name":"Vilayet Eczanesi","address1":"Tellidere, 72081. Sk. No:553, 01160 Seyhan/Adana, Turkey","address2":"adana/seyhan/vilayet eczanesi","direction":"https://www.google.com.tr/maps/dir/My+Location/37.0227007,35.2939383"},{"lat":37.0226852,"lng":35.2740599,"name":"Yağız Eczanesi","address1":"Gürselpaşa, 75380. Sk. No:22, 01200 Seyhan/Adana, Turkey","address2":"adana/seyhan/yağız eczanesi","direction":"https://www.google.com.tr/maps/dir/My+Location/37.0226852,35.2740599"},{"lat":36.9874988,"lng":35.315551,"name":"Yağmur Eczanesi","address1":"Hurmalı, Bakımyurdu Cd. 86/A, 01060 Seyhan/Adana, Turkey","address2":"adana/seyhan/yağmur eczanesi","direction":"https://www.google.com.tr/maps/dir/My+Location/36.9874988,35.315551"},{"lat":36.961449,"lng":35.3044159,"name":"Yalakı Eczanesi","address1":"Akkapı, Şıh Cemil Cd. No:158, 01040 Seyhan/Adana, Turkey","address2":"adana/seyhan/yalakı eczanesi","direction":"https://www.google.com.tr/maps/dir/My+Location/36.961449,35.3044159"},{"lat":36.9874926,"lng":35.3152624,"name":"Yalçın Eczanesi","address1":"İstiklal, Bakımyurdu Cd. 92/A, 01060 Seyhan/Adana, Turkey","address2":"adana/seyhan/yalçın eczanesi","direction":"https://www.google.com.tr/maps/dir/My+Location/36.9874926,35.3152624"},{"lat":37.004309,"lng":35.276202,"name":"Yaprak Eczanesi","address1":"Barış, 50124. Sk. 7/A, 01190 Seyhan/Adana, Turkey","address2":"adana/seyhan/yaprak eczanesi","direction":"https://www.google.com.tr/maps/dir/My+Location/37.004309,35.276202"},{"lat":36.9961176,"lng":35.3251328,"name":"Yener Eczanesi","address1":"Döşeme, Cumhuriyet Cd. NO 111, 01130 Seyhan/Adana, Turkey","address2":"adana/seyhan/yener eczanesi","direction":"https://www.google.com.tr/maps/dir/My+Location/36.9961176,35.3251328"},{"lat":37.0168122,"lng":35.3216396,"name":"Yeni Baraj Eczanesi","address1":"Yenibaraj, Hacı Ömer Sabancı Cd No:9, 01150 Seyhan/Adana, Turkey","address2":"adana/seyhan/yeni baraj eczanesi","direction":"https://www.google.com.tr/maps/dir/My+Location/37.0168122,35.3216396"},{"lat":36.999767,"lng":35.29899,"name":"Yeni Çalışkan Eczanesi","address1":"Narlıca, 27 Mayıs Cd. No:3, 01180 Seyhan/Adana, Turkey","address2":"adana/seyhan/yeni çalışkan eczanesi","direction":"https://www.google.com.tr/maps/dir/My+Location/36.999767,35.29899"},{"lat":37.0147811,"lng":35.3218725,"name":"Yeni Dalkır Eczanesi","address1":"Ziyapaşa, 69126 Sok. Dotaş Apt. D:3/b, 01140 Seyhan/Adana, Turkey","address2":"adana/seyhan/yeni dalkır eczanesi","direction":"https://www.google.com.tr/maps/dir/My+Location/37.0147811,35.3218725"},{"lat":37.014868,"lng":35.3143598,"name":"Yeni Sızmaz Eczanesi","address1":"Yeşilyurt, 01140 Seyhan/Adana, Turkey","address2":"adana/seyhan/yeni sızmaz eczanesi","direction":"https://www.google.com.tr/maps/dir/My+Location/37.014868,35.3143598"},{"lat":37.0013863,"lng":35.3118513,"name":"Yeni Vilayet Eczanesi","address1":"Seyhan, Valilik Yanı Yeni Emniyet Müd. Karşısı Baysan İş Merk., 01130 Seyhan/Adana, Turkey","address2":"adana/seyhan/yeni vilayet eczanesi","direction":"https://www.google.com.tr/maps/dir/My+Location/37.0013863,35.3118513"},{"lat":37.00647,"lng":35.2908919,"name":"Yenipınar Eczanesi","address1":"İsmetpaşa, 51054. Sk., 01180 Seyhan/Adana, Turkey","address2":"adana/seyhan/yenipınar eczanesi","direction":"https://www.google.com.tr/maps/dir/My+Location/37.00647,35.2908919"},{"lat":37.0231,"lng":35.3058,"name":"Yeşilyurt Eczanesi","address1":"Yeşilyurt, Karaafat Cd No:108, 01150 Seyhan/Adana, Turkey","address2":"adana/seyhan/yeşilyurt eczanesi","direction":"https://www.google.com.tr/maps/dir/My+Location/37.0231,35.3058"},{"lat":37.0110443,"lng":35.3230905,"name":"Yezdan Eczanesi","address1":"Adana, Yeşilyurt, 01140 Seyhan/Adana, Turkey","address2":"adana/seyhan/yezdan eczanesi","direction":"https://www.google.com.tr/maps/dir/My+Location/37.0110443,35.3230905"},{"lat":36.989554,"lng":35.3031502,"name":"Yıldız Eczanesi","address1":"Emek, 01060 Seyhan/Adana, Turkey","address2":"adana/seyhan/yıldız eczanesi","direction":"https://www.google.com.tr/maps/dir/My+Location/36.989554,35.3031502"},{"lat":37.0063126,"lng":35.2913572,"name":"Yosun Eczanesi","address1":"İsmetpaşa, 01190 Seyhan/Adana, Turkey","address2":"adana/seyhan/yosun eczanesi","direction":"https://www.google.com.tr/maps/dir/My+Location/37.0063126,35.2913572"},{"lat":37.0011385,"lng":35.2609532,"name":"Yücel Eczanesi","address1":"Reşatbey, Aydınlar, Vefa Cad. NO:294, 01190 Seyhan/Adana, Turkey","address2":"adana/seyhan/yücel eczanesi","direction":"https://www.google.com.tr/maps/dir/My+Location/37.0011385,35.2609532"},{"lat":37.0005035,"lng":35.2882997,"name":"Yüksel Eczanesi","address1":"Bahçelievler, 01190 Seyhan/Adana, Turkey","address2":"adana/seyhan/yüksel eczanesi","direction":"https://www.google.com.tr/maps/dir/My+Location/37.0005035,35.2882997"},{"lat":37.0251635,"lng":35.3121256,"name":"Yurt Eczanesi","address1":"Yeşilyurt, 70107. Sk., 01150 Seyhan/Adana, Turkey","address2":"adana/seyhan/yurt eczanesi","direction":"https://www.google.com.tr/maps/dir/My+Location/37.0251635,35.3121256"},{"lat":36.9997564,"lng":35.3175073,"name":"Zaimoğlu Eczanesi","address1":"Kurtuluş, 64013 Sok. 17/A, 01130 Seyhan/Adana, Turkey","address2":"adana/seyhan/zaimoğlu eczanesi","direction":"https://www.google.com.tr/maps/dir/My+Location/36.9997564,35.3175073"},{"lat":37.018333,"lng":35.317537,"name":"Zehra Eczanesi","address1":"Yenibaraj, 68019. Sk. Mustafa Kayalioğlu Apt. D:1/1B, 01150 Seyhan/Adana, Turkey","address2":"adana/seyhan/zehra eczanesi","direction":"https://www.google.com.tr/maps/dir/My+Location/37.018333,35.317537"},{"lat":36.9994977,"lng":35.2880116,"name":"Zeyneloğlu Eczanesi","address1":"Demetevler, Mehmet Akif Ersoy Cd. 53/A, 01180 Seyhan/Adana, Turkey","address2":"adana/seyhan/zeyneloğlu eczanesi","direction":"https://www.google.com.tr/maps/dir/My+Location/36.9994977,35.2880116"},{"lat":36.9806283,"lng":35.3181052,"name":"Zöhre Eczanesi","address1":"Mirzaçelebi, Obalar Cd. 146/A, 01070 Seyhan/Adana, Turkey","address2":"adana/seyhan/zöhre eczanesi","direction":"https://www.google.com.tr/maps/dir/My+Location/36.9806283,35.3181052"},{"lat":36.9791919,"lng":35.3760483,"name":"19 Mayıs Eczanesi","address1":"Levent, Levent Cd 57/A, 01310 Yüreğir/Adana, Turkey","address2":"adana/yüreğir/19 mayıs eczanesi","direction":"https://www.google.com.tr/maps/dir/My+Location/36.9791919,35.3760483"},{"lat":37.0086979,"lng":35.3618526,"name":"Adana Eczanesi","address1":"Serinevler, 3880. Sk. No:4, 01240 Yüreğir/Adana, Turkey","address2":"adana/yüreğir/adana eczanesi","direction":"https://www.google.com.tr/maps/dir/My+Location/37.0086979,35.3618526"},{"lat":37.020165,"lng":35.3715181,"name":"Adem Eczanesi","address1":"Ptt, Orkide Cd. 24 A, 01240 Yüreğir/Adana, Turkey","address2":"adana/yüreğir/adem eczanesi","direction":"https://www.google.com.tr/maps/dir/My+Location/37.020165,35.3715181"},{"lat":36.9972219,"lng":35.3702045,"name":"Afetevleri Eczanesi","address1":"Atakent, Afetevleri Eczanesi, Yaşar Doğu Cd. 111/A, 01220 Yüreğir/Adana, Turkey","address2":"adana/yüreğir/afetevleri eczanesi","direction":"https://www.google.com.tr/maps/dir/My+Location/36.9972219,35.3702045"},{"lat":36.9952327,"lng":35.3544132,"name":"Akıncılar Eczanesi","address1":"Akıncılar, Kozan Cd. No:4, 01220 Yüreğir/Adana, Turkey","address2":"adana/yüreğir/akıncılar eczanesi","direction":"https://www.google.com.tr/maps/dir/My+Location/36.9952327,35.3544132"},{"lat":37.0017599,"lng":35.3825634,"name":"Alagöz Eczanesi","address1":"Çamlıbel Mah, Gelincik Cd. No:42/A, 01260 Yüreğir/Adana, Turkey","address2":"adana/yüreğir/alagöz eczanesi","direction":"https://www.google.com.tr/maps/dir/My+Location/37.0017599,35.3825634"},{"lat":36.9971577,"lng":35.3705206,"name":"Arıoğlu Eczanesi","address1":"Atakent, 01220 Yüreğir/Adana, Turkey","address2":"adana/yüreğir/arıoğlu eczanesi","direction":"https://www.google.com.tr/maps/dir/My+Location/36.9971577,35.3705206"},{"lat":36.997293,"lng":35.3695748,"name":"Arzum Eczanesi","address1":"Atakent, 01220 Yüreğir/Adana, Turkey","address2":"adana/yüreğir/arzum eczanesi","direction":"https://www.google.com.tr/maps/dir/My+Location/36.997293,35.3695748"},{"lat":37.0011333,"lng":35.3426176,"name":"Ayas Eczanesi","address1":"Yavuzlar, Kışla Cd. 239/1 D:1, 01220 Yüreğir/Adana, Turkey","address2":"adana/yüreğir/ayas eczanesi","direction":"https://www.google.com.tr/maps/dir/My+Location/37.0011333,35.3426176"},{"lat":36.982952,"lng":35.344456,"name":"Ayça Eczanesi","address1":"Cumhuriyet, 01345 Yüreğir/Adana, Turkey","address2":"adana/yüreğir/ayça eczanesi","direction":"https://www.google.com.tr/maps/dir/My+Location/36.982952,35.344456"},{"lat":37.0030424,"lng":35.363639,"name":"Aydındağ Eczanesi","address1":"Dadaloğlu, 2591. Sk. No:39, 01250 Yüreğir/Adana, Turkey","address2":"adana/yüreğir/aydındağ eczanesi","direction":"https://www.google.com.tr/maps/dir/My+Location/37.0030424,35.363639"},{"lat":37.0026311,"lng":35.3724268,"name":"Ayfer Tekin Eczanesi","address1":"Kiremithane, 01260 Yüreğir/Adana, Turkey","address2":"adana/yüreğir/ayfer tekin eczanesi","direction":"https://www.google.com.tr/maps/dir/My+Location/37.0026311,35.3724268"},{"lat":36.976187,"lng":35.346184,"name":"Aykan Eczanesi","address1":"Yamaçlı Mh., 01280 Yüreğir/Adana, Turkey","address2":"adana/yüreğir/aykan eczanesi","direction":"https://www.google.com.tr/maps/dir/My+Location/36.976187,35.346184"},{"lat":37.0010111,"lng":35.3824245,"name":"Bereket Eczanesi","address1":"Çamlıbel, 01250 Yüreğir/Adana, Turkey","address2":"adana/yüreğir/bereket eczanesi","direction":"https://www.google.com.tr/maps/dir/My+Location/37.0010111,35.3824245"},{"lat":36.9784865,"lng":35.36535,"name":"Berfin Gören Eczanesi","address1":"19 Mayıs, 1062. Sk. No:55, 01316 Yüreğir/Adana, Turkey","address2":"adana/yüreğir/berfin gören eczanesi","direction":"https://www.google.com.tr/maps/dir/My+Location/36.9784865,35.36535"},{"lat":37.0044552,"lng":35.3636072,"name":"Bolat Eczanesi","address1":"Dadaloğlu, 2608. Sk. No:1211, 01250 Yüreğir/Adana, Turkey","address2":"adana/yüreğir/bolat eczanesi","direction":"https://www.google.com.tr/maps/dir/My+Location/37.0044552,35.3636072"},