[{"lat":38.4275,"lng":27.4188,"name":"Medea  Eczanesi","address1":"Kemalpaşa, İzmir, Turkey","address2":"izmir/kemalpaşa/medea  eczanesi","direction":"https://www.google.com.tr/maps/dir/My+Location/38.4275,27.4188"},{"lat":39.3202,"lng":26.693328,"name":"Cemre Eczanesi","address1":"İsmetpaşa Mahallesi, Cumhuriyet Caddesi 3. Sokak, No:14/A, İsmetpaşa, 10400 Ayvalık/İzmir, Turkey","address2":"izmir/ayvalık/cemre eczanesi","direction":"https://www.google.com.tr/maps/dir/My+Location/39.3202,26.693328"},{"lat":38.423734,"lng":27.142826,"name":"Uğur Eczanesi","address1":"İzmir, Turkey","address2":"izmir/balıkesir merkez/uğur eczanesi","direction":"https://www.google.com.tr/maps/dir/My+Location/38.423734,27.142826"},{"lat":38.4631546,"lng":27.1162268,"name":"Asya Eczanesi","address1":"Bahariye, Zübeyde Hanım Cd. 96 B, 35600 Karşıyaka/İzmir, Turkey","address2":"izmir/karşıyaka/asya eczanesi","direction":"https://www.google.com.tr/maps/dir/My+Location/38.4631546,27.1162268"},{"lat":38.4608756,"lng":27.1231496,"name":"Bağcı Eczanesi","address1":"Tersane, 1672/1. Sk. No:50/B, 35600 Karşıyaka/İzmir, Turkey","address2":"izmir/karşıyaka/bağcı eczanesi","direction":"https://www.google.com.tr/maps/dir/My+Location/38.4608756,27.1231496"},{"lat":38.4624447,"lng":27.1249037,"name":"Bağdatlı Eczanesi","address1":"Alaybey, 1671. Sk. 27/B, 35600 Karşıyaka/İzmir, Turkey","address2":"izmir/karşıyaka/bağdatlı eczanesi","direction":"https://www.google.com.tr/maps/dir/My+Location/38.4624447,27.1249037"},{"lat":38.466579,"lng":27.117329,"name":"Barbaros Eczanesi","address1":"Bahçelievler, Cevdet Bilsay Cd. No:114/C, 35600 Karşıyaka/İzmir, Turkey","address2":"izmir/karşıyaka/barbaros eczanesi","direction":"https://www.google.com.tr/maps/dir/My+Location/38.466579,27.117329"},{"lat":38.460394,"lng":27.124623,"name":"Batı Eczanesi","address1":"Alaybey, Şht. Asım Aksoy Cd. 17 C, 35600 Karşıyaka/İzmir, Turkey","address2":"izmir/karşıyaka/batı eczanesi","direction":"https://www.google.com.tr/maps/dir/My+Location/38.460394,27.124623"},{"lat":38.462513,"lng":27.1250815,"name":"Berra Eczanesi","address1":"Tersane, 1671. Sk., 35600 Karşıyaka/İzmir, Turkey","address2":"izmir/karşıyaka/berra eczanesi","direction":"https://www.google.com.tr/maps/dir/My+Location/38.462513,27.1250815"},{"lat":38.4632775,"lng":27.1216266,"name":"Boran Eczanesi","address1":"Bahçelievler, 1705. Sk. No:7, 35600 Karşıyaka/İzmir, Turkey","address2":"izmir/karşıyaka/boran eczanesi","direction":"https://www.google.com.tr/maps/dir/My+Location/38.4632775,27.1216266"},{"lat":38.4656174,"lng":27.122467,"name":"Esma Eczanesi","address1":"Bahçelievler, Cevdet Bilsay Cd. No:53, 35600 Karşıyaka/İzmir, Turkey","address2":"izmir/karşıyaka/esma eczanesi","direction":"https://www.google.com.tr/maps/dir/My+Location/38.4656174,27.122467"},{"lat":38.4634143,"lng":27.1161148,"name":"Geçer Eczanesi","address1":"Bahariye Mh. Zübeyde Hanım Cd. Pk:35600 Karşıyaka/izmir, Bahariye, 35600 Karşıyaka/İzmir, Turkey","address2":"izmir/karşıyaka/geçer eczanesi","direction":"https://www.google.com.tr/maps/dir/My+Location/38.4634143,27.1161148"},{"lat":38.459899,"lng":27.120731,"name":"Gökay Eczanesi","address1":"Alaybey, 1690. Sk. 102 A, 35600 Karşıyaka/İzmir, Turkey","address2":"izmir/karşıyaka/gökay eczanesi","direction":"https://www.google.com.tr/maps/dir/My+Location/38.459899,27.120731"},{"lat":38.4590771,"lng":27.1258933,"name":"Günaydın Eczanesi","address1":"Alaybey, Cemal Gürsel Cad. 52/A, 35600 Karşıyaka/İzmir, Turkey","address2":"izmir/karşıyaka/günaydın eczanesi","direction":"https://www.google.com.tr/maps/dir/My+Location/38.4590771,27.1258933"},{"lat":38.466508,"lng":27.1188779,"name":"Ihlamur Eczanesi","address1":"Bahçelievler, Yaşar Aksoy Sk. 121 C, 35600 Karşıyaka/İzmir, Turkey","address2":"izmir/karşıyaka/ihlamur eczanesi","direction":"https://www.google.com.tr/maps/dir/My+Location/38.466508,27.1188779"},{"lat":38.463908,"lng":27.1206871,"name":"Körfez Eczanesi","address1":"Bahçelievler, 1707. Sk. 10 A, 35600 Karşıyaka/İzmir, Turkey","address2":"izmir/karşıyaka/körfez eczanesi","direction":"https://www.google.com.tr/maps/dir/My+Location/38.463908,27.1206871"},{"lat":38.4650684,"lng":27.1223574,"name":"Lider Eczanesi","address1":"Bahçelievler, 1703/1. Sk. No:50/F, 35600 Karşıyaka/İzmir, Turkey","address2":"izmir/karşıyaka/lider eczanesi","direction":"https://www.google.com.tr/maps/dir/My+Location/38.4650684,27.1223574"},{"lat":38.459295,"lng":27.1252598,"name":"Muratcan Eczanesi","address1":"Alaybey, 35600 Karşıyaka/İzmir, Turkey","address2":"izmir/karşıyaka/muratcan eczanesi","direction":"https://www.google.com.tr/maps/dir/My+Location/38.459295,27.1252598"},{"lat":38.463752,"lng":27.120399,"name":"Paksoy Eczanesi","address1":"Bahçelievler Mah, 1707. Sk. No:5 D:1A, 35600 Karşıyaka/İzmir, Turkey","address2":"izmir/karşıyaka/paksoy eczanesi","direction":"https://www.google.com.tr/maps/dir/My+Location/38.463752,27.120399"},{"lat":38.462009,"lng":27.1188735,"name":"Serdaroğlu Eczanesi","address1":"Bahariye, Yaşar Aksoy Sk. No:18/A, 35600 Karşıyaka/İzmir, Turkey","address2":"izmir/karşıyaka/serdaroğlu eczanesi","direction":"https://www.google.com.tr/maps/dir/My+Location/38.462009,27.1188735"},{"lat":38.4636824,"lng":27.118817,"name":"Sönmezer Eczanesi","address1":"Bahçelievler, Şht. İbrahim Er Sk. 43 E, 35600 Karşıyaka/İzmir, Turkey","address2":"izmir/karşıyaka/sönmezer eczanesi","direction":"https://www.google.com.tr/maps/dir/My+Location/38.4636824,27.118817"},{"lat":38.4664944,"lng":27.1190358,"name":"Tanseli Eczanesi","address1":"Yaşar Aksoy Sokak 1850 Sk, Bahçelievler, No:121/c, 35600 Karşıyaka/İzmir, Turkey","address2":"izmir/karşıyaka/tanseli eczanesi","direction":"https://www.google.com.tr/maps/dir/My+Location/38.4664944,27.1190358"},{"lat":38.4607093,"lng":27.1228648,"name":"Tanyel Eczanesi","address1":"Alaybey, Şht. Asım Aksoy Cd. No:47, 35600 Karşıyaka/İzmir, Turkey","address2":"izmir/karşıyaka/tanyel eczanesi","direction":"https://www.google.com.tr/maps/dir/My+Location/38.4607093,27.1228648"},{"lat":38.463518,"lng":27.1206439,"name":"Tokgöz Eczanesi","address1":"Bahçelievler, 1707. Sk. No:2, 35600 Karşıyaka/İzmir, Turkey","address2":"izmir/karşıyaka/tokgöz eczanesi","direction":"https://www.google.com.tr/maps/dir/My+Location/38.463518,27.1206439"},{"lat":38.4633913,"lng":27.1162676,"name":"Uğurum Eczanesi","address1":"Bahariye Mahallesi, Zübeyde Hanım Cd. No:102/A, 35600 Karşıyaka/İzmir, Turkey","address2":"izmir/karşıyaka/uğurum eczanesi","direction":"https://www.google.com.tr/maps/dir/My+Location/38.4633913,27.1162676"},{"lat":38.4624049,"lng":27.1248076,"name":"Yeni Figen Eczanesi","address1":"Tersane, 1671. Sk. No:27, 35600 Karşıyaka/İzmir, Turkey","address2":"izmir/karşıyaka/yeni figen eczanesi","direction":"https://www.google.com.tr/maps/dir/My+Location/38.4624049,27.1248076"},{"lat":38.787384,"lng":26.976009,"name":"Aliağa Deva Eczanesi","address1":"Yeni, Rumeli Cd. No:8, 35800 Aliağa/İzmir, Turkey","address2":"izmir/aliağa/aliağa deva eczanesi","direction":"https://www.google.com.tr/maps/dir/My+Location/38.787384,26.976009"},{"lat":38.7980915,"lng":26.9743123,"name":"Aliağa Eczanesi","address1":"Kurtuluş, Fevzi Paşa Cad. No:121, 35800 Aliağa/İzmir, Turkey","address2":"izmir/aliağa/aliağa eczanesi","direction":"https://www.google.com.tr/maps/dir/My+Location/38.7980915,26.9743123"},{"lat":38.786231,"lng":26.976224,"name":"Aloğlu Eczanesi","address1":"Yeni, Mehmet Akif Cd. No:46, 35800 Aliağa/İzmir, Turkey","address2":"izmir/aliağa/aloğlu eczanesi","direction":"https://www.google.com.tr/maps/dir/My+Location/38.786231,26.976224"},{"lat":38.793708,"lng":26.970968,"name":"Barın Eczanesi","address1":"Atatürk, Güneş Sk. No:6/B, 35800 Aliağa/İzmir, Turkey","address2":"izmir/aliağa/barın eczanesi","direction":"https://www.google.com.tr/maps/dir/My+Location/38.793708,26.970968"},{"lat":38.8003992,"lng":26.9748973,"name":"Bilgin Eczanesi","address1":"Kurtuluş, Fevzi Paşa Cd. 77/A, 35800 Aliağa/İzmir, Turkey","address2":"izmir/aliağa/bilgin eczanesi","direction":"https://www.google.com.tr/maps/dir/My+Location/38.8003992,26.9748973"},{"lat":38.7903356,"lng":26.9624064,"name":"Deniz Eczanesi","address1":"SİTELER MAH. ARİF BALAMİR CD NO:5/A, Siteler, 35800 Aliağa/İzmir, Turkey","address2":"izmir/aliağa/deniz eczanesi","direction":"https://www.google.com.tr/maps/dir/My+Location/38.7903356,26.9624064"},{"lat":38.8027545,"lng":26.9705049,"name":"Derman Eczanesi","address1":"Atatürk Cd., Kültür, 35800 Aliaga/Aliağa/İzmir, Turkey","address2":"izmir/aliağa/derman eczanesi","direction":"https://www.google.com.tr/maps/dir/My+Location/38.8027545,26.9705049"},{"lat":38.7964109,"lng":26.9745446,"name":"Edikli Eczanesi","address1":"Kurtuluş, Fevzi Paşa Cd. 120/A, 35800 Aliağa/İzmir, Turkey","address2":"izmir/aliağa/edikli eczanesi","direction":"https://www.google.com.tr/maps/dir/My+Location/38.7964109,26.9745446"},{"lat":38.787276,"lng":26.97632,"name":"Esra Eczanesi","address1":"Yeni, Rumeli Cd. 6/1A, 35800 Aliağa/İzmir, Turkey","address2":"izmir/aliağa/esra eczanesi","direction":"https://www.google.com.tr/maps/dir/My+Location/38.787276,26.97632"},{"lat":38.802575,"lng":26.9703714,"name":"Güler Eczanesi","address1":"Kültür, Atatürk Cad. 68/A, 35800 Aliağa/İzmir, Turkey","address2":"izmir/aliağa/güler eczanesi","direction":"https://www.google.com.tr/maps/dir/My+Location/38.802575,26.9703714"},{"lat":38.8031372,"lng":26.9711224,"name":"Gültekin Eczanesi","address1":"Kültür, Atatürk Cd. No:58, 35800 Aliağa/İzmir, Turkey","address2":"izmir/aliağa/gültekin eczanesi","direction":"https://www.google.com.tr/maps/dir/My+Location/38.8031372,26.9711224"},{"lat":38.8014802,"lng":26.9765371,"name":"Hazal Eczanesi","address1":"Kültür, 252. Sk. NO:10/A, 35800 Aliağa/İzmir, Turkey","address2":"izmir/aliağa/hazal eczanesi","direction":"https://www.google.com.tr/maps/dir/My+Location/38.8014802,26.9765371"},{"lat":38.801157,"lng":26.972593,"name":"Melek Eczanesi","address1":"Kültür, İstiklal Cad. 64/B, 35800 Aliağa/İzmir, Turkey","address2":"izmir/aliağa/melek eczanesi","direction":"https://www.google.com.tr/maps/dir/My+Location/38.801157,26.972593"},{"lat":38.786894,"lng":26.976153,"name":"Serhat Eczanesi","address1":"Yeni, 529 Sok. 39/A, 35800 Aliağa/İzmir, Turkey","address2":"izmir/aliağa/serhat eczanesi","direction":"https://www.google.com.tr/maps/dir/My+Location/38.786894,26.976153"},{"lat":38.786336,"lng":26.975066,"name":"Ufkum Eczanesi","address1":"Yeni, 530. Sk., 35800 Aliağa/İzmir, Turkey","address2":"izmir/aliağa/ufkum eczanesi","direction":"https://www.google.com.tr/maps/dir/My+Location/38.786336,26.975066"},{"lat":38.434553,"lng":27.1433601,"name":"Alsancak Akay Eczanesi","address1":"Kültür, Ali Çetinkaya Blv No:33/C, 35220 Konak/İzmir, Turkey","address2":"izmir/konak/alsancak akay eczanesi","direction":"https://www.google.com.tr/maps/dir/My+Location/38.434553,27.1433601"},{"lat":38.4345304,"lng":27.1431855,"name":"Alsancak Dinçarslan Eczanesi","address1":"Alsancak, Ali Çetinkaya Blv no 35/b, 35220 Konak/İzmir, Turkey","address2":"izmir/konak/alsancak dinçarslan eczanesi","direction":"https://www.google.com.tr/maps/dir/My+Location/38.4345304,27.1431855"},{"lat":38.4335302,"lng":27.1989288,"name":"Alsancak Platin Eczanesi","address1":"Alsancak, Gazi Osman Paşa, 35090 Bornova/İzmir, Turkey","address2":"izmir/bornova/alsancak platin eczanesi","direction":"https://www.google.com.tr/maps/dir/My+Location/38.4335302,27.1989288"},{"lat":38.435938,"lng":27.144729,"name":"Berrin Eczanesi","address1":"Alsancak, 1456. Sk. 98 A, 35220 Konak/İzmir, Turkey","address2":"izmir/konak/berrin eczanesi","direction":"https://www.google.com.tr/maps/dir/My+Location/38.435938,27.144729"},{"lat":38.4361274,"lng":27.145355,"name":"Bulvar Eczanesi","address1":"Alsancak, Talatpaşa Blv No: 61 D:E, 35220 Konak/İzmir, Turkey","address2":"izmir/konak/bulvar eczanesi","direction":"https://www.google.com.tr/maps/dir/My+Location/38.4361274,27.145355"},{"lat":38.4328811,"lng":27.1402806,"name":"Çağın Eczanesi","address1":"Kültür, Meksika sokağı 7/A, 35220 Konak/İzmir, Turkey","address2":"izmir/konak/çağın eczanesi","direction":"https://www.google.com.tr/maps/dir/My+Location/38.4328811,27.1402806"},{"lat":38.434498,"lng":27.143688,"name":"Emek Eczanesi","address1":"Kültür, 1438. Sk. No:1 D:No.8/A, 35220 Konak/İzmir, Turkey","address2":"izmir/konak/emek eczanesi","direction":"https://www.google.com.tr/maps/dir/My+Location/38.434498,27.143688"},{"lat":38.4354491,"lng":27.144835,"name":"Erengin Eczanesi","address1":"Alsancak, Talatpaşa Blv No:64/A, 35220 Konak/İzmir, Turkey","address2":"izmir/konak/erengin eczanesi","direction":"https://www.google.com.tr/maps/dir/My+Location/38.4354491,27.144835"},{"lat":38.434304,"lng":27.144318,"name":"Eser Eczanesi","address1":"Kültür, Ali Çetinkaya Blv 51/A, 35220 Konak/İzmir, Turkey","address2":"izmir/konak/eser eczanesi","direction":"https://www.google.com.tr/maps/dir/My+Location/38.434304,27.144318"},{"lat":38.435269,"lng":27.143684,"name":"Flora Eczanesi","address1":"Alsancak, Talatpaşa Blv 45-1 A D:No.16/A, 35220 Konak/İzmir, Turkey","address2":"izmir/konak/flora eczanesi","direction":"https://www.google.com.tr/maps/dir/My+Location/38.435269,27.143684"},{"lat":38.435401,"lng":27.144029,"name":"Gönül Eczanesi","address1":"Alsancak Mh. Talatpaşa Blv. Pk:35220 Konak/izmir, Alsancak, 35220 Konak/İzmir, Turkey","address2":"izmir/konak/gönül eczanesi","direction":"https://www.google.com.tr/maps/dir/My+Location/38.435401,27.144029"},{"lat":38.4341767,"lng":27.1421196,"name":"Kültür Eczanesi","address1":"Kültür, Nevvar Salih İşgören Sk No:1 D:1-a, 35220 Konak/İzmir, Turkey","address2":"izmir/konak/kültür eczanesi","direction":"https://www.google.com.tr/maps/dir/My+Location/38.4341767,27.1421196"},{"lat":38.4350243,"lng":27.1436578,"name":"Kurtoğlu Eczanesi","address1":"Kültür, Talatpaşa Bul., 35220 Konak/İzmir, Turkey","address2":"izmir/konak/kurtoğlu eczanesi","direction":"https://www.google.com.tr/maps/dir/My+Location/38.4350243,27.1436578"},{"lat":38.4344872,"lng":27.1435948,"name":"Liman Eczanesi","address1":"Kültür, Ali Çetinkaya Blv 39 B, 35220 Konak/İzmir, Turkey","address2":"izmir/konak/liman eczanesi","direction":"https://www.google.com.tr/maps/dir/My+Location/38.4344872,27.1435948"},{"lat":38.4398345,"lng":27.1465141,"name":"Nilgün Eczanesi","address1":"Alsancak, 1472. Sk. No:42/A, 35220 Konak/İzmir, Turkey","address2":"izmir/konak/nilgün eczanesi","direction":"https://www.google.com.tr/maps/dir/My+Location/38.4398345,27.1465141"},{"lat":38.4363575,"lng":27.1461425,"name":"Okay Eczanesi","address1":"Kültür Mahallesi, Alsancak, Talatpaşa Blv No:71/C, 35220 Konak/İzmir, Turkey","address2":"izmir/konak/okay eczanesi","direction":"https://www.google.com.tr/maps/dir/My+Location/38.4363575,27.1461425"},{"lat":38.436429,"lng":27.1428591,"name":"Özlem Eczanesi","address1":"Alsancak Mah, Kıbrıs Şehitleri Cd. No:53/B, 35220 Konak/İzmir, Turkey","address2":"izmir/konak/özlem eczanesi","direction":"https://www.google.com.tr/maps/dir/My+Location/38.436429,27.1428591"},{"lat":38.4121357,"lng":27.1294065,"name":"Sam Eczanesi","address1":"Namık Kemal, 421. Sk. 06 04, 35260 Konak/İzmir, Turkey","address2":"izmir/konak/sam eczanesi","direction":"https://www.google.com.tr/maps/dir/My+Location/38.4121357,27.1294065"},{"lat":38.4396927,"lng":27.1469906,"name":"Şükran Eczanesi","address1":"Alsancak, Atatürk Cd. 414 A, 35220 Konak/İzmir, Turkey","address2":"izmir/konak/şükran eczanesi","direction":"https://www.google.com.tr/maps/dir/My+Location/38.4396927,27.1469906"},{"lat":38.433823,"lng":27.143755,"name":"Türksoy Eczanesi","address1":"Kültür, 35220 Konak/İzmir, Turkey","address2":"izmir/konak/türksoy eczanesi","direction":"https://www.google.com.tr/maps/dir/My+Location/38.433823,27.143755"},{"lat":38.43466,"lng":27.144489,"name":"Uygun Eczanesi","address1":"Kültür, 1437. Sk. Pk:35220, 35220 Konak/İzmir, Turkey","address2":"izmir/konak/uygun eczanesi","direction":"https://www.google.com.tr/maps/dir/My+Location/38.43466,27.144489"},{"lat":38.4345096,"lng":27.1434634,"name":"Yeni Özcan Eczanesi","address1":"Kültür, Ali Çetinkaya Blv No:37/A, 35220 Konak/İzmir, Turkey","address2":"izmir/konak/yeni özcan eczanesi","direction":"https://www.google.com.tr/maps/dir/My+Location/38.4345096,27.1434634"},{"lat":38.426299,"lng":27.138454,"name":"Ada Eczanesi","address1":"İsmet Kaptan Mahallesi, Hürriyet Blv. 4/1a, 35280 Konak/İzmir, Turkey","address2":"izmir/konak/ada eczanesi","direction":"https://www.google.com.tr/maps/dir/My+Location/38.426299,27.138454"},{"lat":38.4271281,"lng":27.139329,"name":"Ali Çetinkaya Eczanesi","address1":"İsmet Kaptan, 1373. Sk. No:4 D:4/C, 35220 Konak/İzmir, Turkey","address2":"izmir/konak/ali çetinkaya eczanesi","direction":"https://www.google.com.tr/maps/dir/My+Location/38.4271281,27.139329"},{"lat":38.4325415,"lng":27.1479728,"name":"Alış Eczanesi","address1":"Mimar Sinan, Işılay Saygın Sokağı No:16/A, 35220 Konak/İzmir, Turkey","address2":"izmir/konak/alış eczanesi","direction":"https://www.google.com.tr/maps/dir/My+Location/38.4325415,27.1479728"},{"lat":38.430604,"lng":27.13989,"name":"Alsancak Eczanesi","address1":"Kültür, Şevket Özçelik Sk. No:33/D, 35220 Konak/İzmir, Turkey","address2":"izmir/konak/alsancak eczanesi","direction":"https://www.google.com.tr/maps/dir/My+Location/38.430604,27.13989"},{"lat":38.4314034,"lng":27.1400805,"name":"Alsancak Park Eczanesi","address1":"Kültür, Şevket Özçelik Sk. 16/a, 35220 Konak/İzmir, Turkey","address2":"izmir/konak/alsancak park eczanesi","direction":"https://www.google.com.tr/maps/dir/My+Location/38.4314034,27.1400805"},{"lat":38.4261587,"lng":27.1393227,"name":"Asrın Eczanesi","address1":"İsmet Kaptan, Hürriyet Blv. 5 C, 35210 Konak/İzmir, Turkey","address2":"izmir/konak/asrın eczanesi","direction":"https://www.google.com.tr/maps/dir/My+Location/38.4261587,27.1393227"},{"lat":38.427727,"lng":27.149936,"name":"Atagün Eczanesi","address1":"Kahramanlar, 1396. Sk. No:3/C, 35230 Konak/İzmir, Turkey","address2":"izmir/konak/atagün eczanesi","direction":"https://www.google.com.tr/maps/dir/My+Location/38.427727,27.149936"},{"lat":38.4329452,"lng":27.1436994,"name":"Çubukçu Eczanesi","address1":"Kültür, Şair Eşref Blv. No:57 D:g, 35220 Konak/İzmir, Turkey","address2":"izmir/konak/çubukçu eczanesi","direction":"https://www.google.com.tr/maps/dir/My+Location/38.4329452,27.1436994"},{"lat":38.427203,"lng":27.1391852,"name":"Dinçarslan Eczanesi","address1":"İsmet Kaptan Mahallesi Sezer doğan sok, Konak, 1374. Sokak 22/b, 35022 Konak/İzmir, Turkey","address2":"izmir/konak/dinçarslan eczanesi","direction":"https://www.google.com.tr/maps/dir/My+Location/38.427203,27.1391852"},{"lat":38.429937,"lng":27.151914,"name":"Düşüm Eczanesi","address1":"Mimar Sinan, ÖZEL GAZİ HASTANESİ YANI, Can Kulduk Sk. No:15, 35220 Konak/İzmir, Turkey","address2":"izmir/konak/düşüm eczanesi","direction":"https://www.google.com.tr/maps/dir/My+Location/38.429937,27.151914"},{"lat":38.43098,"lng":27.1496588,"name":"Enis Özkan Eczanesi","address1":"Mimar Sinan, Mimar Sinan Cd. No:27/A, 35220 Konak/İzmir, Turkey","address2":"izmir/konak/enis özkan eczanesi","direction":"https://www.google.com.tr/maps/dir/My+Location/38.43098,27.1496588"},{"lat":38.431856,"lng":27.1500682,"name":"Esin Eczanesi","address1":"Mimar Sinan, 1420. Sk. 86 A, 35220 Konak/İzmir, Turkey","address2":"izmir/konak/esin eczanesi","direction":"https://www.google.com.tr/maps/dir/My+Location/38.431856,27.1500682"},{"lat":38.427962,"lng":27.1397401,"name":"Fakülte Eczanesi","address1":"İsmet Kaptan, 1374. Sk. 30 A, 35210 Konak/İzmir, Turkey","address2":"izmir/konak/fakülte eczanesi","direction":"https://www.google.com.tr/maps/dir/My+Location/38.427962,27.1397401"},{"lat":38.4322248,"lng":27.1476835,"name":"Fuar Eczanesi","address1":"Mimar Sinan, 1400. Sk. No:11/D, 35220 Konak/İzmir, Turkey","address2":"izmir/konak/fuar eczanesi","direction":"https://www.google.com.tr/maps/dir/My+Location/38.4322248,27.1476835"},{"lat":38.4324423,"lng":27.1499459,"name":"Göçen Eczanesi","address1":"Alsancak, 1420. Sk. no:96/B, 35220 Konak/İzmir, Turkey","address2":"izmir/konak/göçen eczanesi","direction":"https://www.google.com.tr/maps/dir/My+Location/38.4324423,27.1499459"},{"lat":38.4340818,"lng":27.1454562,"name":"Gür Eczanesi","address1":"Mimar Sinan, Ali Çetinkaya Blv No:61, 35220 Konak/İzmir, Turkey","address2":"izmir/konak/gür eczanesi","direction":"https://www.google.com.tr/maps/dir/My+Location/38.4340818,27.1454562"},{"lat":38.432651,"lng":27.14837,"name":"İzmiroğlu Eczanesi","address1":"Mimar Sinan, Işılay Saygın Sokağı No:15/A, 35220 Konak/İzmir, Turkey","address2":"izmir/konak/izmiroğlu eczanesi","direction":"https://www.google.com.tr/maps/dir/My+Location/38.432651,27.14837"},{"lat":38.4256184,"lng":27.1507972,"name":"Karadeniz Eczanesi","address1":"Kahramanlar, 1418. Sk. No:18, 35230 Konak/İzmir, Turkey","address2":"izmir/konak/karadeniz eczanesi","direction":"https://www.google.com.tr/maps/dir/My+Location/38.4256184,27.1507972"},{"lat":38.427151,"lng":27.1337474,"name":"Levent Eczanesi","address1":"Akdeniz, Akdeniz Cd. No:8/G, 35210 Konak/İzmir, Turkey","address2":"izmir/konak/levent eczanesi","direction":"https://www.google.com.tr/maps/dir/My+Location/38.427151,27.1337474"},{"lat":38.4304666,"lng":27.1401483,"name":"Lozan Eczanesi","address1":"Kültür Mahallesi, Alsancak, Vasıf Çınar Blv No: 17-B D:No: 17-B, 35220 Konak/İzmir, Turkey","address2":"izmir/konak/lozan eczanesi","direction":"https://www.google.com.tr/maps/dir/My+Location/38.4304666,27.1401483"},{"lat":38.4332629,"lng":27.147874,"name":"Meram Eczanesi","address1":"Mimar Sinan, Ali Çetinkaya Blv No:56/B, 35220 Konak/İzmir, Turkey","address2":"izmir/konak/meram eczanesi","direction":"https://www.google.com.tr/maps/dir/My+Location/38.4332629,27.147874"},{"lat":38.427123,"lng":27.139365,"name":"Montrö Eczanesi","address1":"İsmet Kaptan, 1373. Sk. No:4/A, 35210 Konak/İzmir, Turkey","address2":"izmir/konak/montrö eczanesi","direction":"https://www.google.com.tr/maps/dir/My+Location/38.427123,27.139365"},{"lat":38.4320682,"lng":27.1401246,"name":"Murat Güner Eczanesi","address1":"Kültür Mh., Kültür, 1386 Meksika sokak no:17/B, Alsancak, 35220 Konak/İzmir, Turkey","address2":"izmir/konak/murat güner eczanesi","direction":"https://www.google.com.tr/maps/dir/My+Location/38.4320682,27.1401246"},{"lat":38.4331716,"lng":27.1497149,"name":"Okuyucu Eczanesi","address1":"Mimar Sinan, 1420. Sk. 102-A, 35220 Konak/İzmir, Turkey","address2":"izmir/konak/okuyucu eczanesi","direction":"https://www.google.com.tr/maps/dir/My+Location/38.4331716,27.1497149"},{"lat":38.4307048,"lng":27.1399011,"name":"Özlem Sayıner Eczanesi","address1":"Kültür Mahallesi, Konak, 1379 Şevket Özçelik Sok. No:22 Alsancak, 35220 Konak/İzmir, Turkey","address2":"izmir/konak/özlem sayıner eczanesi","direction":"https://www.google.com.tr/maps/dir/My+Location/38.4307048,27.1399011"},{"lat":38.428011,"lng":27.1502971,"name":"Öztürk Eczanesi","address1":"Kahramanlar, Akıncılar Cd. No:54/A, 35230 Konak/İzmir, Turkey","address2":"izmir/konak/öztürk eczanesi","direction":"https://www.google.com.tr/maps/dir/My+Location/38.428011,27.1502971"},{"lat":38.4306391,"lng":27.1395597,"name":"Palanduz Eczanesi","address1":"Alsancak, Vasıf Çınar Bulv. 15/B, 35220 Konak/İzmir, Turkey","address2":"izmir/konak/palanduz eczanesi","direction":"https://www.google.com.tr/maps/dir/My+Location/38.4306391,27.1395597"},{"lat":38.407058,"lng":27.1046445,"name":"Petek Eczanesi","address1":"Mithatpaşa, Mithatpaşa Cd. 535/A, 35280 Konak/İzmir, Turkey","address2":"izmir/konak/petek eczanesi","direction":"https://www.google.com.tr/maps/dir/My+Location/38.407058,27.1046445"},{"lat":38.4261219,"lng":27.1503238,"name":"Sel Eczanesi","address1":"Kahramanlar, 1416. Sok. 16/A, 35230 Konak/İzmir, Turkey","address2":"izmir/konak/sel eczanesi","direction":"https://www.google.com.tr/maps/dir/My+Location/38.4261219,27.1503238"},{"lat":38.4306756,"lng":27.1492925,"name":"Talay Eczanesi","address1":"Mimar Sinan, Alsancak Vapur İskelesi No:29 D:1/a, 35220 Konak/İzmir, Turkey","address2":"izmir/konak/talay eczanesi","direction":"https://www.google.com.tr/maps/dir/My+Location/38.4306756,27.1492925"},{"lat":38.4260021,"lng":27.1497387,"name":"Tuğrul Eczanesi","address1":"Kahramanlar, 1416. Sk. Pk:35230, 35230 Konak/İzmir, Turkey","address2":"izmir/konak/tuğrul eczanesi","direction":"https://www.google.com.tr/maps/dir/My+Location/38.4260021,27.1497387"},{"lat":38.432023,"lng":27.150019,"name":"Tunç Eczanesi","address1":"Mimar Sinan, 1420. Sk. 88 A, 35220 Konak/İzmir, Turkey","address2":"izmir/konak/tunç eczanesi","direction":"https://www.google.com.tr/maps/dir/My+Location/38.432023,27.150019"},{"lat":38.431139,"lng":27.1500719,"name":"Yeni Egemen Eczanesi","address1":"Mimar Sinan, 1420. Sk. no 81-b, 35220 Konak/İzmir, Turkey","address2":"izmir/konak/yeni egemen eczanesi","direction":"https://www.google.com.tr/maps/dir/My+Location/38.431139,27.1500719"},{"lat":38.4298705,"lng":27.1517749,"name":"Yeni Kayhan Eczanesi","address1":"Kahramanlar, Can Kulduk Sk. 13/A-B, 35230 Konak/İzmir, Turkey","address2":"izmir/konak/yeni kayhan eczanesi","direction":"https://www.google.com.tr/maps/dir/My+Location/38.4298705,27.1517749"},{"lat":38.425839,"lng":27.150711,"name":"Zeynep Eczanesi","address1":"Kahramanlar, 1415. Sk. Pk:35230, 35260 Konak/İzmir, Turkey","address2":"izmir/konak/zeynep eczanesi","direction":"https://www.google.com.tr/maps/dir/My+Location/38.425839,27.150711"},{"lat":38.4258319,"lng":27.1977209,"name":"Altındağ Eczanesi","address1":"Birlik, Kemalpaşa Cd. No:193 A, 35080 Bornova/İzmir, Turkey","address2":"izmir/bornova/altındağ eczanesi","direction":"https://www.google.com.tr/maps/dir/My+Location/38.4258319,27.1977209"},{"lat":38.4258119,"lng":27.2005116,"name":"Atilla Eczanesi","address1":"Birlik, Kemalpaşa Cd. No:235/A, 35080 Bornova/İzmir, Turkey","address2":"izmir/bornova/atilla eczanesi","direction":"https://www.google.com.tr/maps/dir/My+Location/38.4258119,27.2005116"},{"lat":38.44243,"lng":27.187545,"name":"Balkan Eczanesi","address1":"Kazımdirik, 304 Sok. No:27 D:1, 35100 Bornova/İzmir, Turkey","address2":"izmir/bornova/balkan eczanesi","direction":"https://www.google.com.tr/maps/dir/My+Location/38.44243,27.187545"},{"lat":38.428617,"lng":27.1928571,"name":"Büyük Ünal Eczanesi","address1":"Tuna, Fazılpaşa Cd 46/A, 35080 Bornova/İzmir, Turkey","address2":"izmir/bornova/büyük ünal eczanesi","direction":"https://www.google.com.tr/maps/dir/My+Location/38.428617,27.1928571"},{"lat":38.4292968,"lng":27.1959682,"name":"Ece Sarı Eczanesi","address1":"Koşukavak, ASM Karşısı, 4202/2. Sk., 35080 Bornova/İzmir, Turkey","address2":"izmir/bornova/ece sarı eczanesi","direction":"https://www.google.com.tr/maps/dir/My+Location/38.4292968,27.1959682"},{"lat":38.4258319,"lng":27.1977209,"name":"Egem Eczanesi","address1":"Birlik, Kemalpaşa Cd. No:193 A, 35080 Bornova/İzmir, Turkey","address2":"izmir/bornova/egem eczanesi","direction":"https://www.google.com.tr/maps/dir/My+Location/38.4258319,27.1977209"},{"lat":38.4228312,"lng":27.1953896,"name":"Evren Eczanesi","address1":"Serintepe Mahallesi 4310. Sokak, No-2/C, Altındağ, Serintepe, 35080 Bornova/İzmir, Turkey","address2":"izmir/bornova/evren eczanesi","direction":"https://www.google.com.tr/maps/dir/My+Location/38.4228312,27.1953896"},{"lat":38.42998,"lng":27.199958,"name":"Gülbeyaz Eczanesi","address1":"Koşukavak, Kamil Tunca Cd No:36/A, 35080 Gökdere/Bornova/İzmir, Turkey","address2":"izmir/bornova/gülbeyaz eczanesi","direction":"https://www.google.com.tr/maps/dir/My+Location/38.42998,27.199958"},{"lat":38.4264588,"lng":27.1947579,"name":"İrem Eczanesi","address1":"Birlik, Kemalpaşa Cd. No:13, 35080 Bornova/İzmir, Turkey","address2":"izmir/bornova/irem eczanesi","direction":"https://www.google.com.tr/maps/dir/My+Location/38.4264588,27.1947579"},{"lat":38.4258319,"lng":27.1977209,"name":"Nehir Eczanesi","address1":"Birlik, Kemalpaşa Cd. No:193 A, 35080 Bornova/İzmir, Turkey","address2":"izmir/bornova/nehir eczanesi","direction":"https://www.google.com.tr/maps/dir/My+Location/38.4258319,27.1977209"},{"lat":38.4258193,"lng":27.1970056,"name":"Yeni Hoşgör Eczanesi","address1":"Serintepe, Kemalpaşa Cd. No:12/B, 35080 Bornova/İzmir, Turkey","address2":"izmir/bornova/yeni hoşgör eczanesi","direction":"https://www.google.com.tr/maps/dir/My+Location/38.4258193,27.1970056"},{"lat":38.4327779,"lng":27.1892929,"name":"Yeni Tuncay Eczanesi","address1":"Gazi Osman Paşa, Kamil Tunca Cd No:119/A, 35090 Gökdere/Bornova/İzmir, Turkey","address2":"izmir/bornova/yeni tuncay eczanesi","direction":"https://www.google.com.tr/maps/dir/My+Location/38.4327779,27.1892929"},{"lat":38.4224065,"lng":27.2051712,"name":"Zafer Eczanesi","address1":"25 B, Zafer, Yener Cd., 35080 Bornova/İzmir, Turkey","address2":"izmir/bornova/zafer eczanesi","direction":"https://www.google.com.tr/maps/dir/My+Location/38.4224065,27.2051712"},{"lat":38.425621,"lng":27.2008733,"name":"Zambak Eczanesi","address1":"Zafer, Kemalpaşa Cd. No:68, 35080 Bornova/İzmir, Turkey","address2":"izmir/bornova/zambak eczanesi","direction":"https://www.google.com.tr/maps/dir/My+Location/38.425621,27.2008733"},{"lat":38.2409717,"lng":27.2760583,"name":"Apak Eczanesi","address1":"Mustafa Kemal Paşa, 35860 Torbalı/İzmir, Turkey","address2":"izmir/torbalı/apak eczanesi","direction":"https://www.google.com.tr/maps/dir/My+Location/38.2409717,27.2760583"},{"lat":38.1980675,"lng":27.3429881,"name":"Artı Eczanesi","address1":"Arslanlar, İzmir Aydın Cd. NO:35 / A, 35860 Torbalı/İzmir, Turkey","address2":"izmir/torbalı/artı eczanesi","direction":"https://www.google.com.tr/maps/dir/My+Location/38.1980675,27.3429881"},{"lat":38.2380997,"lng":27.2792723,"name":"Aykut Eczanesi","address1":"İnönü, İzmir Aydın Cd. no:61, 35870 Torbalı/İzmir, Turkey","address2":"izmir/torbalı/aykut eczanesi","direction":"https://www.google.com.tr/maps/dir/My+Location/38.2380997,27.2792723"},{"lat":38.239784,"lng":27.2815281,"name":"Ayrancılar Eczanesi","address1":"Fevzi Çakmak Mahallesi, Barış Manço Cd. 18/b, 35860 Torbalı/İzmir, Turkey","address2":"izmir/torbalı/ayrancılar eczanesi","direction":"https://www.google.com.tr/maps/dir/My+Location/38.239784,27.2815281"},{"lat":38.2435284,"lng":27.2767508,"name":"Bahriye Eczanesi","address1":"Mustafa Kemal Paşa, 83. Sk. no:24, 35870 Torbalı/İzmir, Turkey","address2":"izmir/torbalı/bahriye eczanesi","direction":"https://www.google.com.tr/maps/dir/My+Location/38.2435284,27.2767508"},{"lat":38.243639,"lng":27.277113,"name":"Bizim Eczanesi","address1":"Mustafa Kemal Paşa, 74. Sk. No:29/A, 35860 Torbalı/İzmir, Turkey","address2":"izmir/torbalı/bizim eczanesi","direction":"https://www.google.com.tr/maps/dir/My+Location/38.243639,27.277113"},{"lat":38.4275,"lng":27.4188,"name":"Dilşeker Eczanesi","address1":"Kemalpaşa, İzmir, Turkey","address2":"izmir/kemalpaşa/dilşeker eczanesi","direction":"https://www.google.com.tr/maps/dir/My+Location/38.4275,27.4188"},{"lat":38.241009,"lng":27.276145,"name":"Ebru Eczanesi","address1":"Mustafa Kemal Paşa, 54. Sk. 2-4, 35860 Torbalı/İzmir, Turkey","address2":"izmir/torbalı/ebru eczanesi","direction":"https://www.google.com.tr/maps/dir/My+Location/38.241009,27.276145"},{"lat":38.1650149,"lng":27.356351,"name":"Sarı Papatya Eczanesi","address1":"Alpkent, Cemali Tuncer Blv. 17 B, 35860 Torbalı/İzmir, Turkey","address2":"izmir/torbalı/sarı papatya eczanesi","direction":"https://www.google.com.tr/maps/dir/My+Location/38.1650149,27.356351"},{"lat":38.150909,"lng":27.3714037,"name":"Yeşilkent Eczanesi","address1":"Atatürk Mh, 1551. Sk. Pk:35865, 35870 Torbalı/İzmir, Turkey","address2":"izmir/torbalı/yeşilkent eczanesi","direction":"https://www.google.com.tr/maps/dir/My+Location/38.150909,27.3714037"},{"lat":38.3948303,"lng":27.0584376,"name":"Ahmet Kılıç Eczanesi","address1":"No:2/b, Eğitim, Dumlupınar Sk. D:B BLOK, 35340 Balçova/İzmir, Turkey","address2":"izmir/balçova/ahmet kılıç eczanesi","direction":"https://www.google.com.tr/maps/dir/My+Location/38.3948303,27.0584376"},{"lat":38.383005,"lng":27.058476,"name":"Ahmet Necat Eczanesi","address1":"Çetin Emeç, Ata Cd. No:185/A, 35330 Balçova/İzmir, Turkey","address2":"izmir/balçova/ahmet necat eczanesi","direction":"https://www.google.com.tr/maps/dir/My+Location/38.383005,27.058476"},{"lat":38.3877993,"lng":27.0562708,"name":"Akyürek Eczanesi","address1":"sevgi yolu, Onur, Kızılcık Sk. D:no 32/a, 35330 Balçova/İzmir, Turkey","address2":"izmir/balçova/akyürek eczanesi","direction":"https://www.google.com.tr/maps/dir/My+Location/38.3877993,27.0562708"},{"lat":38.3947752,"lng":27.0585724,"name":"Ayşe Pınar Eczanesi","address1":"Eğitim, Dumlupınar Sk. 3/B, 35330 Balçova/İzmir, Turkey","address2":"izmir/balçova/ayşe pınar eczanesi","direction":"https://www.google.com.tr/maps/dir/My+Location/38.3947752,27.0585724"},{"lat":38.382223,"lng":27.0565549,"name":"Balçova Eczanesi","address1":"Teleferik, Barbaros Sk. No:46 A, 35330 Balçova/İzmir, Turkey","address2":"izmir/balçova/balçova eczanesi","direction":"https://www.google.com.tr/maps/dir/My+Location/38.382223,27.0565549"},{"lat":38.39131,"lng":27.0545918,"name":"Balçova İpek Eczanesi","address1":"Onur, Papatya Sk. No:5, 35330 Balçova/İzmir, Turkey","address2":"izmir/balçova/balçova ipek eczanesi","direction":"https://www.google.com.tr/maps/dir/My+Location/38.39131,27.0545918"},{"lat":38.391873,"lng":27.0519689,"name":"Balçova Sağlık Eczanesi","address1":"Onur, Sarmaşık Cd. No:40, 35330 Balçova/İzmir, Turkey","address2":"izmir/balçova/balçova sağlık eczanesi","direction":"https://www.google.com.tr/maps/dir/My+Location/38.391873,27.0519689"},{"lat":38.3945122,"lng":27.0573847,"name":"Büyük Halk Eczanesi","address1":"Onur, Amber Sk. Pk:35330, 35330 Balçova/İzmir, Turkey","address2":"izmir/balçova/büyük halk eczanesi","direction":"https://www.google.com.tr/maps/dir/My+Location/38.3945122,27.0573847"},{"lat":38.3946176,"lng":27.0585319,"name":"Dereli Eczanesi","address1":"Eğitim, Dumlupınar Sk. No:8, 35330 Balçova/İzmir, Turkey","address2":"izmir/balçova/dereli eczanesi","direction":"https://www.google.com.tr/maps/dir/My+Location/38.3946176,27.0585319"},{"lat":38.3856798,"lng":27.0573581,"name":"Ege İlker Eczanesi","address1":"Fevzi Çakmak, Cengiz Topel Sk. No:11, 35330 Balçova/İzmir, Turkey","address2":"izmir/balçova/ege ilker eczanesi","direction":"https://www.google.com.tr/maps/dir/My+Location/38.3856798,27.0573581"},{"lat":38.386523,"lng":27.058604,"name":"Egenur Eczanesi","address1":"Fevzi Çakmak, Ata Cd. 154/A, 35330 Balçova/İzmir, Turkey","address2":"izmir/balçova/egenur eczanesi","direction":"https://www.google.com.tr/maps/dir/My+Location/38.386523,27.058604"},{"lat":38.3947559,"lng":27.0584926,"name":"Eyüp Sabri Eczanesi","address1":"Eğitim, Dumlupınar Sk. No:6/A, 35330 Balçova/İzmir, Turkey","address2":"izmir/balçova/eyüp sabri eczanesi","direction":"https://www.google.com.tr/maps/dir/My+Location/38.3947559,27.0584926"},{"lat":38.3848222,"lng":27.0570496,"name":"Feyza Eczanesi","address1":"Teleferik, Sakarya Cd. No: 11/B, 35330 Balçova/İzmir, Turkey","address2":"izmir/balçova/feyza eczanesi","direction":"https://www.google.com.tr/maps/dir/My+Location/38.3848222,27.0570496"},{"lat":38.3931478,"lng":27.0519772,"name":"Hoşcan Eczanesi","address1":"Onur, Sarmaşık Cd. No:18/A, 35330 Balçova/İzmir, Turkey","address2":"izmir/balçova/hoşcan eczanesi","direction":"https://www.google.com.tr/maps/dir/My+Location/38.3931478,27.0519772"},{"lat":38.3896753,"lng":27.0580166,"name":"İlayda Eczanesi","address1":"Onur Mah, Ata Cd. No:92/B, 35330 Balçova/İzmir, Turkey","address2":"izmir/balçova/ilayda eczanesi","direction":"https://www.google.com.tr/maps/dir/My+Location/38.3896753,27.0580166"},{"lat":38.3850629,"lng":27.0559059,"name":"Sakarya Eczanesi","address1":"Teleferik, Enver Paşa Sk. No:28, 35330 Balçova/İzmir, Turkey","address2":"izmir/balçova/sakarya eczanesi","direction":"https://www.google.com.tr/maps/dir/My+Location/38.3850629,27.0559059"},{"lat":38.3829422,"lng":27.0578706,"name":"Serap Eczanesi","address1":"Teleferik, Ata Cd. No:194, 35330 Balçova/İzmir, Turkey","address2":"izmir/balçova/serap eczanesi","direction":"https://www.google.com.tr/maps/dir/My+Location/38.3829422,27.0578706"},{"lat":38.3947602,"lng":27.0585029,"name":"Ülkü Vural Eczanesi","address1":"Eğitim, Dumlupınar Sk. No:10/1A, 35330 Balçova/İzmir, Turkey","address2":"izmir/balçova/ülkü vural eczanesi","direction":"https://www.google.com.tr/maps/dir/My+Location/38.3947602,27.0585029"},{"lat":38.384997,"lng":27.0565336,"name":"Yalçınkaya Eczanesi","address1":"Teleferik, Sakarya Cd. No:17, 35330 Balçova/İzmir, Turkey","address2":"izmir/balçova/yalçınkaya eczanesi","direction":"https://www.google.com.tr/maps/dir/My+Location/38.384997,27.0565336"},{"lat":38.3948319,"lng":27.0585627,"name":"Yeni Barış Eczanesi","address1":"Eğitim, Dumlupınar Sk. No: 3/A, 35330 Balçova/İzmir, Turkey","address2":"izmir/balçova/yeni barış eczanesi","direction":"https://www.google.com.tr/maps/dir/My+Location/38.3948319,27.0585627"},{"lat":38.3895798,"lng":27.0510114,"name":"Yeni Gökşen Eczanesi","address1":"Onur Mah, Kaan Sk. No:5/B, 35000 Balçova/İzmir, Turkey","address2":"izmir/balçova/yeni gökşen eczanesi","direction":"https://www.google.com.tr/maps/dir/My+Location/38.3895798,27.0510114"},{"lat":38.391568,"lng":27.0516481,"name":"Yeşildere Eczanesi","address1":"Onur, Manolya Sk. No:2004, 35330 Balçova/İzmir, Turkey","address2":"izmir/balçova/yeşildere eczanesi","direction":"https://www.google.com.tr/maps/dir/My+Location/38.391568,27.0516481"},{"lat":38.3928305,"lng":27.0995986,"name":"Aysu Eczanesi","address1":"Maliyeciler Mh. 177/9. Sk. Pk:35140 Karabağlar/izmir, Maliyeciler, 35140 Karabağlar/İzmir, Turkey","address2":"izmir/karabağlar/aysu eczanesi","direction":"https://www.google.com.tr/maps/dir/My+Location/38.3928305,27.0995986"},{"lat":38.3962002,"lng":27.1066003,"name":"Aytekin Eczanesi","address1":"No:, Vatan, Faruk Akar Karasu Cd. 17 A, 35160 Karabağlar/İzmir, Turkey","address2":"izmir/karabağlar/aytekin eczanesi","direction":"https://www.google.com.tr/maps/dir/My+Location/38.3962002,27.1066003"},{"lat":38.3994261,"lng":27.1027641,"name":"Basın Sitesi Eczanesi","address1":"Basın Sitesi Mahallesi, 216. Sk. NO:6A, 35150 Karabağlar/İzmir, Turkey","address2":"izmir/karabağlar/basın sitesi eczanesi","direction":"https://www.google.com.tr/maps/dir/My+Location/38.3994261,27.1027641"},{"lat":38.3984359,"lng":27.1067039,"name":"Başkent Eczanesi","address1":"Basın Sitesi, Gazeteci Hasan Tahsin Cd. 140/A, 35150 Karabağlar/İzmir, Turkey","address2":"izmir/karabağlar/başkent eczanesi","direction":"https://www.google.com.tr/maps/dir/My+Location/38.3984359,27.1067039"},{"lat":38.3964794,"lng":27.1046675,"name":"Beyşehir Eczanesi","address1":"Vatan, Polat Cd. No:107/A, 35160 Karabağlar/İzmir, Turkey","address2":"izmir/karabağlar/beyşehir eczanesi","direction":"https://www.google.com.tr/maps/dir/My+Location/38.3964794,27.1046675"},{"lat":38.3984974,"lng":27.105789,"name":"Caner Eczanesi","address1":"Basın Sitesi Mah, Gazeteci Hasan Tahsin Cd. No:142, 35150 Karabağlar/İzmir, Turkey","address2":"izmir/karabağlar/caner eczanesi","direction":"https://www.google.com.tr/maps/dir/My+Location/38.3984974,27.105789"},{"lat":38.3982022,"lng":27.098199,"name":"Ege İnci Eczanesi","address1":"Basın Sitesi, 170. Sk. No:4/A, 35150 Karabağlar/İzmir, Turkey","address2":"izmir/karabağlar/ege inci eczanesi","direction":"https://www.google.com.tr/maps/dir/My+Location/38.3982022,27.098199"},{"lat":38.3965817,"lng":27.10521,"name":"Erciş Eczanesi","address1":"Vatan, Polat Cd. No:99, 35160 Karabağlar/İzmir, Turkey","address2":"izmir/karabağlar/erciş eczanesi","direction":"https://www.google.com.tr/maps/dir/My+Location/38.3965817,27.10521"},{"lat":38.3991497,"lng":27.1009865,"name":"Erener Eczanesi","address1":"Basın Sitesi, 220. Sk. No:14, 35150 Karabağlar/İzmir, Turkey","address2":"izmir/karabağlar/erener eczanesi","direction":"https://www.google.com.tr/maps/dir/My+Location/38.3991497,27.1009865"},{"lat":38.3985154,"lng":27.1053646,"name":"Gonca Eczanesi","address1":"Basın Sitesi, Gazeteci Hasan Tahsin Cd. 148-1 A, 35150 Karabağlar/İzmir, Turkey","address2":"izmir/karabağlar/gonca eczanesi","direction":"https://www.google.com.tr/maps/dir/My+Location/38.3985154,27.1053646"},{"lat":38.3964794,"lng":27.1046675,"name":"Hisar Eczanesi","address1":"Vatan, Polat Cd. No:107/A, 35160 Karabağlar/İzmir, Turkey","address2":"izmir/karabağlar/hisar eczanesi","direction":"https://www.google.com.tr/maps/dir/My+Location/38.3964794,27.1046675"},{"lat":38.3985955,"lng":27.1039705,"name":"Kamer Eczanesi","address1":"Basın Sitesi, Gazeteci Hasan Tahsin Cd. 162/A, 35150 Karabağlar/İzmir, Turkey","address2":"izmir/karabağlar/kamer eczanesi","direction":"https://www.google.com.tr/maps/dir/My+Location/38.3985955,27.1039705"},{"lat":38.396948,"lng":27.1065022,"name":"Köker Eczanesi","address1":"Basın Sitesi, Polat Cd. No:88/B, 35150 Karabağlar/İzmir, Turkey","address2":"izmir/karabağlar/köker eczanesi","direction":"https://www.google.com.tr/maps/dir/My+Location/38.396948,27.1065022"},{"lat":38.397091,"lng":27.1054462,"name":"Konya Eczanesi","address1":"Basın Sitesi, 177/5. Sk. 23 B, 35150 Karabağlar/İzmir, Turkey","address2":"izmir/karabağlar/konya eczanesi","direction":"https://www.google.com.tr/maps/dir/My+Location/38.397091,27.1054462"},{"lat":38.3973161,"lng":27.1054232,"name":"Manavgat Eczanesi","address1":"Basın Sitesi, 177/5. Sk. No 19/B, 35150 Karabağlar/İzmir, Turkey","address2":"izmir/karabağlar/manavgat eczanesi","direction":"https://www.google.com.tr/maps/dir/My+Location/38.3973161,27.1054232"},{"lat":38.3982429,"lng":27.0982121,"name":"Manzara Eczanesi","address1":"Basın Sitesi Mah, 170. Sk. 4/B, 35150 Karabağlar/İzmir, Turkey","address2":"izmir/karabağlar/manzara eczanesi","direction":"https://www.google.com.tr/maps/dir/My+Location/38.3982429,27.0982121"},{"lat":38.398597,"lng":27.101831,"name":"Mutlu Eczanesi","address1":"Basın Sitesi, Gazeteci Hasan Tahsin Cd. No:192/A, 35150 Karabağlar/İzmir, Turkey","address2":"izmir/karabağlar/mutlu eczanesi","direction":"https://www.google.com.tr/maps/dir/My+Location/38.398597,27.101831"},{"lat":38.3994261,"lng":27.1027641,"name":"Nisan Eczanesi","address1":"Basın Sitesi Mahallesi, 216. Sk. NO:6A, 35150 Karabağlar/İzmir, Turkey","address2":"izmir/karabağlar/nisan eczanesi","direction":"https://www.google.com.tr/maps/dir/My+Location/38.3994261,27.1027641"},{"lat":38.3968184,"lng":27.1066247,"name":"Onurlu Eczanesi","address1":"Vatan, Polat Cd. 79 A, 35160 Karabağlar/İzmir, Turkey","address2":"izmir/karabağlar/onurlu eczanesi","direction":"https://www.google.com.tr/maps/dir/My+Location/38.3968184,27.1066247"},{"lat":38.3982529,"lng":27.1058114,"name":"Özburcu Eczanesi","address1":"Basın Sitesi, Hasan Tahsin Sk. No:137/A, 35150 Karabağlar/İzmir, Turkey","address2":"izmir/karabağlar/özburcu eczanesi","direction":"https://www.google.com.tr/maps/dir/My+Location/38.3982529,27.1058114"},{"lat":38.3982058,"lng":27.1060163,"name":"Özgüvenli Eczanesi","address1":"Basın Sitesi, Gazeteci Hasan Tahsin Cd. No:135/B, 35150 Karabağlar/İzmir, Turkey","address2":"izmir/karabağlar/özgüvenli eczanesi","direction":"https://www.google.com.tr/maps/dir/My+Location/38.3982058,27.1060163"},{"lat":38.4001497,"lng":27.102371,"name":"Renkli Eczanesi","address1":"Basın Sitesi, 168. Sk. No:59 D:1/a, 35150 Karabağlar/İzmir, Turkey","address2":"izmir/karabağlar/renkli eczanesi","direction":"https://www.google.com.tr/maps/dir/My+Location/38.4001497,27.102371"},{"lat":38.397626,"lng":27.1053698,"name":"Selim Eczanesi","address1":"Basın Sitesi, 177/5. Sk. No:13, 35150 Karabağlar/İzmir, Turkey","address2":"izmir/karabağlar/selim eczanesi","direction":"https://www.google.com.tr/maps/dir/My+Location/38.397626,27.1053698"},{"lat":38.3966435,"lng":27.1059158,"name":"Sinanoğlu Eczanesi","address1":"Vatan, Polat Cd. 87 B, 35160 Karabağlar/İzmir, Turkey","address2":"izmir/karabağlar/sinanoğlu eczanesi","direction":"https://www.google.com.tr/maps/dir/My+Location/38.3966435,27.1059158"},{"lat":38.397731,"lng":27.1053821,"name":"Site Eczanesi","address1":"Basın Sitesi, 177/5. Sk. 11 A, 35150 Karabağlar/İzmir, Turkey","address2":"izmir/karabağlar/site eczanesi","direction":"https://www.google.com.tr/maps/dir/My+Location/38.397731,27.1053821"},{"lat":38.4002426,"lng":27.102956,"name":"Soyak Eczanesi","address1":"Basın Sitesi, 168. Sk. No:67, 35150 Karabağlar/İzmir, Turkey","address2":"izmir/karabağlar/soyak eczanesi","direction":"https://www.google.com.tr/maps/dir/My+Location/38.4002426,27.102956"},{"lat":38.397538,"lng":27.1053641,"name":"Uçar Eczanesi","address1":"Basın Sitesi, 177/5. Sk. 15 A, 35150 Karabağlar/İzmir, Turkey","address2":"izmir/karabağlar/uçar eczanesi","direction":"https://www.google.com.tr/maps/dir/My+Location/38.397538,27.1053641"},{"lat":38.3966948,"lng":27.1059238,"name":"Yaşar Eczanesi","address1":"Vatan, 35160 Karabağlar/İzmir, Turkey","address2":"izmir/karabağlar/yaşar eczanesi","direction":"https://www.google.com.tr/maps/dir/My+Location/38.3966948,27.1059238"},{"lat":38.396708,"lng":27.105628,"name":"Yeni Akın Eczanesi","address1":"Vatan, Polat Cd. No:89, 35160 Karabağlar/İzmir, Turkey","address2":"izmir/karabağlar/yeni akın eczanesi","direction":"https://www.google.com.tr/maps/dir/My+Location/38.396708,27.105628"},{"lat":38.3928739,"lng":27.0995647,"name":"Yeni Aydıner Eczanesi","address1":"Maliyeciler, 177/9. Sk. No:14, 35140 Karabağlar/İzmir, Turkey","address2":"izmir/karabağlar/yeni aydıner eczanesi","direction":"https://www.google.com.tr/maps/dir/My+Location/38.3928739,27.0995647"},{"lat":38.3985575,"lng":27.104826,"name":"Yeni Taner Eczanesi","address1":"Gazeteci Hasan Tahsin Cd 154-1 A, Basın Sitesi Mahallesi, 35150, Basın Sitesi, Karabağlar/İzmir, 35150 Basınsites/Karabağlar/İzmir, Turkey","address2":"izmir/karabağlar/yeni taner eczanesi","direction":"https://www.google.com.tr/maps/dir/My+Location/38.3985575,27.104826"},{"lat":38.4226257,"lng":27.1416476,"name":"Aktuğ Eczanesi","address1":"İsmet Kaptan, Fevzi Paşa Blv No. 151/D, 35210 Konak/İzmir, Turkey","address2":"izmir/konak/aktuğ eczanesi","direction":"https://www.google.com.tr/maps/dir/My+Location/38.4226257,27.1416476"},{"lat":38.4238365,"lng":27.1391235,"name":"Aşıkoğlu Eczanesi","address1":"İsmet Kaptan, Gazi Blv. 102 A, 35210 Konak/İzmir, Turkey","address2":"izmir/konak/aşıkoğlu eczanesi","direction":"https://www.google.com.tr/maps/dir/My+Location/38.4238365,27.1391235"},{"lat":38.42288,"lng":27.137453,"name":"Beyaz Eczanesi","address1":"Akdeniz, Gazi Osman Paşa Blv. No:48, 35210 Konak/İzmir, Turkey","address2":"izmir/konak/beyaz eczanesi","direction":"https://www.google.com.tr/maps/dir/My+Location/38.42288,27.137453"},{"lat":38.4039348,"lng":27.1007368,"name":"Çankaya Eczanesi","address1":"Çankaya, 35280 Konak/İzmir, Turkey","address2":"izmir/konak/çankaya eczanesi","direction":"https://www.google.com.tr/maps/dir/My+Location/38.4039348,27.1007368"},{"lat":38.4223736,"lng":27.1404033,"name":"Çetin Eczanesi","address1":"Hurşidiye, Fevzi Paşa Blv 168-1 B, 35240 Konak/İzmir, Turkey","address2":"izmir/konak/çetin eczanesi","direction":"https://www.google.com.tr/maps/dir/My+Location/38.4223736,27.1404033"},{"lat":38.418336,"lng":27.140634,"name":"Dolu Eczanesi","address1":"Ali Reis, Tarik Sari Sokağı No:48, 35240 Konak/İzmir, Turkey","address2":"izmir/konak/dolu eczanesi","direction":"https://www.google.com.tr/maps/dir/My+Location/38.418336,27.140634"},{"lat":38.4223839,"lng":27.1322779,"name":"Gamze Eczanesi","address1":"Konak, Fevzi Paşa Blv, 35240 Konak/İzmir, Turkey","address2":"izmir/konak/gamze eczanesi","direction":"https://www.google.com.tr/maps/dir/My+Location/38.4223839,27.1322779"},{"lat":38.422362,"lng":27.131536,"name":"Gözdem Eczanesi","address1":"Konak, Fevzi Paşa Blv No:6, 35250 Konak/İzmir, Turkey","address2":"izmir/konak/gözdem eczanesi","direction":"https://www.google.com.tr/maps/dir/My+Location/38.422362,27.131536"},{"lat":38.422369,"lng":27.1419914,"name":"Kent Eczanesi","address1":"Akıncı, Fevzi Paşa Blv 174 B, 35240 Konak/İzmir, Turkey","address2":"izmir/konak/kent eczanesi","direction":"https://www.google.com.tr/maps/dir/My+Location/38.422369,27.1419914"},{"lat":38.4227334,"lng":27.1446741,"name":"Merkez Eczanesi","address1":"Etiler, Basmane Garı, 35240 Konak/İzmir, Turkey","address2":"izmir/konak/merkez eczanesi","direction":"https://www.google.com.tr/maps/dir/My+Location/38.4227334,27.1446741"},{"lat":38.4231301,"lng":27.1318031,"name":"Özgökçen Eczanesi","address1":"Akdeniz, Mimar Kemalettin Cd. No:8, 35210 Konak/İzmir, Turkey","address2":"izmir/konak/özgökçen eczanesi","direction":"https://www.google.com.tr/maps/dir/My+Location/38.4231301,27.1318031"},{"lat":38.42045,"lng":27.1418681,"name":"Yeni Dönertaş Eczanesi","address1":"Altınordu, Anafartalar Cd. No:754, 35240 Konak/İzmir, Turkey","address2":"izmir/konak/yeni dönertaş eczanesi","direction":"https://www.google.com.tr/maps/dir/My+Location/38.42045,27.1418681"},{"lat":38.423492,"lng":27.132286,"name":"Yeni Gülemre Eczanesi","address1":"Akdeniz, Şht. Fethi Bey Cd. 27/A, 35210 Konak/İzmir, Turkey","address2":"izmir/konak/yeni gülemre eczanesi","direction":"https://www.google.com.tr/maps/dir/My+Location/38.423492,27.132286"},{"lat":38.4207619,"lng":27.1437007,"name":"Yeni Park Eczanesi","address1":"Altınordu, Anafartalar Cad. No:846, 35240 Konak/İzmir, Turkey","address2":"izmir/konak/yeni park eczanesi","direction":"https://www.google.com.tr/maps/dir/My+Location/38.4207619,27.1437007"},{"lat":38.4226216,"lng":27.1405692,"name":"Yeni Serter Eczanesi","address1":"İsmet Kaptan Mh, Basmane PTT karşısı, Fevzi Paşa Blv no:133/B, 35210 Konak/İzmir, Turkey","address2":"izmir/konak/yeni serter eczanesi","direction":"https://www.google.com.tr/maps/dir/My+Location/38.4226216,27.1405692"},{"lat":38.4226925,"lng":27.1330813,"name":"Yenişehir Eczanesi","address1":"Akdeniz, Fevzi Paşa Blv No:17, 35210 Konak/İzmir, Turkey","address2":"izmir/konak/yenişehir eczanesi","direction":"https://www.google.com.tr/maps/dir/My+Location/38.4226925,27.1330813"},{"lat":38.221766,"lng":27.649285,"name":"Bayındır Eczanesi","address1":"Mithatpaşa, Park Gç. No:22, 35840 Bayındır/İzmir, Turkey","address2":"izmir/bayındır/bayındır eczanesi","direction":"https://www.google.com.tr/maps/dir/My+Location/38.221766,27.649285"},{"lat":38.214509,"lng":27.648108,"name":"Büyük Bayındır Eczanesi","address1":"Sadıkpaşa, Atatürk Cd. 104/A, 35840 Bayındır/İzmir, Turkey","address2":"izmir/bayındır/büyük bayındır eczanesi","direction":"https://www.google.com.tr/maps/dir/My+Location/38.214509,27.648108"},{"lat":38.221279,"lng":27.649442,"name":"Çapuk Eczanesi","address1":"Mithatpaşa, Hastane Cd. No:20, 35840 Bayındır/İzmir, Turkey","address2":"izmir/bayındır/çapuk eczanesi","direction":"https://www.google.com.tr/maps/dir/My+Location/38.221279,27.649442"},{"lat":38.2218627,"lng":27.6491007,"name":"Filiz Eczanesi","address1":"24, Mithatpaşa, Park Gç., 35840 Bayındır/İzmir, Turkey","address2":"izmir/bayındır/filiz eczanesi","direction":"https://www.google.com.tr/maps/dir/My+Location/38.2218627,27.6491007"},{"lat":38.2215374,"lng":27.6491843,"name":"Karabenek Eczanesi","address1":"Mithatpaşa, Hastane Cd. No:6, 35840 Bayındır/İzmir, Turkey","address2":"izmir/bayındır/karabenek eczanesi","direction":"https://www.google.com.tr/maps/dir/My+Location/38.2215374,27.6491843"},{"lat":38.2225157,"lng":27.6487025,"name":"Okur Eczanesi","address1":"Kurt, Kazımpaşa Cd. No:11, 35840 Bayındır/İzmir, Turkey","address2":"izmir/bayındır/okur eczanesi","direction":"https://www.google.com.tr/maps/dir/My+Location/38.2225157,27.6487025"},{"lat":38.211113,"lng":27.641991,"name":"Pınar Eczanesi","address1":"Sadıkpaşa, Hastane Cad. No:16, 35840 Bayındır/İzmir, Turkey","address2":"izmir/bayındır/pınar eczanesi","direction":"https://www.google.com.tr/maps/dir/My+Location/38.211113,27.641991"},{"lat":38.4701561,"lng":27.1666906,"name":"Barış Şahin Eczanesi","address1":"Bayraklı, 1620/15 Sok. No:9, 35540 Bayraklı/İzmir, Turkey","address2":"izmir/bayraklı/barış şahin eczanesi","direction":"https://www.google.com.tr/maps/dir/My+Location/38.4701561,27.1666906"},{"lat":38.4681561,"lng":27.1767509,"name":"Bayraklı Sinem Eczanesi","address1":"Tepekule, 2120/2. Sk. No: 38, 35530 Bayraklı/İzmir, Turkey","address2":"izmir/bayraklı/bayraklı sinem eczanesi","direction":"https://www.google.com.tr/maps/dir/My+Location/38.4681561,27.1767509"},{"lat":38.4611095,"lng":27.1667006,"name":"Birancı Eczanesi","address1":"Bayraklı Mh. Zeki Yavaş Sk. Pk:35580 Bayraklı/izmir, Bayraklı, 35530 Bayraklı/İzmir, Turkey","address2":"izmir/bayraklı/birancı eczanesi","direction":"https://www.google.com.tr/maps/dir/My+Location/38.4611095,27.1667006"},{"lat":38.473946,"lng":27.1744999,"name":"Dost Eczanesi","address1":"Muhittin Erener, 35590 Bayraklı/İzmir, Turkey","address2":"izmir/bayraklı/dost eczanesi","direction":"https://www.google.com.tr/maps/dir/My+Location/38.473946,27.1744999"},{"lat":38.4687115,"lng":27.17591,"name":"Eskişehir Eczanesi","address1":"Tepekule, 2089. Sk. No:5/A, 35530 Bayraklı/İzmir, Turkey","address2":"izmir/bayraklı/eskişehir eczanesi","direction":"https://www.google.com.tr/maps/dir/My+Location/38.4687115,27.17591"},{"lat":38.4755217,"lng":27.1584769,"name":"Gökdelen Eczanesi","address1":"Cengizhan, 1620/39. Sk. No: 48 / A, 35590 Bayraklı/İzmir, Turkey","address2":"izmir/bayraklı/gökdelen eczanesi","direction":"https://www.google.com.tr/maps/dir/My+Location/38.4755217,27.1584769"},{"lat":38.4607291,"lng":27.1669236,"name":"Güvercin Eczanesi","address1":"Bayraklı, Zeki Yavaş Sk. No:6/3 B, 35530 Bayraklı/İzmir, Turkey","address2":"izmir/bayraklı/güvercin eczanesi","direction":"https://www.google.com.tr/maps/dir/My+Location/38.4607291,27.1669236"},{"lat":38.467734,"lng":27.17678,"name":"Hülya Eczanesi","address1":"Tepekule, 2090. Sk. No:2, 35530 Bayraklı/İzmir, Turkey","address2":"izmir/bayraklı/hülya eczanesi","direction":"https://www.google.com.tr/maps/dir/My+Location/38.467734,27.17678"},{"lat":38.4667267,"lng":27.1648848,"name":"İlkege Eczanesi","address1":"Fuat Edip Baksi, 35590 Bayraklı/İzmir, Turkey","address2":"izmir/bayraklı/ilkege eczanesi","direction":"https://www.google.com.tr/maps/dir/My+Location/38.4667267,27.1648848"},{"lat":38.4683149,"lng":27.1769108,"name":"Kendirci Eczanesi","address1":"Bayraklı, 2091. Sok. No:17, 35530 Bayraklı/İzmir, Turkey","address2":"izmir/bayraklı/kendirci eczanesi","direction":"https://www.google.com.tr/maps/dir/My+Location/38.4683149,27.1769108"},{"lat":38.4645837,"lng":27.163326,"name":"Koçer Eczanesi","address1":"Bayraklı, Anadolu Cd. No:99/3C, 35530 Bayraklı/İzmir, Turkey","address2":"izmir/bayraklı/koçer eczanesi","direction":"https://www.google.com.tr/maps/dir/My+Location/38.4645837,27.163326"},{"lat":38.4718019,"lng":27.1810464,"name":"Nuray Eczanesi","address1":"Çay, 2109. Sk. 32/A, 35020 Bayraklı/İzmir, Turkey","address2":"izmir/bayraklı/nuray eczanesi","direction":"https://www.google.com.tr/maps/dir/My+Location/38.4718019,27.1810464"},{"lat":38.467812,"lng":27.177152,"name":"Sapmaz Eczanesi","address1":"Tepekule, 35580 Bayraklı/İzmir, Turkey","address2":"izmir/bayraklı/sapmaz eczanesi","direction":"https://www.google.com.tr/maps/dir/My+Location/38.467812,27.177152"},{"lat":38.4682044,"lng":27.1801152,"name":"Semiha Paçacı Eczanesi","address1":"Tepekule, 2108/13. Sk. No: 8/A, 35530 Bayraklı/İzmir, Turkey","address2":"izmir/bayraklı/semiha paçacı eczanesi","direction":"https://www.google.com.tr/maps/dir/My+Location/38.4682044,27.1801152"},{"lat":38.4630974,"lng":27.1775073,"name":"Tutku Eczanesi","address1":"Adalet Mh. Yüzbaşı İbrahim Hakkı Cd. 1645/20 SK. NO:2/A, Bayraklı, Pk:35580 Bayraklı/izmir, 35580 Bayraklı/İzmir, Turkey","address2":"izmir/bayraklı/tutku eczanesi","direction":"https://www.google.com.tr/maps/dir/My+Location/38.4630974,27.1775073"},{"lat":38.4704378,"lng":27.1666897,"name":"Utku Eczanesi","address1":"Alpagut, 1620/15. Sk. 11/a, 35580 Bayraklı/İzmir, Turkey","address2":"izmir/bayraklı/utku eczanesi","direction":"https://www.google.com.tr/maps/dir/My+Location/38.4704378,27.1666897"},{"lat":38.4701384,"lng":27.1803394,"name":"Yeni Gözde Eczanesi","address1":"Çay, 35580 Bayraklı/İzmir, Turkey","address2":"izmir/bayraklı/yeni gözde eczanesi","direction":"https://www.google.com.tr/maps/dir/My+Location/38.4701384,27.1803394"},{"lat":38.4758735,"lng":27.181006,"name":"Yeni İlkay Eczanesi","address1":"R. Şevket İnce, 35540 Bayraklı/İzmir, Turkey","address2":"izmir/bayraklı/yeni ilkay eczanesi","direction":"https://www.google.com.tr/maps/dir/My+Location/38.4758735,27.181006"},{"lat":38.4704466,"lng":27.1797054,"name":"Zeytin Eczanesi","address1":"Çay, 2120. Sk. NO:34 / B - 1, 35530 Bayraklı/İzmir, Turkey","address2":"izmir/bayraklı/zeytin eczanesi","direction":"https://www.google.com.tr/maps/dir/My+Location/38.4704466,27.1797054"},{"lat":38.4762463,"lng":27.1585288,"name":"Zirve Eczanesi","address1":"Cengizhan, 1620/39. Sk. No: 56, 35590 Bayraklı/İzmir, Turkey","address2":"izmir/bayraklı/zirve eczanesi","direction":"https://www.google.com.tr/maps/dir/My+Location/38.4762463,27.1585288"},{"lat":39.1257232,"lng":27.1773195,"name":"Benek Eczanesi","address1":"Selçuk, Uzunyol Cd. No:44, 35700 Bergama/İzmir, Turkey","address2":"izmir/bergama/benek eczanesi","direction":"https://www.google.com.tr/maps/dir/My+Location/39.1257232,27.1773195"},{"lat":39.112379,"lng":27.183519,"name":"Çağrı Eczanesi","address1":"Gaziosmanpaşa, Hasan Çelebi Cd., 35700 Bergama/İzmir, Turkey","address2":"izmir/bergama/çağrı eczanesi","direction":"https://www.google.com.tr/maps/dir/My+Location/39.112379,27.183519"},{"lat":39.119832,"lng":27.198646,"name":"Çiçeksever Eczanesi","address1":"Kurtuluş, Kata Cd. No:1, 35700 Bergama/İzmir, Turkey","address2":"izmir/bergama/çiçeksever eczanesi","direction":"https://www.google.com.tr/maps/dir/My+Location/39.119832,27.198646"},{"lat":39.1180217,"lng":27.1988302,"name":"Durusu Eczanesi","address1":"İslamsaray, 35700 Bergama/İzmir, Turkey","address2":"izmir/bergama/durusu eczanesi","direction":"https://www.google.com.tr/maps/dir/My+Location/39.1180217,27.1988302"},{"lat":39.1166667,"lng":27.1833333,"name":"Emniyet Eczanesi","address1":"Turabey, Hükümet Cad. Özel İdare İş Hanı No:65, 35700 Bergama/İzmir, Turkey","address2":"izmir/bergama/emniyet eczanesi","direction":"https://www.google.com.tr/maps/dir/My+Location/39.1166667,27.1833333"},{"lat":39.1262282,"lng":27.1780511,"name":"Fahri İnan Eczanesi","address1":"Selçuk, Kozak Cd. No:125, 35700 Bergama/İzmir, Turkey","address2":"izmir/bergama/fahri inan eczanesi","direction":"https://www.google.com.tr/maps/dir/My+Location/39.1262282,27.1780511"},{"lat":39.110798,"lng":27.185472,"name":"Galip Eczanesi","address1":"Gaziosmanpaşa, Hasan Çelebi Cd. No:37, 35700 Bergama/İzmir, Turkey","address2":"izmir/bergama/galip eczanesi","direction":"https://www.google.com.tr/maps/dir/My+Location/39.110798,27.185472"},{"lat":39.1166667,"lng":27.1833333,"name":"Kermes Eczanesi","address1":"Turabey, Hükümet Cad. Özel İdare İş Hanı No:65, 35700 Bergama/İzmir, Turkey","address2":"izmir/bergama/kermes eczanesi","direction":"https://www.google.com.tr/maps/dir/My+Location/39.1166667,27.1833333"},{"lat":39.118985,"lng":27.198779,"name":"Mevsim Eczanesi","address1":"Kurtuluş, Kestel Cd., 35700 Bergama/İzmir, Turkey","address2":"izmir/bergama/mevsim eczanesi","direction":"https://www.google.com.tr/maps/dir/My+Location/39.118985,27.198779"},{"lat":39.1133701,"lng":27.1766025,"name":"Molvalı Eczanesi","address1":"Maltepe, Kaymakam Kemal Bey Cd. No:29/A, 35700 Bergama/İzmir, Turkey","address2":"izmir/bergama/molvalı eczanesi","direction":"https://www.google.com.tr/maps/dir/My+Location/39.1133701,27.1766025"},{"lat":39.1158723,"lng":27.1768325,"name":"Okkaoğlu Eczanesi","address1":"Ertuğrul, Mustafa Yazıcı Cd. No:8, 35700 Bergama/İzmir, Turkey","address2":"izmir/bergama/okkaoğlu eczanesi","direction":"https://www.google.com.tr/maps/dir/My+Location/39.1158723,27.1768325"},{"lat":39.115765,"lng":27.1766,"name":"Özçoban Eczanesi","address1":"Ertuğrul, Mustafa Yazıcı Cd. No:6, 35700 Bergama/İzmir, Turkey","address2":"izmir/bergama/özçoban eczanesi","direction":"https://www.google.com.tr/maps/dir/My+Location/39.115765,27.1766"},{"lat":39.113401,"lng":27.177827,"name":"Özge Eczanesi","address1":"Maltepe, Boblingen Cd. no 62, 35700 Bergama/İzmir, Turkey","address2":"izmir/bergama/özge eczanesi","direction":"https://www.google.com.tr/maps/dir/My+Location/39.113401,27.177827"},{"lat":39.119174,"lng":27.177925,"name":"Pamukçu Eczanesi","address1":"Gazipaşa, Osman Bayatlı Cd. No:5, 35700 Bergama/İzmir, Turkey","address2":"izmir/bergama/pamukçu eczanesi","direction":"https://www.google.com.tr/maps/dir/My+Location/39.119174,27.177925"},{"lat":39.116,"lng":27.1754721,"name":"Şafak Eczanesi","address1":"Zafer Mh, Tarım Mredi Koop. Girişi Pk:35700, 35725 Bergama/İzmir, Turkey","address2":"izmir/bergama/şafak eczanesi","direction":"https://www.google.com.tr/maps/dir/My+Location/39.116,27.1754721"},{"lat":39.115748,"lng":27.17749,"name":"Tekin Eczanesi","address1":"Ertuğrul, Mustafa Yazıcı Cd. No:21, 35700 Bergama/İzmir, Turkey","address2":"izmir/bergama/tekin eczanesi","direction":"https://www.google.com.tr/maps/dir/My+Location/39.115748,27.17749"},{"lat":39.104063,"lng":27.166998,"name":"Umut Eczanesi","address1":"Fatih, Tuna Cd. No:29/3, 35700 Bergama/İzmir, Turkey","address2":"izmir/bergama/umut eczanesi","direction":"https://www.google.com.tr/maps/dir/My+Location/39.104063,27.166998"},{"lat":39.116352,"lng":27.194168,"name":"Ünal Eczanesi","address1":"Gaziosmanpaşa, Adnan Menderes Blv. No:219, 35700 Bergama/İzmir, Turkey","address2":"izmir/bergama/ünal eczanesi","direction":"https://www.google.com.tr/maps/dir/My+Location/39.116352,27.194168"},{"lat":39.119174,"lng":27.177925,"name":"Uşaklılar Eczanesi","address1":"Gazipaşa, Osman Bayatlı Cd. No:5, 35700 Bergama/İzmir, Turkey","address2":"izmir/bergama/uşaklılar eczanesi","direction":"https://www.google.com.tr/maps/dir/My+Location/39.119174,27.177925"},{"lat":39.119174,"lng":27.177925,"name":"Yeni Çağrı Eczanesi","address1":"Gazipaşa, Osman Bayatlı Cd. No:5, 35700 Bergama/İzmir, Turkey","address2":"izmir/bergama/yeni çağrı eczanesi","direction":"https://www.google.com.tr/maps/dir/My+Location/39.119174,27.177925"},{"lat":39.1135419,"lng":27.177935,"name":"Yörükoğlu Eczanesi","address1":"Ertuğrul, Boblingen Cd. No:61, 35700 Bergama/İzmir, Turkey","address2":"izmir/bergama/yörükoğlu eczanesi","direction":"https://www.google.com.tr/maps/dir/My+Location/39.1135419,27.177935"},{"lat":38.4659625,"lng":27.2205296,"name":"Alper Eczanesi","address1":"Erzene, Kazım Karabekir Cd. No: 31A, 35040 Bornova/İzmir, Turkey","address2":"izmir/bornova/alper eczanesi","direction":"https://www.google.com.tr/maps/dir/My+Location/38.4659625,27.2205296"},{"lat":38.459072,"lng":27.2512496,"name":"Altınbaş Eczanesi","address1":"Evka 3 Mahallesi/ Naldöken/ Doğanlar 129. Sokak No:1/B, Türkan Özilhan Hastanesi Yanı, Evka 3, 35050 Bornova/İzmir, Turkey","address2":"izmir/bornova/altınbaş eczanesi","direction":"https://www.google.com.tr/maps/dir/My+Location/38.459072,27.2512496"},{"lat":38.465204,"lng":27.216461,"name":"Benlioğlu Eczanesi","address1":"Ergene, Mustafa Kemal Cd. No:26/D, 35040 Bornova/İzmir, Turkey","address2":"izmir/bornova/benlioğlu eczanesi","direction":"https://www.google.com.tr/maps/dir/My+Location/38.465204,27.216461"},{"lat":38.4627025,"lng":27.2242746,"name":"Cadde Eczanesi","address1":"Erzene, Gençlik Cd. 23/A, 35040 Bornova/İzmir, Turkey","address2":"izmir/bornova/cadde eczanesi","direction":"https://www.google.com.tr/maps/dir/My+Location/38.4627025,27.2242746"},{"lat":38.467756,"lng":27.218535,"name":"Çınar Eczanesi","address1":"Ergene, 456. Sk. No:1 D:No.17/B, 35040 Bornova/İzmir, Turkey","address2":"izmir/bornova/çınar eczanesi","direction":"https://www.google.com.tr/maps/dir/My+Location/38.467756,27.218535"},{"lat":38.459024,"lng":27.251199,"name":"Demirkan Eczanesi","address1":"Evka 3 Mh, 129. Sk. No:1/a, Pk:35050 Bornova/İzmir, Turkey","address2":"izmir/bornova/demirkan eczanesi","direction":"https://www.google.com.tr/maps/dir/My+Location/38.459024,27.251199"},{"lat":38.4181259,"lng":27.2361594,"name":"Hakan Eczanesi","address1":"Işıklar, Aydınlar Cd. No:57, 35070 Bornova/İzmir, Turkey","address2":"izmir/bornova/hakan eczanesi","direction":"https://www.google.com.tr/maps/dir/My+Location/38.4181259,27.2361594"},{"lat":38.4683974,"lng":27.2190504,"name":"Haşlak Eczanesi","address1":"Ergene, 456. Sk. 11/c, 35040 Bornova/İzmir, Turkey","address2":"izmir/bornova/haşlak eczanesi","direction":"https://www.google.com.tr/maps/dir/My+Location/38.4683974,27.2190504"},{"lat":38.4678434,"lng":27.2193725,"name":"Özışıl Eczanesi","address1":"Ergene, HÜKÜMET KONAĞI ARKASI GEDİZ ELEKTRİK KARŞISI, 454. Sk. 1 A, 35040 Bornova/İzmir, Turkey","address2":"izmir/bornova/özışıl eczanesi","direction":"https://www.google.com.tr/maps/dir/My+Location/38.4678434,27.2193725"},{"lat":38.4685784,"lng":27.219106,"name":"Pelit Eczanesi","address1":"Ergene, 456. Sk. 11/B, 35040 Bornova/İzmir, Turkey","address2":"izmir/bornova/pelit eczanesi","direction":"https://www.google.com.tr/maps/dir/My+Location/38.4685784,27.219106"},{"lat":38.4353737,"lng":27.1878888,"name":"Soydan Eczanesi","address1":"Barbaros, 5311. Sk. 16/A, 35090 Bornova/İzmir, Turkey","address2":"izmir/bornova/soydan eczanesi","direction":"https://www.google.com.tr/maps/dir/My+Location/38.4353737,27.1878888"},{"lat":38.4678899,"lng":27.2192253,"name":"Yeni Aras Eczanesi","address1":"Ergene, 457. Sk 9/D, 35040 Bornova/İzmir, Turkey","address2":"izmir/bornova/yeni aras eczanesi","direction":"https://www.google.com.tr/maps/dir/My+Location/38.4678899,27.2192253"},{"lat":38.4643935,"lng":27.2238616,"name":"Yeni Ata Eczanesi","address1":"No:47, Erzene Mahallesi, Kazım Karabekir Cd., 35040 Bornova/İzmir, Turkey","address2":"izmir/bornova/yeni ata eczanesi","direction":"https://www.google.com.tr/maps/dir/My+Location/38.4643935,27.2238616"},{"lat":38.4663681,"lng":27.2200002,"name":"Yeni Bornova Eczanesi","address1":"erzene mahallesi 1 sokak no:4/a bornova, Erzene, hükümet konağı yanı, 35040 Bornova/İzmir, Turkey","address2":"izmir/bornova/yeni bornova eczanesi","direction":"https://www.google.com.tr/maps/dir/My+Location/38.4663681,27.2200002"},{"lat":38.4642164,"lng":27.2247128,"name":"Yeni Hayat Eczanesi","address1":"Erzene, Türkeli Cad. 3/A, 35040 Bornova/İzmir, Turkey","address2":"izmir/bornova/yeni hayat eczanesi","direction":"https://www.google.com.tr/maps/dir/My+Location/38.4642164,27.2247128"},{"lat":38.4685611,"lng":27.2190255,"name":"Yeni Selin Eczanesi","address1":"Ergene, 458. Sk. 11-1, 35040 Bornova/İzmir, Turkey","address2":"izmir/bornova/yeni selin eczanesi","direction":"https://www.google.com.tr/maps/dir/My+Location/38.4685611,27.2190255"},{"lat":38.4588581,"lng":27.2100602,"name":"Akhisar Eczanesi","address1":"Kazımdirik, Ankara Cd. No:241, 35100 Bornova/İzmir, Turkey","address2":"izmir/bornova/akhisar eczanesi","direction":"https://www.google.com.tr/maps/dir/My+Location/38.4588581,27.2100602"},{"lat":38.4610019,"lng":27.2127498,"name":"Arzum Eczanesi","address1":".no:/a Bornova, Kazımdirik, Süvari Cd. No:51, 35100 Bornova/İzmir, Turkey","address2":"izmir/bornova/arzum eczanesi","direction":"https://www.google.com.tr/maps/dir/My+Location/38.4610019,27.2127498"},{"lat":38.457513,"lng":27.2085399,"name":"Bornova Ege Eczanesi","address1":"Kazımdirik, Üniversite Cd. No:42, 35100 Bornova/İzmir, Turkey","address2":"izmir/bornova/bornova ege eczanesi","direction":"https://www.google.com.tr/maps/dir/My+Location/38.457513,27.2085399"},{"lat":38.4616073,"lng":27.2115251,"name":"Bornova Gül Eczanesi","address1":"Kazımdirik, Zafer Cd. No:26 A, 35040 Bornova/İzmir, Turkey","address2":"izmir/bornova/bornova gül eczanesi","direction":"https://www.google.com.tr/maps/dir/My+Location/38.4616073,27.2115251"},{"lat":38.4641344,"lng":27.2145345,"name":"Bornova Mavi Eczanesi","address1":"MUSTAFA KEMAL CADDESİ NO.37/A PETERSON, Kazımdirik, KÖŞKÜ KARŞISI, 35100 BORNOVA/Bornova/İzmir, Turkey","address2":"izmir/bornova/bornova mavi eczanesi","direction":"https://www.google.com.tr/maps/dir/My+Location/38.4641344,27.2145345"},{"lat":38.4646124,"lng":27.2076647,"name":"Bornova Ordu Eczanesi","address1":"Kazımdirik, Fatih Sultan Mehmet Cd. 2/C, 35100 Bornova/İzmir, Turkey","address2":"izmir/bornova/bornova ordu eczanesi","direction":"https://www.google.com.tr/maps/dir/My+Location/38.4646124,27.2076647"},{"lat":38.4597357,"lng":27.2056275,"name":"Bornova Palanduz Eczanesi","address1":"Kazımdirik, 213. Sk. No: 21/A, 35100 Bornova/İzmir, Turkey","address2":"izmir/bornova/bornova palanduz eczanesi","direction":"https://www.google.com.tr/maps/dir/My+Location/38.4597357,27.2056275"},{"lat":38.459878,"lng":27.205515,"name":"Bornova Tan Eczanesi","address1":"Kazım Dirik Mah., Kazımdirik, 213 sok. No:31/A Bornova, 35080 Bornova/İzmir, Turkey","address2":"izmir/bornova/bornova tan eczanesi","direction":"https://www.google.com.tr/maps/dir/My+Location/38.459878,27.205515"},{"lat":38.4587273,"lng":27.209731,"name":"Çevre Eczanesi","address1":"Kazımdirik, 187. Sk. 6 A, 35100 Bornova/İzmir, Turkey","address2":"izmir/bornova/çevre eczanesi","direction":"https://www.google.com.tr/maps/dir/My+Location/38.4587273,27.209731"},{"lat":38.465111,"lng":27.2098411,"name":"Doğucan Eczanesi","address1":"Ergene, Yüzbaşı İbrahim Hakkı Cd., 35040 Bornova/İzmir, Turkey","address2":"izmir/bornova/doğucan eczanesi","direction":"https://www.google.com.tr/maps/dir/My+Location/38.465111,27.2098411"},{"lat":38.4574168,"lng":27.2083398,"name":"Emin Eczanesi","address1":"Kazımdirik, Üniversite Cd. No:36/A, 35100 Bornova/İzmir, Turkey","address2":"izmir/bornova/emin eczanesi","direction":"https://www.google.com.tr/maps/dir/My+Location/38.4574168,27.2083398"},{"lat":38.4590891,"lng":27.2098896,"name":"Erdönmez Eczanesi","address1":"Kazımdirik, 187. Sk. No:5/1-B, 35100 Bornova/İzmir, Turkey","address2":"izmir/bornova/erdönmez eczanesi","direction":"https://www.google.com.tr/maps/dir/My+Location/38.4590891,27.2098896"},{"lat":38.4588979,"lng":27.2087201,"name":"Gökçeli Eczanesi","address1":"Kazımdirik, 186/1. Sk. No:3, 35100 Bornova/İzmir, Turkey","address2":"izmir/bornova/gökçeli eczanesi","direction":"https://www.google.com.tr/maps/dir/My+Location/38.4588979,27.2087201"},{"lat":38.4578055,"lng":27.2091433,"name":"İlgisu Eczanesi","address1":"Kazımdirik, Kazım Dirik Cad No:30/A D:No:30/A, 35100 Bornova/İzmir, Turkey","address2":"izmir/bornova/ilgisu eczanesi","direction":"https://www.google.com.tr/maps/dir/My+Location/38.4578055,27.2091433"},{"lat":38.4574802,"lng":27.2084358,"name":"İlhan Çırak Eczanesi","address1":"Kazımdirik, Üniversite Cd. No:38/A, 35100 Bornova/İzmir, Turkey","address2":"izmir/bornova/ilhan çırak eczanesi","direction":"https://www.google.com.tr/maps/dir/My+Location/38.4574802,27.2084358"},{"lat":38.4584838,"lng":27.2083575,"name":"İzmir Eczanesi","address1":"No:227/A, Kazımdirik, Ankara Cd., 35100 Bornova/İzmir, Turkey","address2":"izmir/bornova/izmir eczanesi","direction":"https://www.google.com.tr/maps/dir/My+Location/38.4584838,27.2083575"},{"lat":38.4584874,"lng":27.2086792,"name":"Kaftan Eczanesi","address1":"Kazımdirik, Ankara Cd. No:233, 35100 Bornova/İzmir, Turkey","address2":"izmir/bornova/kaftan eczanesi","direction":"https://www.google.com.tr/maps/dir/My+Location/38.4584874,27.2086792"},{"lat":38.4010244,"lng":27.1056935,"name":"Kayasan Eczanesi","address1":"Basın Sitesi, 165. Sk. NO:5/C, 35360 Karabağlar/İzmir, Turkey","address2":"izmir/karabağlar/kayasan eczanesi","direction":"https://www.google.com.tr/maps/dir/My+Location/38.4010244,27.1056935"},{"lat":38.458848,"lng":27.2123562,"name":"Kulaksızoğlu Eczanesi","address1":"Kazımdirik, 168. Sk. No:8 D:E, 35400 Bornova/İzmir, Turkey","address2":"izmir/bornova/kulaksızoğlu eczanesi","direction":"https://www.google.com.tr/maps/dir/My+Location/38.458848,27.2123562"},{"lat":38.4609651,"lng":27.210138,"name":"Şengül Eczanesi","address1":"Kazımdirik, Gediz Cd. No:6/G, 35100 Bornova/İzmir, Turkey","address2":"izmir/bornova/şengül eczanesi","direction":"https://www.google.com.tr/maps/dir/My+Location/38.4609651,27.210138"},{"lat":38.457694,"lng":27.208999,"name":"Simav Eczanesi","address1":"Kazımdirik Mh, 370. Sk., Pk:35100 Bornova/İzmir, Turkey","address2":"izmir/bornova/simav eczanesi","direction":"https://www.google.com.tr/maps/dir/My+Location/38.457694,27.208999"},{"lat":38.4578735,"lng":27.2093276,"name":"Tarımcı Eczanesi","address1":"Kazımdirik, Üniversite Caddesi No:18/A, 35040 Bornova/İzmir, Turkey","address2":"izmir/bornova/tarımcı eczanesi","direction":"https://www.google.com.tr/maps/dir/My+Location/38.4578735,27.2093276"},{"lat":38.4584838,"lng":27.2083575,"name":"Üniversite Eczanesi","address1":"No:227/A, Kazımdirik, Ankara Cd., 35100 Bornova/İzmir, Turkey","address2":"izmir/bornova/üniversite eczanesi","direction":"https://www.google.com.tr/maps/dir/My+Location/38.4584838,27.2083575"},{"lat":38.4625847,"lng":27.2140339,"name":"Vitamin Eczanesi","address1":"Kazımdirik, Süvari Cd. No:44/A, 35100 Bornova/İzmir, Turkey","address2":"izmir/bornova/vitamin eczanesi","direction":"https://www.google.com.tr/maps/dir/My+Location/38.4625847,27.2140339"},{"lat":38.457844,"lng":27.2093389,"name":"Yavuz Eczanesi","address1":"Kazımdirik, Üniversite Cd. No:45, 35100 Bornova/İzmir, Turkey","address2":"izmir/bornova/yavuz eczanesi","direction":"https://www.google.com.tr/maps/dir/My+Location/38.457844,27.2093389"},{"lat":38.448389,"lng":27.190903,"name":"Yeni Abidin Eczanesi","address1":"Kazımdirik, Üniversite Cd. 26/A, 35100 Bornova/İzmir, Turkey","address2":"izmir/bornova/yeni abidin eczanesi","direction":"https://www.google.com.tr/maps/dir/My+Location/38.448389,27.190903"},{"lat":38.4585256,"lng":27.2088479,"name":"Yeni Filiz Eczanesi","address1":"Kazımdirik, Ankara Cd. No:233 D:A, 35100 Bornova/İzmir, Turkey","address2":"izmir/bornova/yeni filiz eczanesi","direction":"https://www.google.com.tr/maps/dir/My+Location/38.4585256,27.2088479"},{"lat":38.4587766,"lng":27.2099479,"name":"Yıldız Eczanesi","address1":"Kazımdirik, Ankara Cd. No:237/1-B, 35100 Bornova/İzmir, Turkey","address2":"izmir/bornova/yıldız eczanesi","direction":"https://www.google.com.tr/maps/dir/My+Location/38.4587766,27.2099479"},{"lat":38.458437,"lng":27.190696,"name":"Ahsen Eczanesi","address1":"Mansuroğlu, 273. Sk. 10/1, 35030 Bayraklı/İzmir, Turkey","address2":"izmir/bayraklı/ahsen eczanesi","direction":"https://www.google.com.tr/maps/dir/My+Location/38.458437,27.190696"},{"lat":38.4606004,"lng":27.2034552,"name":"Akgüneş Eczanesi","address1":"Kazımdirik, 194. Sk. No:46, 35100 Bornova/İzmir, Turkey","address2":"izmir/bornova/akgüneş eczanesi","direction":"https://www.google.com.tr/maps/dir/My+Location/38.4606004,27.2034552"},{"lat":38.4565114,"lng":27.1994135,"name":"Arınç Eczanesi","address1":"Mansuroğlu Mh. Haşim İşcan Cd. Pk:35030 Bayraklı/izmir, Mansuroğlu, 35535 Bayraklı/İzmir, Turkey","address2":"izmir/bayraklı/arınç eczanesi","direction":"https://www.google.com.tr/maps/dir/My+Location/38.4565114,27.1994135"},{"lat":38.455264,"lng":27.178755,"name":"Atalay Eczanesi","address1":"Adalet, 2131/1. Sk., 35530 Bayraklı/İzmir, Turkey","address2":"izmir/bayraklı/atalay eczanesi","direction":"https://www.google.com.tr/maps/dir/My+Location/38.455264,27.178755"},{"lat":38.4598701,"lng":27.188096,"name":"Bayraklı İnci Eczanesi","address1":"Manavkuyu, ALIJA İZZETBEGOVİÇ CADDESİ D:NO.54/A, 35535 Bayraklı/İzmir, Turkey","address2":"izmir/bayraklı/bayraklı inci eczanesi","direction":"https://www.google.com.tr/maps/dir/My+Location/38.4598701,27.188096"},{"lat":38.4599838,"lng":27.1962048,"name":"Belma Eczanesi","address1":"Mansuroğlu, 35030 Bayraklı/İzmir, Turkey","address2":"izmir/bayraklı/belma eczanesi","direction":"https://www.google.com.tr/maps/dir/My+Location/38.4599838,27.1962048"},{"lat":38.4615326,"lng":27.2040742,"name":"Betül Eczanesi","address1":"kazım dirik mah, Mustafa Kemal Cd. no:120 D:1b, 35100 Bornova/İzmir, Turkey","address2":"izmir/bornova/betül eczanesi","direction":"https://www.google.com.tr/maps/dir/My+Location/38.4615326,27.2040742"},{"lat":38.456272,"lng":27.1820338,"name":"Bornova Ceren Eczanesi","address1":"Manavkuyu, Manavkuyu Mh. Muhtarlığı, 35030 Bayraklı/İzmir, Turkey","address2":"izmir/bayraklı/bornova ceren eczanesi","direction":"https://www.google.com.tr/maps/dir/My+Location/38.456272,27.1820338"},{"lat":38.4636189,"lng":27.2035804,"name":"Bornova Ece Eczanesi","address1":"Kazımdirik, Fatih Sultan Mehmet Cd. No:34, 35100 Bornova/İzmir, Turkey","address2":"izmir/bornova/bornova ece eczanesi","direction":"https://www.google.com.tr/maps/dir/My+Location/38.4636189,27.2035804"},{"lat":38.4617063,"lng":27.2050264,"name":"Bornova Hülya Eczanesi","address1":"Kazımdirik, Mustafa Kemal Cd. 114/B, 35100 Bornova/İzmir, Turkey","address2":"izmir/bornova/bornova hülya eczanesi","direction":"https://www.google.com.tr/maps/dir/My+Location/38.4617063,27.2050264"},{"lat":38.4643136,"lng":27.1953544,"name":"Bornova Seçil Eczanesi","address1":"Manavkuyu Dumlupınar Caddesi No: 140/C D:No: 140/C, Manavkuyu, 35535 Bayraklı/İzmir, Turkey","address2":"izmir/bayraklı/bornova seçil eczanesi","direction":"https://www.google.com.tr/maps/dir/My+Location/38.4643136,27.1953544"},{"lat":38.453543,"lng":27.1830435,"name":"Çağında Eczanesi","address1":"Mansuroğlu Mh, 286. Sk. No:16/A, 35535 Bayraklı/İzmir, Turkey","address2":"izmir/bayraklı/çağında eczanesi","direction":"https://www.google.com.tr/maps/dir/My+Location/38.453543,27.1830435"},{"lat":38.457686,"lng":27.1943599,"name":"Çimecioğlu Eczanesi","address1":"Mansuroğlu, 273/1. Sk. 36/1 b, 35030 Bayraklı/İzmir, Turkey","address2":"izmir/bayraklı/çimecioğlu eczanesi","direction":"https://www.google.com.tr/maps/dir/My+Location/38.457686,27.1943599"},{"lat":38.453386,"lng":27.182772,"name":"Cun Eczanesi","address1":"Mansuroğlu, 35030 Bayraklı/İzmir, Turkey","address2":"izmir/bayraklı/cun eczanesi","direction":"https://www.google.com.tr/maps/dir/My+Location/38.453386,27.182772"},{"lat":38.461118,"lng":27.204073,"name":"Eczane Naturel Eczanesi","address1":"Kazımdirik Mh, Mustafa Kemal Cd. No:121/D, 35030 Bornova/İzmir, Turkey","address2":"izmir/bornova/eczane naturel eczanesi","direction":"https://www.google.com.tr/maps/dir/My+Location/38.461118,27.204073"},{"lat":38.4620868,"lng":27.2001479,"name":"Engin Eczanesi","address1":"Manavkuyu, 236. Sk. No:3/B, 35040 Bayraklı/İzmir, Turkey","address2":"izmir/bayraklı/engin eczanesi","direction":"https://www.google.com.tr/maps/dir/My+Location/38.4620868,27.2001479"},{"lat":38.4570763,"lng":27.1896109,"name":"Kibarlı Eczanesi","address1":"Mansuroğlu, 273/6. Sk. No:6 D:C, 35535 Bayraklı/İzmir, Turkey","address2":"izmir/bayraklı/kibarlı eczanesi","direction":"https://www.google.com.tr/maps/dir/My+Location/38.4570763,27.1896109"},{"lat":38.457606,"lng":27.1770972,"name":"Kızmaz Eczanesi","address1":"Adalet, 35580 Bayraklı/İzmir, Turkey","address2":"izmir/bayraklı/kızmaz eczanesi","direction":"https://www.google.com.tr/maps/dir/My+Location/38.457606,27.1770972"},{"lat":38.470982,"lng":27.21769,"name":"Metin Eczanesi","address1":"Bornova, Kızılay, 35030 Bornova/İzmir, Turkey","address2":"izmir/bornova/metin eczanesi","direction":"https://www.google.com.tr/maps/dir/My+Location/38.470982,27.21769"},{"lat":38.4622899,"lng":27.1963813,"name":"Nihan Okutan Eczanesi","address1":"Manavkuyu, Fatih Sultan Mehmet Cd. No: 70 C, 35535 Bayraklı/İzmir, Turkey","address2":"izmir/bayraklı/nihan okutan eczanesi","direction":"https://www.google.com.tr/maps/dir/My+Location/38.4622899,27.1963813"},{"lat":38.4553475,"lng":27.1860256,"name":"Önem Eczanesi","address1":"Mansuroğlu, 35030 Bayraklı/İzmir, Turkey","address2":"izmir/bayraklı/önem eczanesi","direction":"https://www.google.com.tr/maps/dir/My+Location/38.4553475,27.1860256"},{"lat":38.4587289,"lng":27.1874878,"name":"Övünç Eczanesi","address1":"Manavkuyu Mahallesi, 251/4. Sk. No:7/A, 35030 Bayraklı/İzmir, Turkey","address2":"izmir/bayraklı/övünç eczanesi","direction":"https://www.google.com.tr/maps/dir/My+Location/38.4587289,27.1874878"},{"lat":38.4544358,"lng":27.1895464,"name":"Öykü Eczanesi","address1":"Manavkuyu, 273/1. Sk. 2/B, 35535 Bayraklı/İzmir, Turkey","address2":"izmir/bayraklı/öykü eczanesi","direction":"https://www.google.com.tr/maps/dir/My+Location/38.4544358,27.1895464"},{"lat":38.457878,"lng":27.1913223,"name":"Park Eczanesi","address1":"Mansuroğlu Mah. 273/4 Sok. No:8/b Özkanlar Polis Karakolu Karşısı, Mansuroğlu, Özkanlar/bayraklı/izmir, 35040 Bayraklı/İzmir, Turkey","address2":"izmir/bayraklı/park eczanesi","direction":"https://www.google.com.tr/maps/dir/My+Location/38.457878,27.1913223"},{"lat":38.460846,"lng":27.198879,"name":"Recep Altındağ Eczanesi","address1":"Manavkuyu, Mustafa Kemal Cd. 144/a, 35030 Bayraklı/İzmir, Turkey","address2":"izmir/bayraklı/recep altındağ eczanesi","direction":"https://www.google.com.tr/maps/dir/My+Location/38.460846,27.198879"},{"lat":38.4586262,"lng":27.1909076,"name":"Seçkin Eczanesi","address1":"Mansuroğlu, 35030 Bayraklı/İzmir, Turkey","address2":"izmir/bayraklı/seçkin eczanesi","direction":"https://www.google.com.tr/maps/dir/My+Location/38.4586262,27.1909076"},{"lat":38.4535832,"lng":27.1824523,"name":"Şirin Eczanesi","address1":"Mansuroğlu, 35030 Bayraklı/İzmir, Turkey","address2":"izmir/bayraklı/şirin eczanesi","direction":"https://www.google.com.tr/maps/dir/My+Location/38.4535832,27.1824523"},{"lat":38.4576632,"lng":27.1763946,"name":"Tan Eczanesi","address1":"Manavkuyu, 1594/1. Sk. 76/B, 35530 Bayraklı/İzmir, Turkey","address2":"izmir/bayraklı/tan eczanesi","direction":"https://www.google.com.tr/maps/dir/My+Location/38.4576632,27.1763946"},{"lat":38.4643184,"lng":27.2013997,"name":"Taşkent Eczanesi","address1":"Manavkuyu, 235. Sk. Manavkuyu Mh. Muhtarlığı no:19/A, 35030 Bayraklı/İzmir, Turkey","address2":"izmir/bayraklı/taşkent eczanesi","direction":"https://www.google.com.tr/maps/dir/My+Location/38.4643184,27.2013997"},{"lat":38.460111,"lng":27.1952179,"name":"Tülün Eczanesi","address1":"İzmir, Manavkuyu Mh, 35030 Bayraklı/İzmir, Turkey","address2":"izmir/bayraklı/tülün eczanesi","direction":"https://www.google.com.tr/maps/dir/My+Location/38.460111,27.1952179"},{"lat":38.454322,"lng":27.176091,"name":"Ufuk Eczanesi","address1":"Haydar Aliyev Cd. Folkart Towers A Blok 18/C, Bayraklı, 35580 Bayraklı/İzmir, Turkey","address2":"izmir/bayraklı/ufuk eczanesi","direction":"https://www.google.com.tr/maps/dir/My+Location/38.454322,27.176091"},{"lat":38.4600745,"lng":27.1992935,"name":"Yazgan Eczanesi","address1":"Kazımdirik, Sakarya Cd. No:1 D:1c, 35100 Bornova/İzmir, Turkey","address2":"izmir/bornova/yazgan eczanesi","direction":"https://www.google.com.tr/maps/dir/My+Location/38.4600745,27.1992935"},{"lat":38.4593403,"lng":27.1826564,"name":"Yeni Başar Eczanesi","address1":"Manavkuyu, Bayraklı 6 Nolu Hasan Çolakoğlu Aile Sağlığı Merkez, 35030 Bayraklı/İzmir, Turkey","address2":"izmir/bayraklı/yeni başar eczanesi","direction":"https://www.google.com.tr/maps/dir/My+Location/38.4593403,27.1826564"},{"lat":38.4614385,"lng":27.2035829,"name":"Yeni Bulvar Eczanesi","address1":"Kazımdirik, 35100 Bornova/İzmir, Turkey","address2":"izmir/bornova/yeni bulvar eczanesi","direction":"https://www.google.com.tr/maps/dir/My+Location/38.4614385,27.2035829"},{"lat":38.455617,"lng":27.196788,"name":"Yeni Işıl Eczanesi","address1":"Mansuroğlu, 266. Sk. No:10, 35535 Bayraklı/İzmir, Turkey","address2":"izmir/bayraklı/yeni işıl eczanesi","direction":"https://www.google.com.tr/maps/dir/My+Location/38.455617,27.196788"},{"lat":38.458346,"lng":27.190337,"name":"Yeni Nuray Eczanesi","address1":"Mansuroğlu, 35030 Bayraklı/İzmir, Turkey","address2":"izmir/bayraklı/yeni nuray eczanesi","direction":"https://www.google.com.tr/maps/dir/My+Location/38.458346,27.190337"},{"lat":38.462225,"lng":27.199354,"name":"Yeni Öztürk Eczanesi","address1":"Manavkuyu, 243. Sk. Pk:35030, 35535 Bayraklı/İzmir, Turkey","address2":"izmir/bayraklı/yeni öztürk eczanesi","direction":"https://www.google.com.tr/maps/dir/My+Location/38.462225,27.199354"},{"lat":38.4617664,"lng":27.1868286,"name":"Yonca Eczanesi","address1":"Manavkuyu, 35030 Bayraklı/İzmir, Turkey","address2":"izmir/bayraklı/yonca eczanesi","direction":"https://www.google.com.tr/maps/dir/My+Location/38.4617664,27.1868286"},{"lat":38.463369,"lng":27.089496,"name":"Altınırmak Eczanesi","address1":"Atakent, 35540 Karşıyaka/İzmir, Turkey","address2":"izmir/karşıyaka/altınırmak eczanesi","direction":"https://www.google.com.tr/maps/dir/My+Location/38.463369,27.089496"},{"lat":38.4594755,"lng":27.1003317,"name":"Altunay Eczanesi","address1":"Bostanlı, Şehitler Blv 31/1, 35540 Karşıyaka/İzmir, Turkey","address2":"izmir/karşıyaka/altunay eczanesi","direction":"https://www.google.com.tr/maps/dir/My+Location/38.4594755,27.1003317"},{"lat":38.458524,"lng":27.098221,"name":"Ataşehir Eczanesi","address1":"Bostanlı, 1787/1. Sk. 34/B, 35540 Karşıyaka/İzmir, Turkey","address2":"izmir/karşıyaka/ataşehir eczanesi","direction":"https://www.google.com.tr/maps/dir/My+Location/38.458524,27.098221"},{"lat":38.4680293,"lng":27.0887386,"name":"Ay Eczanesi","address1":"Yalı, 6439. Sk. 61/c, 35550 Aosb/Karşıyaka/İzmir, Turkey","address2":"izmir/karşıyaka/ay eczanesi","direction":"https://www.google.com.tr/maps/dir/My+Location/38.4680293,27.0887386"},{"lat":38.458531,"lng":27.0975629,"name":"Aysan Eczanesi","address1":"Bostanlı, Cemal Bülbül Sk. NO:23/B, 35540 Karşıyaka/İzmir, Turkey","address2":"izmir/karşıyaka/aysan eczanesi","direction":"https://www.google.com.tr/maps/dir/My+Location/38.458531,27.0975629"},{"lat":38.4571129,"lng":27.0992816,"name":"Barlas Eczanesi","address1":"Bostanlı, 1794. Sk. No:6, 35540 Karşıyaka/İzmir, Turkey","address2":"izmir/karşıyaka/barlas eczanesi","direction":"https://www.google.com.tr/maps/dir/My+Location/38.4571129,27.0992816"},{"lat":38.469874,"lng":27.089135,"name":"Bengi Eczanesi","address1":"Yalı, 6470/2. Sk. 1/2, 35550 Karşıyaka/İzmir, Turkey","address2":"izmir/karşıyaka/bengi eczanesi","direction":"https://www.google.com.tr/maps/dir/My+Location/38.469874,27.089135"},{"lat":38.4591425,"lng":27.097802,"name":"Bereket Eczanesi","address1":"Bostanlı, 1735 Sok. 192/B, 35590 Karşıyaka/İzmir, Turkey","address2":"izmir/karşıyaka/bereket eczanesi","direction":"https://www.google.com.tr/maps/dir/My+Location/38.4591425,27.097802"},{"lat":38.45644,"lng":27.0981786,"name":"Bostanlı Ayfer Eczanesi","address1":"Bostanlı, İsmail Sivri Sk. No: 3/D, 35590 Karşıyaka/İzmir, Turkey","address2":"izmir/karşıyaka/bostanlı ayfer eczanesi","direction":"https://www.google.com.tr/maps/dir/My+Location/38.45644,27.0981786"},{"lat":38.4563316,"lng":27.0992297,"name":"Bostanlı Eczanesi","address1":"Bostanlı, Cemal Gürsel Cd. 484/A, 35540 Karşıyaka/İzmir, Turkey","address2":"izmir/karşıyaka/bostanlı eczanesi","direction":"https://www.google.com.tr/maps/dir/My+Location/38.4563316,27.0992297"},{"lat":38.4637705,"lng":27.093118,"name":"Bostanlı Pınar Eczanesi","address1":"Bostanlı Mahallesi, Caher Dudayev Blv 173 A, 35590 Karşıyaka/İzmir, Turkey","address2":"izmir/karşıyaka/bostanlı pınar eczanesi","direction":"https://www.google.com.tr/maps/dir/My+Location/38.4637705,27.093118"},{"lat":38.458729,"lng":27.09801,"name":"Bostanlı Saadet Eczanesi","address1":"Bostanlı, Cemal Bülbül Sk. No:7, 35600 Karşıyaka/İzmir, Turkey","address2":"izmir/karşıyaka/bostanlı saadet eczanesi","direction":"https://www.google.com.tr/maps/dir/My+Location/38.458729,27.09801"},{"lat":38.459184,"lng":27.098439,"name":"Bostanlı Şükran Eczanesi","address1":"Bostanlı Mahallesi, 1735. Sk. No:194/B, 35590 Karşıyaka/İzmir, Turkey","address2":"izmir/karşıyaka/bostanlı şükran eczanesi","direction":"https://www.google.com.tr/maps/dir/My+Location/38.459184,27.098439"},{"lat":38.4580817,"lng":27.0968987,"name":"Çaylı Eczanesi","address1":"Bostanlı Mah, Cemal Gürsel Cd. No: 516/ B, 35590 Karşıyaka/İzmir, Turkey","address2":"izmir/karşıyaka/çaylı eczanesi","direction":"https://www.google.com.tr/maps/dir/My+Location/38.4580817,27.0968987"},{"lat":38.45563,"lng":27.1032258,"name":"Deren Eczanesi","address1":"Bostanlı, Nebil Susup Sk. No:138, 35590 Karşıyaka/İzmir, Turkey","address2":"izmir/karşıyaka/deren eczanesi","direction":"https://www.google.com.tr/maps/dir/My+Location/38.45563,27.1032258"},{"lat":38.4722804,"lng":27.086124,"name":"Dikmen Eczanesi","address1":"Yalı Mh, 6471/5. Sk. 3/A, 35355 KARŞIYAKA/Karşıyaka/İzmir, Turkey","address2":"izmir/karşıyaka/dikmen eczanesi","direction":"https://www.google.com.tr/maps/dir/My+Location/38.4722804,27.086124"},{"lat":38.4661289,"lng":27.0998746,"name":"Duru Eczanesi","address1":"Yalı, Bestekar Yusuf Nalkesen Sk. No:38, 35560 Karşıyaka/İzmir, Turkey","address2":"izmir/karşıyaka/duru eczanesi","direction":"https://www.google.com.tr/maps/dir/My+Location/38.4661289,27.0998746"},{"lat":38.4619411,"lng":27.0885057,"name":"Eraslan Eczanesi","address1":"Atakent, 35540 Karşıyaka/İzmir, Turkey","address2":"izmir/karşıyaka/eraslan eczanesi","direction":"https://www.google.com.tr/maps/dir/My+Location/38.4619411,27.0885057"},{"lat":38.4592849,"lng":27.0980428,"name":"Güçlü Eczanesi","address1":"Bostanlı, 1735. Sk. Pk:35540, 35590 Karşıyaka/İzmir, Turkey","address2":"izmir/karşıyaka/güçlü eczanesi","direction":"https://www.google.com.tr/maps/dir/My+Location/38.4592849,27.0980428"},{"lat":38.4581334,"lng":27.0986225,"name":"Güneş Eczanesi","address1":"Bostanlı, 35540 Karşıyaka/İzmir, Turkey","address2":"izmir/karşıyaka/güneş eczanesi","direction":"https://www.google.com.tr/maps/dir/My+Location/38.4581334,27.0986225"},{"lat":38.458594,"lng":27.099195,"name":"Hande Eczanesi","address1":"Bostanlı, Şehitler Blv 31/1, 35540 Karşıyaka/İzmir, Turkey","address2":"izmir/karşıyaka/hande eczanesi","direction":"https://www.google.com.tr/maps/dir/My+Location/38.458594,27.099195"},{"lat":38.4639103,"lng":27.0930752,"name":"Hanımeli Eczanesi","address1":"Bostanlı, Caher Dudayev Blv Pk:35540, 35590 Karşıyaka/İzmir, Turkey","address2":"izmir/karşıyaka/hanımeli eczanesi","direction":"https://www.google.com.tr/maps/dir/My+Location/38.4639103,27.0930752"},{"lat":38.4680657,"lng":27.0883386,"name":"Mavişehir Sağlık Eczanesi","address1":"Atakent, 6439. Sk. 62/b, 35550 Karşıyaka/İzmir, Turkey","address2":"izmir/karşıyaka/mavişehir sağlık eczanesi","direction":"https://www.google.com.tr/maps/dir/My+Location/38.4680657,27.0883386"},{"lat":38.460107,"lng":27.103712,"name":"Okudur Eczanesi","address1":"Bostanlı, 1671. Sk., 35590 Karşıyaka/İzmir, Turkey","address2":"izmir/karşıyaka/okudur eczanesi","direction":"https://www.google.com.tr/maps/dir/My+Location/38.460107,27.103712"},{"lat":38.4688329,"lng":27.087654,"name":"Özgören Eczanesi","address1":"Yalı, 6440/3. Sk. 2 D, 35550 Aosb/Karşıyaka/İzmir, Turkey","address2":"izmir/karşıyaka/özgören eczanesi","direction":"https://www.google.com.tr/maps/dir/My+Location/38.4688329,27.087654"},{"lat":38.4782751,"lng":27.0806092,"name":"Saygın Eczanesi","address1":"No:, Yalı, 6523. Sk. No:15, 35550 Karşıyaka/İzmir, Turkey","address2":"izmir/karşıyaka/saygın eczanesi","direction":"https://www.google.com.tr/maps/dir/My+Location/38.4782751,27.0806092"},{"lat":38.4579424,"lng":27.0964051,"name":"Tanrıverdi Eczanesi","address1":"Bostanlı, 35540 Karşıyaka/İzmir, Turkey","address2":"izmir/karşıyaka/tanrıverdi eczanesi","direction":"https://www.google.com.tr/maps/dir/My+Location/38.4579424,27.0964051"},{"lat":38.45918,"lng":27.098548,"name":"Umutlu Eczanesi","address1":"Bostanlı Mh, 1735. Sk. No:192/B, 35220 Karşıyaka/İzmir, Turkey","address2":"izmir/karşıyaka/umutlu eczanesi","direction":"https://www.google.com.tr/maps/dir/My+Location/38.45918,27.098548"},{"lat":38.4680215,"lng":27.0882543,"name":"Üsküp Eczanesi","address1":"Yalı, 6471. Sk. No:33, 35550 Aosb/Karşıyaka/İzmir, Turkey","address2":"izmir/karşıyaka/üsküp eczanesi","direction":"https://www.google.com.tr/maps/dir/My+Location/38.4680215,27.0882543"},{"lat":38.4690795,"lng":27.0874005,"name":"Yeni Akhisar Eczanesi","address1":"Yalı, 6440/4. Sk. 2 B, 35550 Aosb/Karşıyaka/İzmir, Turkey","address2":"izmir/karşıyaka/yeni akhisar eczanesi","direction":"https://www.google.com.tr/maps/dir/My+Location/38.4690795,27.0874005"},{"lat":38.4570454,"lng":27.0978693,"name":"Yosun Eczanesi","address1":"Bostanlı, 35540 Karşıyaka/İzmir, Turkey","address2":"izmir/karşıyaka/yosun eczanesi","direction":"https://www.google.com.tr/maps/dir/My+Location/38.4570454,27.0978693"},{"lat":38.3986987,"lng":27.1234883,"name":"Acırgan Şifa Eczanesi","address1":"Bahçelievler, Saim Çıkrıkçı Cd. No:98/A, 35150 Karabağlar/İzmir, Turkey","address2":"izmir/karabağlar/acırgan şifa eczanesi","direction":"https://www.google.com.tr/maps/dir/My+Location/38.3986987,27.1234883"},{"lat":38.3977501,"lng":27.122424,"name":"Beril Eczanesi","address1":"Bahçelievler Mahallesi, Saim Çıkrıkçı Cd. No:118/A, 35150 Karabağlar/İzmir, Turkey","address2":"izmir/karabağlar/beril eczanesi","direction":"https://www.google.com.tr/maps/dir/My+Location/38.3977501,27.122424"},{"lat":38.3972799,"lng":27.1278572,"name":"Bozyaka Ezgi Eczanesi","address1":"Çalıkuşu, Eski İzmir Cd. Pk:35170, 35360 Karabağlar/İzmir, Turkey","address2":"izmir/karabağlar/bozyaka ezgi eczanesi","direction":"https://www.google.com.tr/maps/dir/My+Location/38.3972799,27.1278572"},{"lat":38.3982497,"lng":27.1232666,"name":"Bozyaka Özlem Eczanesi","address1":"106/A, Bahçelievler, Saim Çıkrıkçı Cd., 35150 Karabağlar/İzmir, Turkey","address2":"izmir/karabağlar/bozyaka özlem eczanesi","direction":"https://www.google.com.tr/maps/dir/My+Location/38.3982497,27.1232666"},{"lat":38.3982265,"lng":27.1232121,"name":"Bozyaka Serdar Eczanesi","address1":"Bahçelievler Mahallesi, Saim Çıkrıkçı Cd. No:108, 35170 Karabağlar/İzmir, Turkey","address2":"izmir/karabağlar/bozyaka serdar eczanesi","direction":"https://www.google.com.tr/maps/dir/My+Location/38.3982265,27.1232121"},{"lat":38.398333,"lng":27.12334,"name":"Burçak Eczanesi","address1":"Bahçelievler, Saim Çıkrıkçı Cd. No:104, 35150 Karabağlar/İzmir, Turkey","address2":"izmir/karabağlar/burçak eczanesi","direction":"https://www.google.com.tr/maps/dir/My+Location/38.398333,27.12334"},{"lat":38.398111,"lng":27.1230599,"name":"Büyük İzmir Eczanesi","address1":"Bahçelievler, Saim Çıkrıkçı Cd. No:110/A, 35150 Karabağlar/İzmir, Turkey","address2":"izmir/karabağlar/büyük izmir eczanesi","direction":"https://www.google.com.tr/maps/dir/My+Location/38.398111,27.1230599"},{"lat":38.3955233,"lng":27.127006,"name":"Çalıkuşu Eczanesi","address1":"Bahar, 35170 Karabağlar/İzmir, Turkey","address2":"izmir/karabağlar/çalıkuşu eczanesi","direction":"https://www.google.com.tr/maps/dir/My+Location/38.3955233,27.127006"},{"lat":38.391459,"lng":27.120736,"name":"Cansev Eczanesi","address1":"Gülyaka Mah. 3012 Sok, Gülyaka, Sağlık Ocağı Yanı No:16, 35110 Karabağlar/İzmir, Turkey","address2":"izmir/karabağlar/cansev eczanesi","direction":"https://www.google.com.tr/maps/dir/My+Location/38.391459,27.120736"},{"lat":38.398567,"lng":27.123394,"name":"Eğitim Eczanesi","address1":"Bahçelievler Saim Çıkrıkçı Caddesi No :102, Bahçelievler, 35150 Karabağlar/İzmir, Turkey","address2":"izmir/karabağlar/eğitim eczanesi","direction":"https://www.google.com.tr/maps/dir/My+Location/38.398567,27.123394"},{"lat":38.3321106,"lng":27.0246496,"name":"Hüdaverdi Eczanesi","address1":"BOZYAKA MAH ESKİ İZMİR CAD 205/A KARABAĞLAR, Tırazlı, 35170 KARABAĞLAR/Karabağlar/İzmir, Turkey","address2":"izmir/karabağlar/hüdaverdi eczanesi","direction":"https://www.google.com.tr/maps/dir/My+Location/38.3321106,27.0246496"},{"lat":38.3983067,"lng":27.1233183,"name":"Kardelen Eczanesi","address1":"Bahçelievler Mah, Saim Çıkrıkçı Cd. No: 104/A, 35150 Karabağlar/İzmir, Turkey","address2":"izmir/karabağlar/kardelen eczanesi","direction":"https://www.google.com.tr/maps/dir/My+Location/38.3983067,27.1233183"},{"lat":38.3959729,"lng":27.1274298,"name":"Kilimcitepe Eczanesi","address1":"Çalıkuşu, Eski İzmir Cd. 97/b, 35170 Karabağlar/İzmir, Turkey","address2":"izmir/karabağlar/kilimcitepe eczanesi","direction":"https://www.google.com.tr/maps/dir/My+Location/38.3959729,27.1274298"},{"lat":38.3869704,"lng":27.1316918,"name":"Kocagil Eczanesi","address1":"Cennetoğlu, Coşkun Kale Sk. 103/B, 35110 Karabağlar/İzmir, Turkey","address2":"izmir/karabağlar/kocagil eczanesi","direction":"https://www.google.com.tr/maps/dir/My+Location/38.3869704,27.1316918"},{"lat":38.3981654,"lng":27.1280695,"name":"Öz Hayat Eczanesi","address1":"Karabağlar, Eski İzmir Cad. 61/D, 35110 Karabağlar/İzmir, Turkey","address2":"izmir/karabağlar/öz hayat eczanesi","direction":"https://www.google.com.tr/maps/dir/My+Location/38.3981654,27.1280695"},{"lat":38.398567,"lng":27.123394,"name":"Özcanlar Eczanesi","address1":"Bahçelievler, Saim Çıkrıkçı Cd. No:102, 35360 Karabağlar/İzmir, Turkey","address2":"izmir/karabağlar/özcanlar eczanesi","direction":"https://www.google.com.tr/maps/dir/My+Location/38.398567,27.123394"},{"lat":38.3905688,"lng":27.1257722,"name":"Sağol Eczanesi","address1":"Bozyaka, Coşkun Kale Sk. No:20, 35110 Karabağlar/İzmir, Turkey","address2":"izmir/karabağlar/sağol eczanesi","direction":"https://www.google.com.tr/maps/dir/My+Location/38.3905688,27.1257722"},{"lat":38.3871097,"lng":27.131319,"name":"Süer Eczanesi","address1":"Sarıyer, Coşkun Kale Sk. No: 128/A, 35170 Karabağlar/İzmir, Turkey","address2":"izmir/karabağlar/süer eczanesi","direction":"https://www.google.com.tr/maps/dir/My+Location/38.3871097,27.131319"},{"lat":38.3914589,"lng":27.1211219,"name":"Ulu Eczanesi","address1":"Gülyaka, Gülyaka Mh. Muhtarlığı, 35170 Karabağlar/İzmir, Turkey","address2":"izmir/karabağlar/ulu eczanesi","direction":"https://www.google.com.tr/maps/dir/My+Location/38.3914589,27.1211219"},{"lat":38.3929825,"lng":27.1261684,"name":"Uncuoğlu Eczanesi","address1":"Bahar, Eski İzmir Cd. Pk:35170, 35360 Karabağlar/İzmir, Turkey","address2":"izmir/karabağlar/uncuoğlu eczanesi","direction":"https://www.google.com.tr/maps/dir/My+Location/38.3929825,27.1261684"},{"lat":38.3892816,"lng":27.1186617,"name":"Yeni Sevil Eczanesi","address1":"Gülyaka, 35170 Karabağlar/İzmir, Turkey","address2":"izmir/karabağlar/yeni sevil eczanesi","direction":"https://www.google.com.tr/maps/dir/My+Location/38.3892816,27.1186617"},{"lat":38.3986131,"lng":27.1273516,"name":"Yumrutaş Eczanesi","address1":"Bahar, 2904/1. Sk. 3/B, 35170 Karabağlar/İzmir, Turkey","address2":"izmir/karabağlar/yumrutaş eczanesi","direction":"https://www.google.com.tr/maps/dir/My+Location/38.3986131,27.1273516"},{"lat":38.3842853,"lng":27.1634276,"name":"Anadolu Eczanesi","address1":"Kozağaç, Özmen Cd. No:147, 35390 Buca/İzmir, Turkey","address2":"izmir/buca/anadolu eczanesi","direction":"https://www.google.com.tr/maps/dir/My+Location/38.3842853,27.1634276"},{"lat":38.3851628,"lng":27.1665139,"name":"Buca Can Eczanesi","address1":"Vali Rahmi Bey, Özmen Cd. No:124, 35380 Buca Organize Sanayi Bölgesi/Buca/İzmir, Turkey","address2":"izmir/buca/buca can eczanesi","direction":"https://www.google.com.tr/maps/dir/My+Location/38.3851628,27.1665139"},{"lat":38.3878705,"lng":27.1731658,"name":"Buca Eczanesi","address1":"Vali Rahmi Bey, Uğur Mumcu Cd. No:2, 35380 Buca Osb/Buca/Buca/İzmir, Turkey","address2":"izmir/buca/buca eczanesi","direction":"https://www.google.com.tr/maps/dir/My+Location/38.3878705,27.1731658"},{"lat":38.381813,"lng":27.174394,"name":"Buca Erdem Eczanesi","address1":"Kozağaç Mh, 229. Sk. Pk:35678, 35390 Buca/İzmir, Turkey","address2":"izmir/buca/buca erdem eczanesi","direction":"https://www.google.com.tr/maps/dir/My+Location/38.381813,27.174394"},{"lat":38.3848351,"lng":27.1670104,"name":"Buca Itır Eczanesi","address1":"Vali Rahmi Bey, Özmen Cd. No:112, 35380 Buca Osb/Buca/İzmir, Turkey","address2":"izmir/buca/buca itır eczanesi","direction":"https://www.google.com.tr/maps/dir/My+Location/38.3848351,27.1670104"},