[{"lat":41.0788454,"lng":28.8839146,"name":"Hira Eczanesi","address1":"47/A, Karadeniz, General Aldoğan Cd., 34250 Gaziosmanpaşa/İstanbul, Turkey","address2":"istanbul/gaziosmanpaşa/hira eczanesi","direction":"https://www.google.com.tr/maps/dir/My+Location/41.0788454,28.8839146"},{"lat":40.886669,"lng":29.260246,"name":"İstanbul Eczanesi","address1":"Kaynarca, Fevzi Çakmak Cad./selanik Sok. No:5/D, 34899 Pendik/İstanbul, Turkey","address2":"istanbul/pendik/istanbul eczanesi","direction":"https://www.google.com.tr/maps/dir/My+Location/40.886669,29.260246"},{"lat":41.0082376,"lng":28.9783589,"name":"İstanbul  Eczanesi","address1":"İstanbul, Turkey","address2":"istanbul/kırıkkale merkez/istanbul  eczanesi","direction":"https://www.google.com.tr/maps/dir/My+Location/41.0082376,28.9783589"},{"lat":40.9975,"lng":28.850556,"name":"Barış Eczanesi","address1":"Bahçelievler, Şirinevler, 34100 Bahçelievler/İstanbul, Turkey","address2":"istanbul/bahçelievler/barış eczanesi","direction":"https://www.google.com.tr/maps/dir/My+Location/40.9975,28.850556"},{"lat":40.9894007,"lng":28.7970411,"name":"Yeni Van Eczanesi","address1":"Beşyol, 34295 Küçükçekmece/İstanbul, Turkey","address2":"istanbul/küçükçekmece/yeni van eczanesi","direction":"https://www.google.com.tr/maps/dir/My+Location/40.9894007,28.7970411"},{"lat":41.0082376,"lng":28.9783589,"name":"Yıldız Eczanesi","address1":"İstanbul, Turkey","address2":"istanbul/küçükçekmece/yıldız eczanesi","direction":"https://www.google.com.tr/maps/dir/My+Location/41.0082376,28.9783589"},{"lat":40.87745,"lng":29.2326689,"name":"Üstün Eczanesi","address1":"Batı, Ortanca Cd. No:33, 34890 Pendik/İstanbul, Turkey","address2":"istanbul/pendik/üstün eczanesi","direction":"https://www.google.com.tr/maps/dir/My+Location/40.87745,29.2326689"},{"lat":41.0340009,"lng":28.9784855,"name":"Damla Eczanesi","address1":"İstiklal Cd., Beyoğlu/İstanbul, Turkey","address2":"istanbul/beyoğlu/damla eczanesi","direction":"https://www.google.com.tr/maps/dir/My+Location/41.0340009,28.9784855"},{"lat":41.0082376,"lng":28.9783589,"name":"İstanbul Eczanesi","address1":"İstanbul, Turkey","address2":"istanbul/serdivan/istanbul eczanesi","direction":"https://www.google.com.tr/maps/dir/My+Location/41.0082376,28.9783589"},{"lat":41.0382864,"lng":28.9703304,"name":"Beyoğlu Eczanesi","address1":"Beyoğlu/İstanbul, Turkey","address2":"istanbul/beyoğlu/beyoğlu eczanesi","direction":"https://www.google.com.tr/maps/dir/My+Location/41.0382864,28.9703304"},{"lat":40.884664,"lng":29.2724223,"name":"Adaçayı Eczanesi","address1":"Esenler, Rifat Ilgaz Cd 63/B, 34899 Pendik/İstanbul, Turkey","address2":"istanbul/pendik/adaçayı eczanesi","direction":"https://www.google.com.tr/maps/dir/My+Location/40.884664,29.2724223"},{"lat":41.0382645,"lng":28.9370032,"name":"Güney Eczanesi","address1":"Eyüp, Eyüp Merkez, 34050 Eyüp/İstanbul, Turkey","address2":"istanbul/eyüp/güney eczanesi","direction":"https://www.google.com.tr/maps/dir/My+Location/41.0382645,28.9370032"},{"lat":40.9783649,"lng":28.8720935,"name":"Hekimlokman Eczanesi","address1":"Zeytinlik, Fişekhane Cd. No:32, 34140 Bakırköy/İstanbul, Turkey","address2":"istanbul/bakırköy/hekimlokman eczanesi","direction":"https://www.google.com.tr/maps/dir/My+Location/40.9783649,28.8720935"},{"lat":40.9652196,"lng":29.0724487,"name":"Rüzgar Eczanesi","address1":"Caddebostan, Kantarcı Rıza Sk. No:1/A, 34738 Kadıköy/İstanbul, Turkey","address2":"istanbul/kadıköy/rüzgar eczanesi","direction":"https://www.google.com.tr/maps/dir/My+Location/40.9652196,29.0724487"},{"lat":41.0090866,"lng":29.0387191,"name":"Şeyma Eczanesi","address1":"Koşuyolu, Kadıköy/İstanbul, Turkey","address2":"istanbul/kadıköy/şeyma eczanesi","direction":"https://www.google.com.tr/maps/dir/My+Location/41.0090866,29.0387191"},{"lat":41.3186,"lng":28.722,"name":"Zilan Eczanesi","address1":"Yeniköy, 34277 Arnavutköy/İstanbul, Turkey","address2":"istanbul/arnavutköy/zilan eczanesi","direction":"https://www.google.com.tr/maps/dir/My+Location/41.3186,28.722"},{"lat":41.3186,"lng":28.722,"name":"Saadet Eczanesi","address1":"Yeniköy, 34277 Arnavutköy/İstanbul, Turkey","address2":"istanbul/arnavutköy/saadet eczanesi","direction":"https://www.google.com.tr/maps/dir/My+Location/41.3186,28.722"},{"lat":40.878648,"lng":29.068354,"name":"Bülent Eczanesi","address1":"Burgazadası, Yalı Cad. No:17, 34975 Adalar/Istanbul - Asia, Turkey","address2":"istanbul - asia/adalar/bülent eczanesi","direction":"https://www.google.com.tr/maps/dir/My+Location/40.878648,29.068354"},{"lat":40.879872,"lng":29.068909,"name":"Burgazada Eczanesi","address1":"Burgazadası, Çınarlık Sk., 34975 Adalar/İstanbul, Turkey","address2":"istanbul/adalar/burgazada eczanesi","direction":"https://www.google.com.tr/maps/dir/My+Location/40.879872,29.068909"},{"lat":40.8730872,"lng":29.1304411,"name":"Büyükada Eczanesi","address1":"Büyükada-nizam, Çınar Cd. No:2, 34970 Adalar/İstanbul, Turkey","address2":"istanbul/adalar/büyükada eczanesi","direction":"https://www.google.com.tr/maps/dir/My+Location/40.8730872,29.1304411"},{"lat":40.8730769,"lng":29.1304758,"name":"Halk Eczanesi","address1":"Büyükada-maden, Çınar Cad. No:13, 34970 Adalar/Istanbul - Asia, Turkey","address2":"istanbul - asia/adalar/halk eczanesi","direction":"https://www.google.com.tr/maps/dir/My+Location/40.8730769,29.1304758"},{"lat":40.8774639,"lng":29.1000001,"name":"Hayat Eczanesi","address1":"Heybeliada, Ayyıldız Cd. No:25, 34973 Adalar/İstanbul, Turkey","address2":"istanbul/adalar/hayat eczanesi","direction":"https://www.google.com.tr/maps/dir/My+Location/40.8774639,29.1000001"},{"lat":40.877609,"lng":29.100104,"name":"Heybeliada Eczanesi","address1":"Heybeliada, Ayyıldız Cd. No:28, 34973 Adalar/İstanbul, Turkey","address2":"istanbul/adalar/heybeliada eczanesi","direction":"https://www.google.com.tr/maps/dir/My+Location/40.877609,29.100104"},{"lat":40.907981,"lng":29.0555291,"name":"Kınalı Eczanesi","address1":"Kınalıada, Kınalı Çarşı Cd. No:20, 34977 Adalar/İstanbul, Turkey","address2":"istanbul/adalar/kınalı eczanesi","direction":"https://www.google.com.tr/maps/dir/My+Location/40.907981,29.0555291"},{"lat":40.874026,"lng":29.1282149,"name":"Merkez Eczanesi","address1":"Büyükada-nizam, Kıvılcım Sk. No:11, 34970 Adalar/İstanbul, Turkey","address2":"istanbul/adalar/merkez eczanesi","direction":"https://www.google.com.tr/maps/dir/My+Location/40.874026,29.1282149"},{"lat":41.186441,"lng":28.7444643,"name":"Ayışığı Eczanesi","address1":"Anadolu, Hoca Ahmet Yesevi Cd. No:33, 34275 Arnavutköy/İstanbul, Turkey","address2":"istanbul/arnavutköy/ayışığı eczanesi","direction":"https://www.google.com.tr/maps/dir/My+Location/41.186441,28.7444643"},{"lat":41.1565348,"lng":28.6242157,"name":"Duygu Eczanesi","address1":"Hadımköy, Haraççı-Hadımköy Yolu Cd. 286/A, 34555 Arnavutköy/İstanbul, Turkey","address2":"istanbul/arnavutköy/duygu eczanesi","direction":"https://www.google.com.tr/maps/dir/My+Location/41.1565348,28.6242157"},{"lat":41.1559924,"lng":28.6216931,"name":"Hadımköy Eczanesi","address1":"Hastane, Ayasofya Cd. No:9 D:A, 34555 Arnavutköy/İstanbul, Turkey","address2":"istanbul/arnavutköy/hadımköy eczanesi","direction":"https://www.google.com.tr/maps/dir/My+Location/41.1559924,28.6216931"},{"lat":41.1827444,"lng":28.7417214,"name":"Merve Nur Eczanesi","address1":"eski edirne Cad. Aygen Pasajı No:1378/b, Arnavutköy Merkez, 34275 Arnavutköy/İstanbul, Turkey","address2":"istanbul/arnavutköy/merve nur eczanesi","direction":"https://www.google.com.tr/maps/dir/My+Location/41.1827444,28.7417214"},{"lat":41.1817319,"lng":28.74399,"name":"Nesrin Özer Eczanesi","address1":"Arnavutköy Merkez, Eski Edirne Cd. No:52, 34275 Arnavutköy/İstanbul, Turkey","address2":"istanbul/arnavutköy/nesrin özer eczanesi","direction":"https://www.google.com.tr/maps/dir/My+Location/41.1817319,28.74399"},{"lat":41.183917,"lng":28.742081,"name":"Ömür Eczanesi","address1":"Aysil sokak no71-5, Arnavutköy Merkez, 34275 Arnavutkoy/Arnavutköy/İstanbul, Turkey","address2":"istanbul/arnavutköy/ömür eczanesi","direction":"https://www.google.com.tr/maps/dir/My+Location/41.183917,28.742081"},{"lat":41.1818355,"lng":28.740905,"name":"Özdemir Eczanesi","address1":"Arnavutköy Merkez, 34281 Arnavutköy/İstanbul, Turkey","address2":"istanbul/arnavutköy/özdemir eczanesi","direction":"https://www.google.com.tr/maps/dir/My+Location/41.1818355,28.740905"},{"lat":41.185141,"lng":28.737371,"name":"Serhad Eczanesi","address1":"Arnavutköy Merkez, Semih Sk. No:8 D:10B, 34275 Arnavutköy/İstanbul, Turkey","address2":"istanbul/arnavutköy/serhad eczanesi","direction":"https://www.google.com.tr/maps/dir/My+Location/41.185141,28.737371"},{"lat":41.1564573,"lng":28.6236159,"name":"Şirin Eczanesi","address1":"Hadımköy Mh, Haraççı-Hadımköy Yolu Cd. Pk:34555, 34555 Arnavutköy/İstanbul, Turkey","address2":"istanbul/arnavutköy/şirin eczanesi","direction":"https://www.google.com.tr/maps/dir/My+Location/41.1564573,28.6236159"},{"lat":41.1570486,"lng":28.6257067,"name":"Soydan Eczanesi","address1":"Hadımköy, Haraççı-Hadımköy Yolu Cd. No:272/C, 34555 Arnavutköy/İstanbul, Turkey","address2":"istanbul/arnavutköy/soydan eczanesi","direction":"https://www.google.com.tr/maps/dir/My+Location/41.1570486,28.6257067"},{"lat":41.17834,"lng":28.7460685,"name":"Taner Eczanesi","address1":"Arnavutköy Merkez, Fatih Caddesi Üstüner Sokak 6/b, 34275 Arnavutköy/İstanbul, Turkey","address2":"istanbul/arnavutköy/taner eczanesi","direction":"https://www.google.com.tr/maps/dir/My+Location/41.17834,28.7460685"},{"lat":41.1785234,"lng":28.7465851,"name":"Tezel Eczanesi","address1":"Arnavutköy Merkez, Üstüner Sok: No:8/A, 34281 Arnavutköy/İstanbul, Turkey","address2":"istanbul/arnavutköy/tezel eczanesi","direction":"https://www.google.com.tr/maps/dir/My+Location/41.1785234,28.7465851"},{"lat":41.17824,"lng":28.746,"name":"Yaylalı Eczanesi","address1":"Merkez Mh, Üstüner Sk. Pk:34281, 34275 Arnavutköy/İstanbul, Turkey","address2":"istanbul/arnavutköy/yaylalı eczanesi","direction":"https://www.google.com.tr/maps/dir/My+Location/41.17824,28.746"},{"lat":41.182251,"lng":28.612177,"name":"Zeyni Eczanesi","address1":"Hadımköy, Basın Sk 5/3-2, 34555 Arnavutköy/İstanbul, Turkey","address2":"istanbul/arnavutköy/zeyni eczanesi","direction":"https://www.google.com.tr/maps/dir/My+Location/41.182251,28.612177"},{"lat":40.9938231,"lng":29.0765629,"name":"Ahu Eczanesi","address1":"Örnek, Neyzen Salim Bey Sk. No:21, 34704 Ataşehir/İstanbul, Turkey","address2":"istanbul/ataşehir/ahu eczanesi","direction":"https://www.google.com.tr/maps/dir/My+Location/40.9938231,29.0765629"},{"lat":40.9727778,"lng":29.1063889,"name":"Akar Eczanesi","address1":"İçerenköy, Üsküdar-İçerenköy Cd No:29 D:1, 34752 Ataşehir/İstanbul, Turkey","address2":"istanbul/ataşehir/akar eczanesi","direction":"https://www.google.com.tr/maps/dir/My+Location/40.9727778,29.1063889"},{"lat":40.9954739,"lng":29.0835659,"name":"Aktan Eczanesi","address1":"Örnek, Şht. Cahar Dudayev Cd. no-90-a, 34704 Ataşehir/İstanbul, Turkey","address2":"istanbul/ataşehir/aktan eczanesi","direction":"https://www.google.com.tr/maps/dir/My+Location/40.9954739,29.0835659"},{"lat":40.991765,"lng":29.1067389,"name":"Andromeda Eczanesi","address1":"Barbaros Mahallesi, Morleylak Sokağı, Ağaoğlu Myworld Andromeda Sitesi İçi, Barbaros, 34746 Ataşehir/İstanbul, Turkey","address2":"istanbul/ataşehir/andromeda eczanesi","direction":"https://www.google.com.tr/maps/dir/My+Location/40.991765,29.1067389"},{"lat":40.9782594,"lng":29.1181478,"name":"Annem Eczanesi","address1":"İçerenköy Kayışdağı Cad. Kiptaş İçerenköy Blokları No:5, İçerenköy, D:96, 34752 Ataşehir/İstanbul, Turkey","address2":"istanbul/ataşehir/annem eczanesi","direction":"https://www.google.com.tr/maps/dir/My+Location/40.9782594,29.1181478"},{"lat":40.977568,"lng":29.1448042,"name":"Arık Eczanesi","address1":"İnönü, Kayışdağı Cd. No:274, 34755 Dudullu Organize Sanayi Bölgesi/Ataşehir/İstanbul, Turkey","address2":"istanbul/ataşehir/arık eczanesi","direction":"https://www.google.com.tr/maps/dir/My+Location/40.977568,29.1448042"},{"lat":40.97322,"lng":29.115045,"name":"Aslıhan Eczanesi","address1":"İçerenköy, 34752 Ataşehir/İstanbul, Turkey","address2":"istanbul/ataşehir/aslıhan eczanesi","direction":"https://www.google.com.tr/maps/dir/My+Location/40.97322,29.115045"},{"lat":40.9925667,"lng":29.1261346,"name":"Ata Eczanesi","address1":"Ata 4/4 Çarşı, Atatürk Mahallesi, Ataşehir Blv. 18 E, 34750 Ataşehir/İstanbul, Turkey","address2":"istanbul/ataşehir/ata eczanesi","direction":"https://www.google.com.tr/maps/dir/My+Location/40.9925667,29.1261346"},{"lat":40.9849204,"lng":29.1074402,"name":"Ataşehir Plus Eczanesi","address1":"Küçükbakkalköy, 34750 Dudullu Osb/Ataşehir/İstanbul, Turkey","address2":"istanbul/ataşehir/ataşehir plus eczanesi","direction":"https://www.google.com.tr/maps/dir/My+Location/40.9849204,29.1074402"},{"lat":40.9848866,"lng":29.1094284,"name":"Ataşehir Şifa Eczanesi","address1":"Küçükbakkalköy, Işıklar Cd. 33/A, 34750 Ataşehir/İstanbul, Turkey","address2":"istanbul/ataşehir/ataşehir şifa eczanesi","direction":"https://www.google.com.tr/maps/dir/My+Location/40.9848866,29.1094284"},{"lat":40.9835948,"lng":29.1567805,"name":"Atınç Eczanesi","address1":"Mevlana Mh., Mevlana, 34758 Ataşehir/İstanbul, Turkey","address2":"istanbul/ataşehir/atınç eczanesi","direction":"https://www.google.com.tr/maps/dir/My+Location/40.9835948,29.1567805"},{"lat":40.9732343,"lng":29.1138642,"name":"Aysun Eczanesi","address1":"İçerenköy, Karslı Ahmet Cd. No:34, 34752 Ataşehir/İstanbul, Turkey","address2":"istanbul/ataşehir/aysun eczanesi","direction":"https://www.google.com.tr/maps/dir/My+Location/40.9732343,29.1138642"},{"lat":40.9873495,"lng":29.1693854,"name":"Bal Eczanesi","address1":"FERHATPAŞA MAH, Yeditepe Cd. NO:109/ A, 34888 Ataşehir/İstanbul, Turkey","address2":"istanbul/ataşehir/bal eczanesi","direction":"https://www.google.com.tr/maps/dir/My+Location/40.9873495,29.1693854"},{"lat":40.9881703,"lng":29.1379892,"name":"Botanik Eczanesi","address1":"MERİÇ CAD T15 BOTANİK ÇARŞI NO 4, Ataşehir Atatürk, 34758 Ataşehir/İstanbul, Turkey","address2":"istanbul/ataşehir/botanik eczanesi","direction":"https://www.google.com.tr/maps/dir/My+Location/40.9881703,29.1379892"},{"lat":40.9824434,"lng":29.1316342,"name":"Brandium Eczanesi","address1":"Küçükbakkalköy, Dudullu Cd. 23-25, 34758 Ataşehir/İstanbul, Turkey","address2":"istanbul/ataşehir/brandium eczanesi","direction":"https://www.google.com.tr/maps/dir/My+Location/40.9824434,29.1316342"},{"lat":40.9945009,"lng":29.1106499,"name":"Bulvar 216 Eczanesi","address1":"Barbaros, Mor zambak sokak no:9 A D:13, 34746 Ataşehir/İstanbul, Turkey","address2":"istanbul/ataşehir/bulvar 216 eczanesi","direction":"https://www.google.com.tr/maps/dir/My+Location/40.9945009,29.1106499"},{"lat":40.986685,"lng":29.132054,"name":"Butik Eczanesi","address1":"Ataşehir Atatürk Mahallesi, Girne Cd. No:53, 34758 Dudullu Osb/Ataşehir/İstanbul, Turkey","address2":"istanbul/ataşehir/butik eczanesi","direction":"https://www.google.com.tr/maps/dir/My+Location/40.986685,29.132054"},{"lat":40.97019,"lng":29.114163,"name":"Çağatay Eczanesi","address1":"İçerenköy, Özyurt Sk. No:24, 34752 Ataşehir/İstanbul, Turkey","address2":"istanbul/ataşehir/çağatay eczanesi","direction":"https://www.google.com.tr/maps/dir/My+Location/40.97019,29.114163"},{"lat":40.9760726,"lng":29.111506,"name":"Canşifa Eczanesi","address1":"İçerenköy Mah., Postacılar Sk. & Kanuni Sultan Süleymen ASM Karşısı 23/A, 34752 Ataşehir/İstanbul, Turkey","address2":"istanbul/ataşehir/canşifa eczanesi","direction":"https://www.google.com.tr/maps/dir/My+Location/40.9760726,29.111506"},{"lat":40.9789606,"lng":29.1088853,"name":"Diclem Eczanesi","address1":"İçerenköy, Kayışdağı Cd. 28/a, 34752 Ataşehir/İstanbul, Turkey","address2":"istanbul/ataşehir/diclem eczanesi","direction":"https://www.google.com.tr/maps/dir/My+Location/40.9789606,29.1088853"},{"lat":40.9872463,"lng":29.1317953,"name":"Ece Eczanesi","address1":"Girne Caddesi Atatürk Mah.no 40, Ataşehir Atatürk, Ece Eczanesi, 34758 Ataşehir/İstanbul, Turkey","address2":"istanbul/ataşehir/ece eczanesi","direction":"https://www.google.com.tr/maps/dir/My+Location/40.9872463,29.1317953"},{"lat":40.986853,"lng":29.1716308,"name":"Edis Eczanesi","address1":"Ataşehir Ferhat Paşa, Yeditepe Cd. No:84, 34779 Dudullu Osb/Ataşehir/İstanbul, Turkey","address2":"istanbul/ataşehir/edis eczanesi","direction":"https://www.google.com.tr/maps/dir/My+Location/40.986853,29.1716308"},{"lat":40.986016,"lng":29.1753771,"name":"Efsane Eczanesi","address1":"Ferhat Paşa Mahallesi, Yeditepe Cd. 46/D, 34888 Ataşehir/İstanbul, Turkey","address2":"istanbul/ataşehir/efsane eczanesi","direction":"https://www.google.com.tr/maps/dir/My+Location/40.986016,29.1753771"},{"lat":40.975377,"lng":29.117486,"name":"Emrem Eczanesi","address1":"İçerenköy, Adem Sk. 57/B, 34752 Ataşehir/İstanbul, Turkey","address2":"istanbul/ataşehir/emrem eczanesi","direction":"https://www.google.com.tr/maps/dir/My+Location/40.975377,29.117486"},{"lat":40.9671077,"lng":29.1097809,"name":"Favori Eczanesi","address1":"İçerenköy, Ertaç Sk. No:1 D:No:15C, 34752 Ataşehir/İstanbul, Turkey","address2":"istanbul/ataşehir/favori eczanesi","direction":"https://www.google.com.tr/maps/dir/My+Location/40.9671077,29.1097809"},{"lat":40.9793433,"lng":29.1112459,"name":"Gazi Eczanesi","address1":"Küçükbakkalköy Mh., Küçükbakkalköy, kayışdağı cad. Altınkaynak Sk. No:4/A, 34750 Ataşehir/İstanbul, Turkey","address2":"istanbul/ataşehir/gazi eczanesi","direction":"https://www.google.com.tr/maps/dir/My+Location/40.9793433,29.1112459"},{"lat":40.9666761,"lng":29.1109253,"name":"Gökçe Eczanesi","address1":"İçerenköy, Ertaş Sok. No:19/A, 34752 Ataşehir/İstanbul, Turkey","address2":"istanbul/ataşehir/gökçe eczanesi","direction":"https://www.google.com.tr/maps/dir/My+Location/40.9666761,29.1109253"},{"lat":40.9894,"lng":29.1619,"name":"Hikmet Eczanesi","address1":"Yeni Çamlıca Mh, Kırlangıç Sk. Pk:34758, 34776 Ataşehir/İstanbul, Turkey","address2":"istanbul/ataşehir/hikmet eczanesi","direction":"https://www.google.com.tr/maps/dir/My+Location/40.9894,29.1619"},{"lat":40.9812024,"lng":29.1555232,"name":"Hülyam Eczanesi","address1":"Kayışdağı, Uslu Cd. 116/C, 34755 Dudullu Osb/Ataşehir/Ataşehir/İstanbul, Turkey","address2":"istanbul/ataşehir/hülyam eczanesi","direction":"https://www.google.com.tr/maps/dir/My+Location/40.9812024,29.1555232"},{"lat":40.98008,"lng":29.118324,"name":"İda Eczanesi","address1":"Küçükbakkalköy, Cengiz Topel Cd. 16/B, 34750 Ataşehir/İstanbul, Turkey","address2":"istanbul/ataşehir/ida eczanesi","direction":"https://www.google.com.tr/maps/dir/My+Location/40.98008,29.118324"},{"lat":40.991,"lng":29.10179,"name":"İkbal Eczanesi","address1":"Barbaros, Barbaros Mah., 34746 Ataşehir/İstanbul, Turkey","address2":"istanbul/ataşehir/ikbal eczanesi","direction":"https://www.google.com.tr/maps/dir/My+Location/40.991,29.10179"},{"lat":40.9771276,"lng":29.1147559,"name":"Işıl Eczanesi","address1":"İçerenköy, Kevser Sk. No:1, 34752 Ataşehir/İstanbul, Turkey","address2":"istanbul/ataşehir/işıl eczanesi","direction":"https://www.google.com.tr/maps/dir/My+Location/40.9771276,29.1147559"},{"lat":40.980815,"lng":29.112395,"name":"Lokman Eczanesi","address1":"Küçükbakkalköy, Tevfik Fikret Cd. No:8, 34750 Ataşehir/İstanbul, Turkey","address2":"istanbul/ataşehir/lokman eczanesi","direction":"https://www.google.com.tr/maps/dir/My+Location/40.980815,29.112395"},{"lat":40.9851246,"lng":29.1083839,"name":"Masal Eczanesi","address1":"Küçükbakkalköy Mahallesi, Küçükbakkalköy, Işıklar Caddesi No:37 D: D16, 34758 Ataşehir/İstanbul, Turkey","address2":"istanbul/ataşehir/masal eczanesi","direction":"https://www.google.com.tr/maps/dir/My+Location/40.9851246,29.1083839"},{"lat":40.9997275,"lng":29.0999524,"name":"Maya Eczanesi","address1":"Barbaros Mh. Ahlat Sk. Varyap Meridian Sitesi D Blok D:3, Barbaros, 34746 Ataşehir/İstanbul, Turkey","address2":"istanbul/ataşehir/maya eczanesi","direction":"https://www.google.com.tr/maps/dir/My+Location/40.9997275,29.0999524"},{"lat":40.9925765,"lng":29.1212105,"name":"Melisa Eczanesi","address1":"Ataşehir Atatürk Mh.Ataşehir Bulvarı Ata 3/1 No:10H ATAŞEHİR/İSTANBUL BURGER KING VE ORTAKÖY RESTAURANT YANI, Ataşehir Atatürk, 34750 Ataşehir/İstanbul, Turkey","address2":"istanbul/ataşehir/melisa eczanesi","direction":"https://www.google.com.tr/maps/dir/My+Location/40.9925765,29.1212105"},{"lat":40.9789606,"lng":29.1088853,"name":"Mert Eczanesi","address1":"İçerenköy, Kayışdağı Cd. 28/a, 34752 Ataşehir/İstanbul, Turkey","address2":"istanbul/ataşehir/mert eczanesi","direction":"https://www.google.com.tr/maps/dir/My+Location/40.9789606,29.1088853"},{"lat":40.9925607,"lng":29.1227013,"name":"Mina Eczanesi","address1":"Ataşehir Atatürk, Sedef Cad. Ata Sitesi :3/4 D:12/53, 34758 Ataşehir/İstanbul, Turkey","address2":"istanbul/ataşehir/mina eczanesi","direction":"https://www.google.com.tr/maps/dir/My+Location/40.9925607,29.1227013"},{"lat":40.9792857,"lng":29.1083625,"name":"Nar Eczanesi","address1":"ATAYOL PLAZA NO: 45, Küçükbakkalköy, Kayışdağı Cd., 34750 Ataşehir/İstanbul, Turkey","address2":"istanbul/ataşehir/nar eczanesi","direction":"https://www.google.com.tr/maps/dir/My+Location/40.9792857,29.1083625"},{"lat":41.0026123,"lng":29.079858,"name":"Nefes Eczanesi","address1":"Fetih Mahallesi Karaman Çiftlik yolu cad., Fetih, No: 7 Fetih Mah. Özçifci Aile Sağlık Merkezi Karşısı, 34704 Ataşehir/İstanbul, Turkey","address2":"istanbul/ataşehir/nefes eczanesi","direction":"https://www.google.com.tr/maps/dir/My+Location/41.0026123,29.079858"},{"lat":40.9861111,"lng":29.1186111,"name":"Novada Ataşehir Eczanesi","address1":"Küçükbakkalköy, Şehit Şakir Elkovan Cad. Novada Ataşehir No:20, 34750 Ataşehir/İstanbul, Turkey","address2":"istanbul/ataşehir/novada ataşehir eczanesi","direction":"https://www.google.com.tr/maps/dir/My+Location/40.9861111,29.1186111"},{"lat":40.972977,"lng":29.105797,"name":"Oktay Eczanesi","address1":"İçerenköy, Üsküdar-İçerenköy Cd NO:23/C, 34752 Ataşehir/İstanbul, Turkey","address2":"istanbul/ataşehir/oktay eczanesi","direction":"https://www.google.com.tr/maps/dir/My+Location/40.972977,29.105797"},{"lat":40.989379,"lng":29.135035,"name":"Olcay Eczanesi","address1":"Ataşehir Atatürk, Mozaik Çarşı No:36, 34758 Ataşehir/Istanbul - Asia, Turkey","address2":"istanbul - asia/ataşehir/olcay eczanesi","direction":"https://www.google.com.tr/maps/dir/My+Location/40.989379,29.135035"},{"lat":40.995485,"lng":29.082893,"name":"Özdamar Eczanesi","address1":"Örnek Mh., Şehit Cahar Dudayev Caddesi (G-35 Sk.) No:82, 34704 Ataşehir/İstanbul, Turkey","address2":"istanbul/ataşehir/özdamar eczanesi","direction":"https://www.google.com.tr/maps/dir/My+Location/40.995485,29.082893"},{"lat":40.9860042,"lng":29.1001085,"name":"Palladıum Eczanesi","address1":"Yeni Sahra, Halk Cad. Palladium Alışveriş Merkezi No:8/B D:122, 34746 Ataşehir/İstanbul, Turkey","address2":"istanbul/ataşehir/palladıum eczanesi","direction":"https://www.google.com.tr/maps/dir/My+Location/40.9860042,29.1001085"},{"lat":40.9934367,"lng":29.0761602,"name":"Paşayiğit Eczanesi","address1":"Örnek, Neyzen Salim Bey Sk. No:27, 34704 Ataşehir/İstanbul, Turkey","address2":"istanbul/ataşehir/paşayiğit eczanesi","direction":"https://www.google.com.tr/maps/dir/My+Location/40.9934367,29.0761602"},{"lat":40.9688715,"lng":29.1143814,"name":"Sakarya Eczanesi","address1":"İçerenköy, Sonbahar Sk. No:46, 34752 Ataşehir/İstanbul, Turkey","address2":"istanbul/ataşehir/sakarya eczanesi","direction":"https://www.google.com.tr/maps/dir/My+Location/40.9688715,29.1143814"},{"lat":40.9850479,"lng":29.1075406,"name":"Sante Eczanesi","address1":"Küçükbakkalköy, Vedat Günyol Cd. No:32, 34750 Ataşehir/İstanbul, Turkey","address2":"istanbul/ataşehir/sante eczanesi","direction":"https://www.google.com.tr/maps/dir/My+Location/40.9850479,29.1075406"},{"lat":40.9653528,"lng":29.1136106,"name":"Selin Eczanesi","address1":"İçerenköy, Alanaldı Cad./ipek Sok. No:30 D:1, 34752 Ataşehir/Istanbul - Asia, Turkey","address2":"istanbul - asia/ataşehir/selin eczanesi","direction":"https://www.google.com.tr/maps/dir/My+Location/40.9653528,29.1136106"},{"lat":40.9768968,"lng":29.1072336,"name":"Şükrübey Eczanesi","address1":"İçerenköy, Karaman Çiftliği Yolu Cd. 52/B, 34752 Ataşehir/İstanbul, Turkey","address2":"istanbul/ataşehir/şükrübey eczanesi","direction":"https://www.google.com.tr/maps/dir/My+Location/40.9768968,29.1072336"},{"lat":40.979148,"lng":29.110908,"name":"Şule Eczanesi","address1":"Küçükbakkalköy, Kayışdağı Cd. No:51, 34750 Ataşehir/İstanbul, Turkey","address2":"istanbul/ataşehir/şule eczanesi","direction":"https://www.google.com.tr/maps/dir/My+Location/40.979148,29.110908"},{"lat":40.996713,"lng":29.094147,"name":"Tunç Barbaros Eczanesi","address1":"Barbaros, Harman Sk. No:10, 34746 Ataşehir/İstanbul, Turkey","address2":"istanbul/ataşehir/tunç barbaros eczanesi","direction":"https://www.google.com.tr/maps/dir/My+Location/40.996713,29.094147"},{"lat":40.9871929,"lng":29.0954368,"name":"Tunç Eczanesi","address1":"Barbaros, Sütçü Yolu Cd. No:51, 34746 Ataşehir/İstanbul, Turkey","address2":"istanbul/ataşehir/tunç eczanesi","direction":"https://www.google.com.tr/maps/dir/My+Location/40.9871929,29.0954368"},{"lat":40.9751634,"lng":29.1135375,"name":"Umut Eczanesi","address1":"İçerenköy, Karslı Ahmet Cd. No:64, 34752 Ataşehir/İstanbul, Turkey","address2":"istanbul/ataşehir/umut eczanesi","direction":"https://www.google.com.tr/maps/dir/My+Location/40.9751634,29.1135375"},{"lat":40.9946221,"lng":28.7091175,"name":"Akalın Eczanesi","address1":"no: 5/D avcılar hospital karşısı, Üniversite, Üniversite Mahallesi, Uran Caddesi, 34320 Avcılar/İstanbul, Turkey","address2":"istanbul/avcılar/akalın eczanesi","direction":"https://www.google.com.tr/maps/dir/My+Location/40.9946221,28.7091175"},{"lat":40.9740823,"lng":28.7150095,"name":"Ambarlı Eczanesi","address1":"Ambarlı, Dr. Sadık Ahmet Cd. 266/B, 34315 Avcılar/İstanbul, Turkey","address2":"istanbul/avcılar/ambarlı eczanesi","direction":"https://www.google.com.tr/maps/dir/My+Location/40.9740823,28.7150095"},{"lat":41.0326087,"lng":28.6912771,"name":"Avcılar Derya Eczanesi","address1":"Yeşilkent, 36. Sk. No:1, 34325 Avcılar/İstanbul, Turkey","address2":"istanbul/avcılar/avcılar derya eczanesi","direction":"https://www.google.com.tr/maps/dir/My+Location/41.0326087,28.6912771"},{"lat":40.9803336,"lng":28.7216724,"name":"Avcılar Merkez Eczanesi","address1":"Merkez, Marmara Cd. No:7 D:1, 34310 Avcılar/İstanbul, Turkey","address2":"istanbul/avcılar/avcılar merkez eczanesi","direction":"https://www.google.com.tr/maps/dir/My+Location/40.9803336,28.7216724"},{"lat":40.989516,"lng":28.705708,"name":"Aygen Eczanesi","address1":"Cihangir, Yuva Sk. Pk:34310, 34310 Avcılar/İstanbul, Turkey","address2":"istanbul/avcılar/aygen eczanesi","direction":"https://www.google.com.tr/maps/dir/My+Location/40.989516,28.705708"},{"lat":40.9790388,"lng":28.7271072,"name":"Ayşe Eczanesi","address1":"Merkez, Reşit Paşa Cd. no 20 a-b, 34310 Avcılar/İstanbul, Turkey","address2":"istanbul/avcılar/ayşe eczanesi","direction":"https://www.google.com.tr/maps/dir/My+Location/40.9790388,28.7271072"},{"lat":40.986374,"lng":28.7140561,"name":"Balkan Eczanesi","address1":"Cihangir, Burnaz Cd. 36/A, 34310 Avcılar/İstanbul, Turkey","address2":"istanbul/avcılar/balkan eczanesi","direction":"https://www.google.com.tr/maps/dir/My+Location/40.986374,28.7140561"},{"lat":41.032871,"lng":28.706526,"name":"Birdal Eczanesi","address1":"Yeşilkent, Fatih Cd. 13/A, 34325 Avcılar/İstanbul, Turkey","address2":"istanbul/avcılar/birdal eczanesi","direction":"https://www.google.com.tr/maps/dir/My+Location/41.032871,28.706526"},{"lat":41.0635416,"lng":28.7051835,"name":"Bizim Evler Eczanesi","address1":"Tahtakale Mah. Ayçiçeği Sok. Bizimevler 2. Sitesi Çarşısı, Tahtakale, Ispartakule Cd. No:8/10 - A, 34325 Avcılar/İstanbul, Turkey","address2":"istanbul/avcılar/bizim evler eczanesi","direction":"https://www.google.com.tr/maps/dir/My+Location/41.0635416,28.7051835"},{"lat":40.9770191,"lng":28.7380283,"name":"Burçin Eczanesi","address1":"Denizköşkler, Muhtar Kazım Akgül Cd. 37 - A, 34315 Avcılar/İstanbul, Turkey","address2":"istanbul/avcılar/burçin eczanesi","direction":"https://www.google.com.tr/maps/dir/My+Location/40.9770191,28.7380283"},{"lat":40.9892593,"lng":28.7047645,"name":"Cihangir Eczanesi","address1":"Cihangir, Meşrutiyet Cd. No:53/B, 34320 Avcılar/İstanbul, Turkey","address2":"istanbul/avcılar/cihangir eczanesi","direction":"https://www.google.com.tr/maps/dir/My+Location/40.9892593,28.7047645"},{"lat":40.978952,"lng":28.723805,"name":"Dilara Nur Eczanesi","address1":"Merkez, Reşit Paşa Cd. 14/B, 34310 Avcılar/İstanbul, Turkey","address2":"istanbul/avcılar/dilara nur eczanesi","direction":"https://www.google.com.tr/maps/dir/My+Location/40.978952,28.723805"},{"lat":41.0578107,"lng":28.7149193,"name":"Elif Karpuz Eczanesi","address1":"Tahtakale, Açelya Sokağı No:12311, 34325 Şamlar Köyü/Avcılar/İstanbul, Turkey","address2":"istanbul/avcılar/elif karpuz eczanesi","direction":"https://www.google.com.tr/maps/dir/My+Location/41.0578107,28.7149193"},{"lat":41.0420527,"lng":28.6938969,"name":"Eren Eczanesi","address1":"Yeşilkent, 522. Sk., 34325 Avcılar/İstanbul, Turkey","address2":"istanbul/avcılar/eren eczanesi","direction":"https://www.google.com.tr/maps/dir/My+Location/41.0420527,28.6938969"},{"lat":40.981667,"lng":28.7229039,"name":"Ersan Eczanesi","address1":"Merkez, Çiğdem Cd. No:37/B, 34310 Avcılar/İstanbul, Turkey","address2":"istanbul/avcılar/ersan eczanesi","direction":"https://www.google.com.tr/maps/dir/My+Location/40.981667,28.7229039"},{"lat":40.9951,"lng":28.709319,"name":"Gizem Eczanesi","address1":"Üniversite, 34320 Avcılar/İstanbul, Turkey","address2":"istanbul/avcılar/gizem eczanesi","direction":"https://www.google.com.tr/maps/dir/My+Location/40.9951,28.709319"},{"lat":40.9838903,"lng":28.7314206,"name":"Göksu Eczanesi","address1":"Gümüşpala, Yeni Yuva Sk. No:35, 34320 Avcılar/İstanbul, Turkey","address2":"istanbul/avcılar/göksu eczanesi","direction":"https://www.google.com.tr/maps/dir/My+Location/40.9838903,28.7314206"},{"lat":40.9787243,"lng":28.7422959,"name":"Gümüşpala Eczanesi","address1":"Gümüşpala, Handan Sk. No:15, 34320 Avcılar/İstanbul, Turkey","address2":"istanbul/avcılar/gümüşpala eczanesi","direction":"https://www.google.com.tr/maps/dir/My+Location/40.9787243,28.7422959"},{"lat":40.9853595,"lng":28.720507,"name":"Gümüşpala Funda Eczanesi","address1":"Merkez, Burnaz Cd. 5a, 34310 Avcılar/İstanbul, Turkey","address2":"istanbul/avcılar/gümüşpala funda eczanesi","direction":"https://www.google.com.tr/maps/dir/My+Location/40.9853595,28.720507"},{"lat":40.9789366,"lng":28.7347752,"name":"Gürbey Eczanesi","address1":"Gümüşpala Mah., Şükrübey Sk. , Şükrübey Duragi No:2, 34320 Avcılar/İstanbul, Turkey","address2":"istanbul/avcılar/gürbey eczanesi","direction":"https://www.google.com.tr/maps/dir/My+Location/40.9789366,28.7347752"},{"lat":40.98775,"lng":28.709556,"name":"Işılay Eczanesi","address1":"Cihangir, Kirazlı Cad. 65/A, 34310 Avcılar/İstanbul, Turkey","address2":"istanbul/avcılar/işılay eczanesi","direction":"https://www.google.com.tr/maps/dir/My+Location/40.98775,28.709556"},{"lat":41.064614,"lng":28.714584,"name":"Ispartakule Eczanesi","address1":"Tahtakale mah.Abdi İpekçi Cad.no:13/B, Tahtakale, Ispartakule / Avcılar, 34320 Avcılar/İstanbul, Turkey","address2":"istanbul/avcılar/ispartakule eczanesi","direction":"https://www.google.com.tr/maps/dir/My+Location/41.064614,28.714584"},{"lat":40.9793099,"lng":28.7274939,"name":"Kamer Eczanesi","address1":"Merkez, Reşit Paşa Cad. Tuloğlu Sok. No:4, 34310 Avcılar/İstanbul, Turkey","address2":"istanbul/avcılar/kamer eczanesi","direction":"https://www.google.com.tr/maps/dir/My+Location/40.9793099,28.7274939"},{"lat":41.0057005,"lng":28.703404,"name":"Mertin Eczanesi","address1":"Mustafa Kemal Paşa Mah., Yıldırım Beyazıt Cad. 48/A, 34320 Parseller /Avcılar/Avcılar/İstanbul, Turkey","address2":"istanbul/avcılar/mertin eczanesi","direction":"https://www.google.com.tr/maps/dir/My+Location/41.0057005,28.703404"},{"lat":40.974626,"lng":28.7276443,"name":"Orhan Eczanesi","address1":"Denizköşkler, Dilek Sk. No:3, 34315 Avcılar/İstanbul, Turkey","address2":"istanbul/avcılar/orhan eczanesi","direction":"https://www.google.com.tr/maps/dir/My+Location/40.974626,28.7276443"},{"lat":41.0609778,"lng":28.7048977,"name":"Oya Eczanesi","address1":"Tahtakale, Bizim Evler No:4, 34325 Avcılar/İstanbul, Turkey","address2":"istanbul/avcılar/oya eczanesi","direction":"https://www.google.com.tr/maps/dir/My+Location/41.0609778,28.7048977"},{"lat":40.9871373,"lng":28.7094886,"name":"Özer Eczanesi","address1":"Cihangir Mh. Kirazlı Cd. Pk:34310 Avcılar/istanbul, Cihangir, 34310 Avcılar/İstanbul, Turkey","address2":"istanbul/avcılar/özer eczanesi","direction":"https://www.google.com.tr/maps/dir/My+Location/40.9871373,28.7094886"},{"lat":40.9803936,"lng":28.7230953,"name":"Peker Eczanesi","address1":"Merkez, Reşit Paşa Cd. 24/1, 34325 Avcılar/İstanbul, Turkey","address2":"istanbul/avcılar/peker eczanesi","direction":"https://www.google.com.tr/maps/dir/My+Location/40.9803936,28.7230953"},{"lat":40.99115,"lng":28.7155614,"name":"Pelican Mall Eczanesi","address1":"Gümüşpala, Selvi Sok. Pelican Mall Alışveriş Ve Yaşam Merkezi No:25 D:19, 34320 Avcılar/İstanbul - Avrupa, Turkey","address2":"istanbul - avrupa/avcılar/pelican mall eczanesi","direction":"https://www.google.com.tr/maps/dir/My+Location/40.99115,28.7155614"},{"lat":40.975342,"lng":28.735655,"name":"Peril Eczanesi","address1":"Denizköşkler Mahallesi Denizköşkler Mh. Muhtarlığı, Denizköşkler, 34315 Avcılar/İstanbul, Turkey","address2":"istanbul/avcılar/peril eczanesi","direction":"https://www.google.com.tr/maps/dir/My+Location/40.975342,28.735655"},{"lat":41.0056103,"lng":28.7061695,"name":"Say Eczanesi","address1":"Çetin Sokak, Mustafa Kemal Paşa, Beyoğlu Cd. No:32, 34000 Avcılar/İstanbul, Turkey","address2":"istanbul/avcılar/say eczanesi","direction":"https://www.google.com.tr/maps/dir/My+Location/41.0056103,28.7061695"},{"lat":40.979196,"lng":28.7058,"name":"Seher Eczanesi","address1":"Ambarlı, Hasat Sk. No:13, 34315 Avcılar/İstanbul, Turkey","address2":"istanbul/avcılar/seher eczanesi","direction":"https://www.google.com.tr/maps/dir/My+Location/40.979196,28.7058"},{"lat":41.0608306,"lng":28.7276199,"name":"Tahtakale Eczanesi","address1":"Tahtakale Mh. Pazar Cd. Pk:34325 Avcılar/istanbul, Tahtakale, 34325 Avcılar/İstanbul, Turkey","address2":"istanbul/avcılar/tahtakale eczanesi","direction":"https://www.google.com.tr/maps/dir/My+Location/41.0608306,28.7276199"},{"lat":41.0097627,"lng":28.7103017,"name":"Temmuz Eczanesi","address1":"Firuzköy, Hasan Önal Cd. No:62, 34325 Avcılar/İstanbul, Turkey","address2":"istanbul/avcılar/temmuz eczanesi","direction":"https://www.google.com.tr/maps/dir/My+Location/41.0097627,28.7103017"},{"lat":41.0019297,"lng":28.7035488,"name":"Tepeüstü Eczanesi","address1":"Mustafa Kemal Paşa Mh., İstiklal Cd. No:101, 34320 Avcılar/İstanbul, Turkey","address2":"istanbul/avcılar/tepeüstü eczanesi","direction":"https://www.google.com.tr/maps/dir/My+Location/41.0019297,28.7035488"},{"lat":40.980932,"lng":28.720989,"name":"Ümit Eczanesi","address1":"Merkez, Şamlı Sk. No:31 D:14, 34310 Avcılar/İstanbul, Turkey","address2":"istanbul/avcılar/ümit eczanesi","direction":"https://www.google.com.tr/maps/dir/My+Location/40.980932,28.720989"},{"lat":40.9976149,"lng":28.7116799,"name":"Ünlüm Eczanesi","address1":"Üniversite, Uran Cd. 37/C, 34320 Avcılar/İstanbul, Turkey","address2":"istanbul/avcılar/ünlüm eczanesi","direction":"https://www.google.com.tr/maps/dir/My+Location/40.9976149,28.7116799"},{"lat":40.9789163,"lng":28.7278309,"name":"Yeni Ay Eczanesi","address1":"Denizköşkler, Reşit Paşa Cd. No:17, 34315 Avcılar/İstanbul, Turkey","address2":"istanbul/avcılar/yeni ay eczanesi","direction":"https://www.google.com.tr/maps/dir/My+Location/40.9789163,28.7278309"},{"lat":40.9976066,"lng":28.7083165,"name":"Yeni Gündoğdu Eczanesi","address1":"Üniversite, Mareşal Cd. no:24/a, 34320 Avcılar/İstanbul, Turkey","address2":"istanbul/avcılar/yeni gündoğdu eczanesi","direction":"https://www.google.com.tr/maps/dir/My+Location/40.9976066,28.7083165"},{"lat":40.9841092,"lng":28.7316034,"name":"Zeyrek Eczanesi","address1":"Gümüşpala, Yeni Yuva Sk. No:31A, 34320 Avcılar/İstanbul, Turkey","address2":"istanbul/avcılar/zeyrek eczanesi","direction":"https://www.google.com.tr/maps/dir/My+Location/40.9841092,28.7316034"},{"lat":41.0435607,"lng":28.8471331,"name":"Abdullah Eczanesi","address1":"1742 SOKAK, Demirkapı, Velioğlu Cd. NO: 1 \\ A, 34100 Bağcılar/İstanbul, Turkey","address2":"istanbul/bağcılar/abdullah eczanesi","direction":"https://www.google.com.tr/maps/dir/My+Location/41.0435607,28.8471331"},{"lat":41.0325363,"lng":28.8433144,"name":"Adak Eczanesi","address1":"34212, Kirazlı, Mevlana Cd. No:32, 34203 Bağcılar/İstanbul, Turkey","address2":"istanbul/bağcılar/adak eczanesi","direction":"https://www.google.com.tr/maps/dir/My+Location/41.0325363,28.8433144"},{"lat":41.046441,"lng":28.846234,"name":"Akbulut Eczanesi","address1":"Demirkapı mah, Velioğlu Cd. no61B, 34204 Bağcılar/İstanbul, Turkey","address2":"istanbul/bağcılar/akbulut eczanesi","direction":"https://www.google.com.tr/maps/dir/My+Location/41.046441,28.846234"},{"lat":41.0405538,"lng":28.8439577,"name":"Aktaş Eczanesi","address1":"Yenimahalle, Ahmet Kabaklı Cd. No:38, 34210 Bağcılar/İstanbul, Turkey","address2":"istanbul/bağcılar/aktaş eczanesi","direction":"https://www.google.com.tr/maps/dir/My+Location/41.0405538,28.8439577"},{"lat":41.0327049,"lng":28.8565861,"name":"Arı Eczanesi","address1":"Merkez, Bağcılar Cd. No:17, 34200 Bağcılar/İstanbul, Turkey","address2":"istanbul/bağcılar/arı eczanesi","direction":"https://www.google.com.tr/maps/dir/My+Location/41.0327049,28.8565861"},{"lat":41.025392,"lng":28.841027,"name":"As Eczanesi","address1":"Barbaros, 210. Sk. 46/B, 34203 Bağcılar/Esenler/İstanbul, Turkey","address2":"istanbul/esenler/as eczanesi","direction":"https://www.google.com.tr/maps/dir/My+Location/41.025392,28.841027"},{"lat":41.057726,"lng":28.842716,"name":"Ayhan Eczanesi","address1":"Göztepe, Menekşe Sk. No:12, 34214 Bağcılar/İstanbul, Turkey","address2":"istanbul/bağcılar/ayhan eczanesi","direction":"https://www.google.com.tr/maps/dir/My+Location/41.057726,28.842716"},{"lat":41.045315,"lng":28.830394,"name":"Aysuna Eczanesi","address1":"Demirkapı, Bağcılar Asf Cd No:1, 34214 Bağcılar/İstanbul, Turkey","address2":"istanbul/bağcılar/aysuna eczanesi","direction":"https://www.google.com.tr/maps/dir/My+Location/41.045315,28.830394"},{"lat":41.0306359,"lng":28.8465411,"name":"Bağcılar Derman Eczanesi","address1":"Kazımkarabekir, 333. Sok. 26/A, 34200 Bağcılar/İstanbul, Turkey","address2":"istanbul/bağcılar/bağcılar derman eczanesi","direction":"https://www.google.com.tr/maps/dir/My+Location/41.0306359,28.8465411"},{"lat":41.059889,"lng":28.835621,"name":"Bağcılar Gümüş Eczanesi","address1":"Göztepe, Sarıasma Sk. No:17, 34214 Bağcılar/İstanbul, Turkey","address2":"istanbul/bağcılar/bağcılar gümüş eczanesi","direction":"https://www.google.com.tr/maps/dir/My+Location/41.059889,28.835621"},{"lat":41.0364939,"lng":28.8579411,"name":"Bağcılar Hayat Eczanesi","address1":"892/SOK. 6/B, Sancaktepe, 34200 Bağcılar/İstanbul, Turkey","address2":"istanbul/bağcılar/bağcılar hayat eczanesi","direction":"https://www.google.com.tr/maps/dir/My+Location/41.0364939,28.8579411"},{"lat":41.0300457,"lng":28.8695379,"name":"Bağcılar Merkez Eczanesi","address1":"Merkez, Dr. Sadık Ahmet Cd No:68, 34200 Bağcılar/İstanbul, Turkey","address2":"istanbul/bağcılar/bağcılar merkez eczanesi","direction":"https://www.google.com.tr/maps/dir/My+Location/41.0300457,28.8695379"},{"lat":41.0313438,"lng":28.8285672,"name":"Bellis Eczanesi","address1":"Güneşli, Cumhuriyet Cd. No:38, 34212 Bağcılar/İstanbul, Turkey","address2":"istanbul/bağcılar/bellis eczanesi","direction":"https://www.google.com.tr/maps/dir/My+Location/41.0313438,28.8285672"},{"lat":41.0483139,"lng":28.8450802,"name":"Bilgin Eczanesi","address1":"fatih Mah., Velioğlu Cd. 64/A, 34204 Bağcılar/İstanbul, Turkey","address2":"istanbul/bağcılar/bilgin eczanesi","direction":"https://www.google.com.tr/maps/dir/My+Location/41.0483139,28.8450802"},{"lat":41.0422577,"lng":28.8284268,"name":"Buğday Eczanesi","address1":"Güneşli, Üsküp (Eski Evren Caddesi) No:129, 34212 Bağcılar/İstanbul, Turkey","address2":"istanbul/bağcılar/buğday eczanesi","direction":"https://www.google.com.tr/maps/dir/My+Location/41.0422577,28.8284268"},{"lat":41.0385368,"lng":28.8655739,"name":"Burhan Eczanesi","address1":"Çınar, 13. Sk. No:63 D:67, 34200 Bağcılar/İstanbul, Turkey","address2":"istanbul/bağcılar/burhan eczanesi","direction":"https://www.google.com.tr/maps/dir/My+Location/41.0385368,28.8655739"},{"lat":41.020152,"lng":28.858819,"name":"Cansızoğlu Eczanesi","address1":"Yenigün, Yenigün Mh Muhtarlığı, 34200 Bağcılar/İstanbul, Turkey","address2":"istanbul/bağcılar/cansızoğlu eczanesi","direction":"https://www.google.com.tr/maps/dir/My+Location/41.020152,28.858819"},{"lat":41.038168,"lng":28.849581,"name":"Çaykara Eczanesi","address1":"Yavuz Selim, 5/19. Sk. 1/A, 34203 Bağcılar/İstanbul, Turkey","address2":"istanbul/bağcılar/çaykara eczanesi","direction":"https://www.google.com.tr/maps/dir/My+Location/41.038168,28.849581"},{"lat":41.042918,"lng":28.850684,"name":"Çiftlik Eczanesi","address1":"Yavuz Selim, Birlik Cd. No:95, 34203 Bağcılar/İstanbul, Turkey","address2":"istanbul/bağcılar/çiftlik eczanesi","direction":"https://www.google.com.tr/maps/dir/My+Location/41.042918,28.850684"},{"lat":41.0642981,"lng":28.853181,"name":"Demir Eczanesi","address1":"100. Yıl Mahallesi Barbaros Caddesi, 100. Yıl, 2184.Sokak No:39/A, 34204 Bağcılar/İstanbul, Turkey","address2":"istanbul/bağcılar/demir eczanesi","direction":"https://www.google.com.tr/maps/dir/My+Location/41.0642981,28.853181"},{"lat":41.032765,"lng":28.855629,"name":"Demirkök Eczanesi","address1":"İnönü, 428. Sk 3/A, 34203 Bağcılar/İstanbul, Turkey","address2":"istanbul/bağcılar/demirkök eczanesi","direction":"https://www.google.com.tr/maps/dir/My+Location/41.032765,28.855629"},{"lat":41.0388951,"lng":28.8452345,"name":"Doluca Eczanesi","address1":"Kirazlı, Hürriyet Cd. No:56, 34210 Bağcılar/İstanbul, Turkey","address2":"istanbul/bağcılar/doluca eczanesi","direction":"https://www.google.com.tr/maps/dir/My+Location/41.0388951,28.8452345"},{"lat":41.0395984,"lng":28.8252074,"name":"Erguvan Eczanesi","address1":"Güneşli, Fevzi Çakmak Cd. 68/A, 34212 Bağcılar/İstanbul, Turkey","address2":"istanbul/bağcılar/erguvan eczanesi","direction":"https://www.google.com.tr/maps/dir/My+Location/41.0395984,28.8252074"},{"lat":41.0342565,"lng":28.8328064,"name":"Ersoy Eczanesi","address1":"Güneşli, Kirazlı Cd. No:4 D:C, 34212 Bağcılar/İstanbul, Turkey","address2":"istanbul/bağcılar/ersoy eczanesi","direction":"https://www.google.com.tr/maps/dir/My+Location/41.0342565,28.8328064"},{"lat":41.048871,"lng":28.8444767,"name":"Ertunç Yaman Eczanesi","address1":"NO: A-B İSTANBUL, Fatih, Velioğlu Cd. No:72, 34204 Bağcılar/İstanbul, Turkey","address2":"istanbul/bağcılar/ertunç yaman eczanesi","direction":"https://www.google.com.tr/maps/dir/My+Location/41.048871,28.8444767"},{"lat":41.0403269,"lng":28.8248097,"name":"Erzurum Eczanesi","address1":"15 Temmuz, Fevzi Çakmak Cd. No:81, 34212 Bağcılar/İstanbul, Turkey","address2":"istanbul/bağcılar/erzurum eczanesi","direction":"https://www.google.com.tr/maps/dir/My+Location/41.0403269,28.8248097"},{"lat":41.0595366,"lng":28.8357882,"name":"Fidan Eczanesi","address1":"Göztepe, Karanfil Sokağı 65/3, 34214 Bağcılar/İstanbul, Turkey","address2":"istanbul/bağcılar/fidan eczanesi","direction":"https://www.google.com.tr/maps/dir/My+Location/41.0595366,28.8357882"},{"lat":41.054428,"lng":28.836646,"name":"Göztepe Eczanesi","address1":"Göztepe, Maslak Cd. No:29, 34214 Bağcılar/İstanbul, Turkey","address2":"istanbul/bağcılar/göztepe eczanesi","direction":"https://www.google.com.tr/maps/dir/My+Location/41.054428,28.836646"},{"lat":41.0544433,"lng":28.8364639,"name":"Göztepe Elif Eczanesi","address1":"Göztepe, Maslak Cad. No:27, 34214 Bağcılar/İstanbul, Turkey","address2":"istanbul/bağcılar/göztepe elif eczanesi","direction":"https://www.google.com.tr/maps/dir/My+Location/41.0544433,28.8364639"},{"lat":41.0484315,"lng":28.8449702,"name":"Güleç Eczanesi","address1":"Fatih, Velioğlu Cd. Pk:34204, 34100 Bağcılar/İstanbul, Turkey","address2":"istanbul/bağcılar/güleç eczanesi","direction":"https://www.google.com.tr/maps/dir/My+Location/41.0484315,28.8449702"},{"lat":41.0521481,"lng":28.8432539,"name":"Gülşifa Eczanesi","address1":"Fatih, 34100 Bağcılar/İstanbul, Turkey","address2":"istanbul/bağcılar/gülşifa eczanesi","direction":"https://www.google.com.tr/maps/dir/My+Location/41.0521481,28.8432539"},{"lat":41.033079,"lng":28.863598,"name":"Gülüm Eczanesi","address1":"Merkez, Güngören Cd. No:3, 34200 Bağcılar/İstanbul, Turkey","address2":"istanbul/bağcılar/gülüm eczanesi","direction":"https://www.google.com.tr/maps/dir/My+Location/41.033079,28.863598"},{"lat":41.0359628,"lng":28.8323397,"name":"Güneşli Deniz Eczanesi","address1":"Güneşli, Vakiflar Cad. & 1275. Sok. 1A, 34212 Bağcılar/İstanbul, Turkey","address2":"istanbul/bağcılar/güneşli deniz eczanesi","direction":"https://www.google.com.tr/maps/dir/My+Location/41.0359628,28.8323397"},{"lat":41.0410159,"lng":28.8280018,"name":"Güneşli Eczanesi","address1":"Güneşli, Evren Cad., 13/1 117/B, 34212 Bağcılar/İstanbul, Turkey","address2":"istanbul/bağcılar/güneşli eczanesi","direction":"https://www.google.com.tr/maps/dir/My+Location/41.0410159,28.8280018"},{"lat":41.0347891,"lng":28.8226824,"name":"Güneşli İpek Eczanesi","address1":"15 Temmuz Mahallesi Fevzi Çakmak Caddesi, 15 Temmuz, Güneşli Polis Merkezi Amirliği, >Karşı Çaprazı No:37, 34212 Bağcılar/İstanbul, Turkey","address2":"istanbul/bağcılar/güneşli ipek eczanesi","direction":"https://www.google.com.tr/maps/dir/My+Location/41.0347891,28.8226824"},{"lat":41.0597111,"lng":28.8529893,"name":"Hakan Eczanesi","address1":"100. Yıl Mh. kışla caddesi 23.sokak no:60/A Pk:34204 Bağcılar/istanbul, 100. Yıl, 34060 BAĞCILAR/Bağcılar/İstanbul, Turkey","address2":"istanbul/bağcılar/hakan eczanesi","direction":"https://www.google.com.tr/maps/dir/My+Location/41.0597111,28.8529893"},{"lat":41.0597111,"lng":28.8529893,"name":"Hakan Tulum Eczanesi","address1":"100. Yıl Mh. kışla caddesi 23.sokak no:60/A Pk:34204 Bağcılar/istanbul, 100. Yıl, 34060 BAĞCILAR/Bağcılar/İstanbul, Turkey","address2":"istanbul/bağcılar/hakan tulum eczanesi","direction":"https://www.google.com.tr/maps/dir/My+Location/41.0597111,28.8529893"},{"lat":41.0206159,"lng":28.8604761,"name":"Hamzaoğlu Eczanesi","address1":"Yenigün Mh. 4. Sk. Pk:34200 Bağcılar/istanbul, Yenigün, 34160 Bağcılar/İstanbul, Turkey","address2":"istanbul/bağcılar/hamzaoğlu eczanesi","direction":"https://www.google.com.tr/maps/dir/My+Location/41.0206159,28.8604761"},{"lat":41.0315926,"lng":28.8441659,"name":"Hisar Eczanesi","address1":"Kirazlı, Hoca Ahmet Yesevi Cd. No:104/c, 34210 Bağcılar/İstanbul, Turkey","address2":"istanbul/bağcılar/hisar eczanesi","direction":"https://www.google.com.tr/maps/dir/My+Location/41.0315926,28.8441659"},{"lat":41.037385,"lng":28.868528,"name":"İğde Eczanesi","address1":"Çınar, 17. Sk. No:20, 34200 Bağcılar/İstanbul, Turkey","address2":"istanbul/bağcılar/iğde eczanesi","direction":"https://www.google.com.tr/maps/dir/My+Location/41.037385,28.868528"},{"lat":41.040814,"lng":28.8594,"name":"İlhan Eczanesi","address1":"Fevziçakmak, Osmangazi Cd. 72/C, 34200 Bağcılar/İstanbul, Turkey","address2":"istanbul/bağcılar/ilhan eczanesi","direction":"https://www.google.com.tr/maps/dir/My+Location/41.040814,28.8594"},{"lat":41.0359628,"lng":28.8323397,"name":"İstanbul Deniz Eczanesi","address1":"Güneşli, Vakiflar Cad. & 1275. Sok. 1A, 34212 Bağcılar/İstanbul, Turkey","address2":"istanbul/bağcılar/istanbul deniz eczanesi","direction":"https://www.google.com.tr/maps/dir/My+Location/41.0359628,28.8323397"},{"lat":41.0630429,"lng":28.8546799,"name":"Leman Eczanesi","address1":"100. Yıl, 47. Sk. No:8, 34204 Bağcılar/İstanbul, Turkey","address2":"istanbul/bağcılar/leman eczanesi","direction":"https://www.google.com.tr/maps/dir/My+Location/41.0630429,28.8546799"},{"lat":41.0546162,"lng":28.8252276,"name":"Mahmutbey Eczanesi","address1":"Mahmutbey, Soğuksu Cd. No:6/C, 34218 Bağcılar/İstanbul, Turkey","address2":"istanbul/bağcılar/mahmutbey eczanesi","direction":"https://www.google.com.tr/maps/dir/My+Location/41.0546162,28.8252276"},{"lat":41.054219,"lng":28.8247129,"name":"Mahmutbey Şebnem Eczanesi","address1":"Mahmutbey, Soğuksu Cd., 34217 Bağcılar/İstanbul, Turkey","address2":"istanbul/bağcılar/mahmutbey şebnem eczanesi","direction":"https://www.google.com.tr/maps/dir/My+Location/41.054219,28.8247129"},{"lat":41.0652128,"lng":28.8559351,"name":"Melodi Eczanesi","address1":"Kemalpaşa, Barbaros Cd. 147/A, 34204 Bağcılar/İstanbul, Turkey","address2":"istanbul/bağcılar/melodi eczanesi","direction":"https://www.google.com.tr/maps/dir/My+Location/41.0652128,28.8559351"},{"lat":41.031332,"lng":28.8502577,"name":"Miran Eczanesi","address1":"İnönü, 30/10-R Sk. No:24, 34203 Bağcılar/İstanbul, Turkey","address2":"istanbul/bağcılar/miran eczanesi","direction":"https://www.google.com.tr/maps/dir/My+Location/41.031332,28.8502577"},{"lat":41.0574682,"lng":28.8434406,"name":"Müge Eczanesi","address1":"Göztepe, Lalezar Sk. 24/A, 34214 Bağcılar/İstanbul, Turkey","address2":"istanbul/bağcılar/müge eczanesi","direction":"https://www.google.com.tr/maps/dir/My+Location/41.0574682,28.8434406"},{"lat":41.0867441,"lng":28.751109,"name":"Nihan Taşdemir Eczanesi","address1":"Güvercintepe Mh., Fatih Cad. 221/A, 34306, Güvercintepe, 34203 Başakşehir/İstanbul, Turkey","address2":"istanbul/başakşehir/nihan taşdemir eczanesi","direction":"https://www.google.com.tr/maps/dir/My+Location/41.0867441,28.751109"},{"lat":41.0313499,"lng":28.8439006,"name":"Olgun Eczanesi","address1":"Kazımkarabekir, Hoca Ahmet Yesevi Cd. 103/A, 34203 Bağcılar/İstanbul, Turkey","address2":"istanbul/bağcılar/olgun eczanesi","direction":"https://www.google.com.tr/maps/dir/My+Location/41.0313499,28.8439006"},{"lat":41.067945,"lng":28.852081,"name":"Otocenter Eczanesi","address1":"100. Yıl Mahallesi, 100. Yıl, veyselkarani caddesi.no:110/a otocenter camii karşısı, 34204 Bağcılar/İstanbul, Turkey","address2":"istanbul/bağcılar/otocenter eczanesi","direction":"https://www.google.com.tr/maps/dir/My+Location/41.067945,28.852081"},{"lat":41.0579644,"lng":28.837899,"name":"Özel Eczanesi","address1":"Göztepe, Pınar Sk., 34100 Bağcılar/İstanbul, Turkey","address2":"istanbul/bağcılar/özel eczanesi","direction":"https://www.google.com.tr/maps/dir/My+Location/41.0579644,28.837899"},{"lat":41.0310324,"lng":28.8291646,"name":"Özger Eczanesi","address1":"Güneşli Mah., Cumhuriyet Cad. 36/B, 34209 Bağcılar/İstanbul, Turkey","address2":"istanbul/bağcılar/özger eczanesi","direction":"https://www.google.com.tr/maps/dir/My+Location/41.0310324,28.8291646"},{"lat":41.0542495,"lng":28.8485685,"name":"Özler Eczanesi","address1":"Fatih Mh. Mehmet Akif Bulvarı ( tavukçu dersesi - dereyolu ), Fatih, 1795 Sokak ( eski Demet Sk. ) Pk:34204-Bağcılar/istanbul, 34204 Bağcılar/İstanbul, Turkey","address2":"istanbul/bağcılar/özler eczanesi","direction":"https://www.google.com.tr/maps/dir/My+Location/41.0542495,28.8485685"},{"lat":41.03468,"lng":28.854909,"name":"Özsoy Eczanesi","address1":"Yavuz Selim Mahallesi, Yavuz Selim, 26/A Sokak No:7, Bağcılar Meydan Metro Durağı Karşısı, 34203 Bağcılar/İstanbul, Turkey","address2":"istanbul/bağcılar/özsoy eczanesi","direction":"https://www.google.com.tr/maps/dir/My+Location/41.03468,28.854909"},{"lat":41.0226747,"lng":28.8576893,"name":"Parseller Nilgün Eczanesi","address1":"Yenigün, Bağcılar Cd. No:157, 34200 Bağcılar/İstanbul, Turkey","address2":"istanbul/bağcılar/parseller nilgün eczanesi","direction":"https://www.google.com.tr/maps/dir/My+Location/41.0226747,28.8576893"},{"lat":41.0455104,"lng":28.8387929,"name":"Refhan Eczanesi","address1":"Yenimahalle Mah., Bağcılar Asfaltı Cad. 104/A, 34210 Bağcılar/İstanbul, Turkey","address2":"istanbul/bağcılar/refhan eczanesi","direction":"https://www.google.com.tr/maps/dir/My+Location/41.0455104,28.8387929"},{"lat":41.031332,"lng":28.8502577,"name":"Samur Eczanesi","address1":"İnönü, 30/10-R Sk. No:24, 34203 Bağcılar/İstanbul, Turkey","address2":"istanbul/bağcılar/samur eczanesi","direction":"https://www.google.com.tr/maps/dir/My+Location/41.031332,28.8502577"},{"lat":41.0300546,"lng":28.869669,"name":"Senanur Eczanesi","address1":"Merkez Mahallesi, Dr. Sadık Ahmet Cd 66/B, 34200 Bağcılar/İstanbul, Turkey","address2":"istanbul/bağcılar/senanur eczanesi","direction":"https://www.google.com.tr/maps/dir/My+Location/41.0300546,28.869669"},{"lat":41.0244562,"lng":28.8507625,"name":"Şenkul Eczanesi","address1":"Yıldıztepe, Yıldıztepe Mh. Muharlığı, 34203 Bağcılar/İstanbul, Turkey","address2":"istanbul/bağcılar/şenkul eczanesi","direction":"https://www.google.com.tr/maps/dir/My+Location/41.0244562,28.8507625"},{"lat":41.0506064,"lng":28.8493657,"name":"Seyran Eczanesi","address1":"Kemalpaşa, Namık Kemal Cd. No:85, 34204 Bağcılar/İstanbul, Turkey","address2":"istanbul/bağcılar/seyran eczanesi","direction":"https://www.google.com.tr/maps/dir/My+Location/41.0506064,28.8493657"},{"lat":41.0283833,"lng":28.8372565,"name":"Şeza Eczanesi","address1":"Barbaros Mh, 16. Sk. No:23/a-b, Pk:34203 Bağcılar/İstanbul, Turkey","address2":"istanbul/bağcılar/şeza eczanesi","direction":"https://www.google.com.tr/maps/dir/My+Location/41.0283833,28.8372565"},{"lat":41.0348366,"lng":28.8406398,"name":"Siteler Seçkin Eczanesi","address1":"Kirazlı, Kirazlı Mh. Muhtarlığı, 34210 Bağcılar/İstanbul, Turkey","address2":"istanbul/bağcılar/siteler seçkin eczanesi","direction":"https://www.google.com.tr/maps/dir/My+Location/41.0348366,28.8406398"},{"lat":41.049129,"lng":28.8351206,"name":"Sultan Eczanesi","address1":"Demirkapı, Lale Sk. No:26, 34214 Bağcılar/İstanbul, Turkey","address2":"istanbul/bağcılar/sultan eczanesi","direction":"https://www.google.com.tr/maps/dir/My+Location/41.049129,28.8351206"},{"lat":41.0342931,"lng":28.8650523,"name":"Toraman Eczanesi","address1":"Çınar, Esenler Cd. 11/A, 34200 Bağcılar/İstanbul, Turkey","address2":"istanbul/bağcılar/toraman eczanesi","direction":"https://www.google.com.tr/maps/dir/My+Location/41.0342931,28.8650523"},{"lat":41.0359482,"lng":28.8600111,"name":"Turhan Eczanesi","address1":"Çınar, 5/2. Sk. No:9, 34200 Bağcılar/İstanbul, Turkey","address2":"istanbul/bağcılar/turhan eczanesi","direction":"https://www.google.com.tr/maps/dir/My+Location/41.0359482,28.8600111"},{"lat":41.024558,"lng":28.841491,"name":"Üstün Eczanesi","address1":"Barbaros, 6/1. Sk., 34203 Bağcılar/İstanbul, Turkey","address2":"istanbul/bağcılar/üstün eczanesi","direction":"https://www.google.com.tr/maps/dir/My+Location/41.024558,28.841491"},{"lat":41.0307648,"lng":28.8385815,"name":"Vildan Eczanesi","address1":"Kirazlı, Hoca Ahmet Yesevi Cd. No:148/A, 34210 Bağcılar/İstanbul, Turkey","address2":"istanbul/bağcılar/vildan eczanesi","direction":"https://www.google.com.tr/maps/dir/My+Location/41.0307648,28.8385815"},{"lat":41.0419608,"lng":28.848386,"name":"Yavuz Selim Eczanesi","address1":"Yavuz Selim Mh., 1067. Sokak 11/A, 34200 Bağcılar/İstanbul, Turkey","address2":"istanbul/bağcılar/yavuz selim eczanesi","direction":"https://www.google.com.tr/maps/dir/My+Location/41.0419608,28.848386"},{"lat":41.0626267,"lng":28.8545722,"name":"Yeni Derman Eczanesi","address1":"100. Yıl, 34204 Bağcılar/İstanbul, Turkey","address2":"istanbul/bağcılar/yeni derman eczanesi","direction":"https://www.google.com.tr/maps/dir/My+Location/41.0626267,28.8545722"},{"lat":41.0303265,"lng":28.838946,"name":"Yeni Sena Eczanesi","address1":"Barbaros, 167. Sk No:16, 34203 Bağcılar/İstanbul, Turkey","address2":"istanbul/bağcılar/yeni sena eczanesi","direction":"https://www.google.com.tr/maps/dir/My+Location/41.0303265,28.838946"},{"lat":41.0604112,"lng":28.8529116,"name":"Yüzyıl Aslı Eczanesi","address1":"Yüzyıl Mahallesi, Barbaros Caddesi & 2156. Sokak 23/A, 34204 Bağcılar/İstanbul, Turkey","address2":"istanbul/bağcılar/yüzyıl aslı eczanesi","direction":"https://www.google.com.tr/maps/dir/My+Location/41.0604112,28.8529116"},{"lat":40.996939,"lng":28.849906,"name":"Abay Eczanesi","address1":"Şirinevler, Fetih Cd. No:15, 34188 Bahçelievler/İstanbul, Turkey","address2":"istanbul/bahçelievler/abay eczanesi","direction":"https://www.google.com.tr/maps/dir/My+Location/40.996939,28.849906"},{"lat":41.016808,"lng":28.849029,"name":"Akın Eczanesi","address1":"Cumhuriyet Mh. Sevil Sk. No:41 Pk:34186 Bahçelievler/istanbul, Bahçelievler Merkez, 34180 Bahçelievler/İstanbul, Turkey","address2":"istanbul/bahçelievler/akın eczanesi","direction":"https://www.google.com.tr/maps/dir/My+Location/41.016808,28.849029"},{"lat":41.00164,"lng":28.871662,"name":"Alaybeyi Eczanesi","address1":"Bahçelievler Merkez, İzzettin Çalışlar Cad./celal Nuri Sok. No:8 D:2, 34180 Bahçelievler/İstanbul, Turkey","address2":"istanbul/bahçelievler/alaybeyi eczanesi","direction":"https://www.google.com.tr/maps/dir/My+Location/41.00164,28.871662"},{"lat":41.006113,"lng":28.86993,"name":"Alp Eczanesi","address1":"Bahçelievler Merkez, Eski Londra Asf Cd 4/B, 34180 Bahçelievler/İstanbul, Turkey","address2":"istanbul/bahçelievler/alp eczanesi","direction":"https://www.google.com.tr/maps/dir/My+Location/41.006113,28.86993"},{"lat":41.007198,"lng":28.8201494,"name":"Altınyıldız Eczanesi","address1":"Yenibosna Merkez, Okul Sk. No:23, 34197 Bahçelievler/İstanbul, Turkey","address2":"istanbul/bahçelievler/altınyıldız eczanesi","direction":"https://www.google.com.tr/maps/dir/My+Location/41.007198,28.8201494"},{"lat":41.0070328,"lng":28.8693972,"name":"Arda Eczanesi","address1":"Akıncılar, Şevket Dağ Sok. Ersu Apt. 4/C, 34180 Güngören/Istanbul - Europe, Turkey","address2":"istanbul - europe/güngören/arda eczanesi","direction":"https://www.google.com.tr/maps/dir/My+Location/41.0070328,28.8693972"},{"lat":41.0139352,"lng":28.8571394,"name":"Arya Eczanesi","address1":"Soğanlı, Mustafa Kemal Paşa Cad. 141/1, 34183 Bahçelievler/Istanbul - Europe, Turkey","address2":"istanbul - europe/bahçelievler/arya eczanesi","direction":"https://www.google.com.tr/maps/dir/My+Location/41.0139352,28.8571394"},{"lat":40.9987088,"lng":28.8308089,"name":"Asılsoy Eczanesi","address1":"Fevzi Çakmak Mahallesi, Fatih Cd. 26/A D:No:24 34197, 34194 Bahçelievler/İstanbul, Turkey","address2":"istanbul/bahçelievler/asılsoy eczanesi","direction":"https://www.google.com.tr/maps/dir/My+Location/40.9987088,28.8308089"},{"lat":40.999788,"lng":28.8342382,"name":"Avrupa Eczanesi","address1":"Fevziçakmak, Yıldırım Beyazıt Cd. 37/B, 34194 Bahçelievler/İstanbul, Turkey","address2":"istanbul/bahçelievler/avrupa eczanesi","direction":"https://www.google.com.tr/maps/dir/My+Location/40.999788,28.8342382"},{"lat":41.0114956,"lng":28.8343266,"name":"Ayyıldız Eczanesi","address1":"Zafer, Bahariye Sk. No:11, 34194 Bahçelievler/İstanbul, Turkey","address2":"istanbul/bahçelievler/ayyıldız eczanesi","direction":"https://www.google.com.tr/maps/dir/My+Location/41.0114956,28.8343266"},{"lat":41.0046323,"lng":28.843638,"name":"Bahçelievler Sinem Eczanesi","address1":"Şirinevler, Camcı Sk. No:4, 34188 Bahçelievler/İstanbul, Turkey","address2":"istanbul/bahçelievler/bahçelievler sinem eczanesi","direction":"https://www.google.com.tr/maps/dir/My+Location/41.0046323,28.843638"},{"lat":41.008934,"lng":28.858832,"name":"Bayar Eczanesi","address1":"Soğanlı, Ferit Selim Paşa Cd. 75/A, 34183 Bahçelievler/İstanbul, Turkey","address2":"istanbul/bahçelievler/bayar eczanesi","direction":"https://www.google.com.tr/maps/dir/My+Location/41.008934,28.858832"},{"lat":41.0008021,"lng":28.8303841,"name":"Berat Eczanesi","address1":"Fevziçakmak, Yuvam Sk. 55f, 34194 Bahçelievler/İstanbul, Turkey","address2":"istanbul/bahçelievler/berat eczanesi","direction":"https://www.google.com.tr/maps/dir/My+Location/41.0008021,28.8303841"},{"lat":41.0266334,"lng":28.8290691,"name":"Berin Eczanesi","address1":"Yenibosna Merkez, Atatürk Cd. 51/A, 34197 Bahçelievler/İstanbul, Turkey","address2":"istanbul/bahçelievler/berin eczanesi","direction":"https://www.google.com.tr/maps/dir/My+Location/41.0266334,28.8290691"},{"lat":41.0101566,"lng":28.8549393,"name":"Biryan Eczanesi","address1":"Soğanlı, Mustafa Kemal Paşa Cd. No:93, 34183 Bahçelievler/İstanbul, Turkey","address2":"istanbul/bahçelievler/biryan eczanesi","direction":"https://www.google.com.tr/maps/dir/My+Location/41.0101566,28.8549393"},{"lat":40.9991542,"lng":28.8307389,"name":"Burak Eczanesi","address1":"Fevziçakmak, Köyceğiz Sk. 30/B, 34194 Bahçelievler/İstanbul, Turkey","address2":"istanbul/bahçelievler/burak eczanesi","direction":"https://www.google.com.tr/maps/dir/My+Location/40.9991542,28.8307389"},{"lat":41.0011556,"lng":28.8708706,"name":"Çalışlar Eczanesi","address1":"Bahçelievler Merkez, İzzettin Çalışlar Cd. No:35, 34180 Bahçelievler/İstanbul, Turkey","address2":"istanbul/bahçelievler/çalışlar eczanesi","direction":"https://www.google.com.tr/maps/dir/My+Location/41.0011556,28.8708706"},{"lat":41.003915,"lng":28.8399349,"name":"Cansın Eczanesi","address1":"Hürriyet, Söğüt Sk. 14/A, 34188 Bahçelievler/İstanbul, Turkey","address2":"istanbul/bahçelievler/cansın eczanesi","direction":"https://www.google.com.tr/maps/dir/My+Location/41.003915,28.8399349"},{"lat":41.0216868,"lng":28.8397553,"name":"Çetin Eczanesi","address1":"Barbaros, Mahmutbey Cd. 2/B, 34192 Bağcılar/İstanbul, Turkey","address2":"istanbul/bağcılar/çetin eczanesi","direction":"https://www.google.com.tr/maps/dir/My+Location/41.0216868,28.8397553"},{"lat":41.001801,"lng":28.834123,"name":"Deva Eczanesi","address1":"Fevziçakmak, Yıldırım Beyazıt Cad. 69/A, 34194 Bahçelievler/Istanbul - Europe, Turkey","address2":"istanbul - europe/bahçelievler/deva eczanesi","direction":"https://www.google.com.tr/maps/dir/My+Location/41.001801,28.834123"},{"lat":41.008349,"lng":28.833092,"name":"Dilek Eczanesi","address1":"Zafer, Kaptan Sokağı, 34194 Bahçelievler/İstanbul, Turkey","address2":"istanbul/bahçelievler/dilek eczanesi","direction":"https://www.google.com.tr/maps/dir/My+Location/41.008349,28.833092"},{"lat":41.0071357,"lng":28.8587742,"name":"Doku Eczanesi","address1":"Soğanlı, Ferit Selim Paşa Cd. No:57, 34183 Bahçelievler/İstanbul, Turkey","address2":"istanbul/bahçelievler/doku eczanesi","direction":"https://www.google.com.tr/maps/dir/My+Location/41.0071357,28.8587742"},{"lat":41.018413,"lng":28.832206,"name":"Ekincan Eczanesi","address1":"Kocasinan Merkez, 34192 Bahçelievler/İstanbul, Turkey","address2":"istanbul/bahçelievler/ekincan eczanesi","direction":"https://www.google.com.tr/maps/dir/My+Location/41.018413,28.832206"},{"lat":41.0143316,"lng":28.8351574,"name":"Emir Eczanesi","address1":"Zafer Mh. Atatürk Cad.Vakıflar Blokları B-3 Blok Altı, Bahçelievler, (İtfaiye Okulu sırasında ) Yenibosna, 34194 Bahçelievler/İstanbul, Turkey","address2":"istanbul/bahçelievler/emir eczanesi","direction":"https://www.google.com.tr/maps/dir/My+Location/41.0143316,28.8351574"},{"lat":41.0046466,"lng":28.8574967,"name":"Emre Eczanesi","address1":"Siyavuşpaşa Mh Çamlık Caddesi & İğde Sk. Zoralı Apt. No:3, Siyavuşpaşa, EMRE ECZANESİ, 34182 Bahçelievler/İstanbul, Turkey","address2":"istanbul/bahçelievler/emre eczanesi","direction":"https://www.google.com.tr/maps/dir/My+Location/41.0046466,28.8574967"},{"lat":41.010609,"lng":28.850215,"name":"Esra Eczanesi","address1":"Soğanlı, Çavuşpaşa Cd. No:47, 34183 Bahçelievler/İstanbul, Turkey","address2":"istanbul/bahçelievler/esra eczanesi","direction":"https://www.google.com.tr/maps/dir/My+Location/41.010609,28.850215"},{"lat":40.9991758,"lng":28.8306156,"name":"Fetih Eczanesi","address1":"Fevziçakmak, Fatih Cd. 28/A, 34194 Bahçelievler/İstanbul, Turkey","address2":"istanbul/bahçelievler/fetih eczanesi","direction":"https://www.google.com.tr/maps/dir/My+Location/40.9991758,28.8306156"},{"lat":41.0064579,"lng":28.8490286,"name":"Filiz Doğan Eczanesi","address1":"Soğanlı, Cumhuriyet Cd. No:4/A, 34183 Bahçelievler/İstanbul, Turkey","address2":"istanbul/bahçelievler/filiz doğan eczanesi","direction":"https://www.google.com.tr/maps/dir/My+Location/41.0064579,28.8490286"},{"lat":41.0051837,"lng":28.8447434,"name":"Funda Ören Eczanesi","address1":"Şirinevler, Hastane Cd No:22, 34188 Bahçelievler/İstanbul, Turkey","address2":"istanbul/bahçelievler/funda ören eczanesi","direction":"https://www.google.com.tr/maps/dir/My+Location/41.0051837,28.8447434"},{"lat":41.002602,"lng":28.8739978,"name":"Gonca Eczanesi","address1":"No:, Bahçelievler Merkez, Erde Sk. No:1, 34180 Bahçelievler/İstanbul, Turkey","address2":"istanbul/bahçelievler/gonca eczanesi","direction":"https://www.google.com.tr/maps/dir/My+Location/41.002602,28.8739978"},{"lat":40.9949085,"lng":28.8451607,"name":"Gözen Eczanesi","address1":"Şirinevler, Fetih Cd. 10/2, 34188 Bahçelievler/İstanbul, Turkey","address2":"istanbul/bahçelievler/gözen eczanesi","direction":"https://www.google.com.tr/maps/dir/My+Location/40.9949085,28.8451607"},{"lat":41.0108303,"lng":28.8553992,"name":"Güncan Eczanesi","address1":"Soğanlı Mahallesi, Mustafa Kemal Paşa Cd. No:101/C, 34183 Bahçelievler/İstanbul, Turkey","address2":"istanbul/bahçelievler/güncan eczanesi","direction":"https://www.google.com.tr/maps/dir/My+Location/41.0108303,28.8553992"},{"lat":40.996809,"lng":28.851118,"name":"Gündüz Eczanesi","address1":"Siyavuşpaşa Mh. Barbaros Cad. 2. Sk. no:2A, Bahçelievler Merkez, halk pazarı ve belediyenin karşısında, 34182 Bahçelievler/İstanbul, Turkey","address2":"istanbul/bahçelievler/gündüz eczanesi","direction":"https://www.google.com.tr/maps/dir/My+Location/40.996809,28.851118"},{"lat":41.0031183,"lng":28.8429802,"name":"Güngör Eczanesi","address1":"Şirinevler Mahallesi, Mahmutbey Caddesi, Şirinevler, Gaziler Sk. no5/b, 34188 Bahçelievler/İstanbul, Turkey","address2":"istanbul/bahçelievler/güngör eczanesi","direction":"https://www.google.com.tr/maps/dir/My+Location/41.0031183,28.8429802"},{"lat":41.006549,"lng":28.8692741,"name":"Haznedar Eczanesi","address1":"Bahçelievler Merkez, Şevketdağ Sok. Dağ Apt. No:7/A, 34180 Bahçelievler/İstanbul, Turkey","address2":"istanbul/bahçelievler/haznedar eczanesi","direction":"https://www.google.com.tr/maps/dir/My+Location/41.006549,28.8692741"},{"lat":41.002603,"lng":28.8641491,"name":"Huzur Eczanesi","address1":"Bahçelievler Merkez, Eski Londra Asf Cd No:38, 34180 Bahçelievler/İstanbul, Turkey","address2":"istanbul/bahçelievler/huzur eczanesi","direction":"https://www.google.com.tr/maps/dir/My+Location/41.002603,28.8641491"},{"lat":40.9978025,"lng":28.8648459,"name":"İffet Eczanesi","address1":"Bahçelievler Mh., Hacer Hanım Sk. 15/A, 34180 Bahçelievler/İstanbul, Turkey","address2":"istanbul/bahçelievler/iffet eczanesi","direction":"https://www.google.com.tr/maps/dir/My+Location/40.9978025,28.8648459"},{"lat":41.002397,"lng":28.8359348,"name":"Ilgaz Eczanesi","address1":"Zafer, Yenibosna Kavşağı No:14, 34194 Bahçelievler/İstanbul, Turkey","address2":"istanbul/bahçelievler/ilgaz eczanesi","direction":"https://www.google.com.tr/maps/dir/My+Location/41.002397,28.8359348"},{"lat":40.9918358,"lng":28.8822047,"name":"İmren Eczanesi","address1":"bahçelievler güneş 1 sokak no /1 tbv.memorıal hizmet hastanesi karşısı, Bahçelievler Merkez, 34144 Bakırköy/İstanbul, Turkey","address2":"istanbul/bakırköy/imren eczanesi","direction":"https://www.google.com.tr/maps/dir/My+Location/40.9918358,28.8822047"},{"lat":41.002525,"lng":28.8552938,"name":"Kalender Eczanesi","address1":"Siyavuşpaşa, Ulubatlı Hasan Cd. No:9 D:3, 34182 Bahçelievler/İstanbul, Turkey","address2":"istanbul/bahçelievler/kalender eczanesi","direction":"https://www.google.com.tr/maps/dir/My+Location/41.002525,28.8552938"},{"lat":41.0051992,"lng":28.8446017,"name":"Koza Eczanesi","address1":"Şirinevler, Devlet Hastanesi Acil karşısı, Hastane Cd No:24/C, 34188 Bahçelievler/İstanbul, Turkey","address2":"istanbul/bahçelievler/koza eczanesi","direction":"https://www.google.com.tr/maps/dir/My+Location/41.0051992,28.8446017"},{"lat":41.0087366,"lng":28.8311147,"name":"Mehtap Eczanesi","address1":"154/1 Fatih Caddesi , Yenibosna, Fevziçakmak, 34194 Bahçelievler/İstanbul, Turkey","address2":"istanbul/bahçelievler/mehtap eczanesi","direction":"https://www.google.com.tr/maps/dir/My+Location/41.0087366,28.8311147"},{"lat":41.0180567,"lng":28.8328802,"name":"Melih Eczanesi","address1":"Merkez Mh., Eski Edirne Yolu Caddesi , Yenibosna 35/1, 34197 Bahçelievler/İstanbul, Turkey","address2":"istanbul/bahçelievler/melih eczanesi","direction":"https://www.google.com.tr/maps/dir/My+Location/41.0180567,28.8328802"},{"lat":40.996369,"lng":28.863266,"name":"Metro Eczanesi","address1":"Bahçelievler Merkez, Kültür Sk. No:6 D:1, 34180 Bahçelievler/İstanbul, Turkey","address2":"istanbul/bahçelievler/metro eczanesi","direction":"https://www.google.com.tr/maps/dir/My+Location/40.996369,28.863266"},{"lat":41.0028993,"lng":28.8516064,"name":"Meva Eczanesi","address1":"Siyavuşpaşa, Çağlayan Sk. No:5/A, 34182 Bahçelievler/İstanbul, Turkey","address2":"istanbul/bahçelievler/meva eczanesi","direction":"https://www.google.com.tr/maps/dir/My+Location/41.0028993,28.8516064"},{"lat":41.0112058,"lng":28.8288267,"name":"Mevlana Eczanesi","address1":"Yenibosna Merkez, Yıldırım Beyazıt Cd. 242A, 34197 Bahçelievler/İstanbul, Turkey","address2":"istanbul/bahçelievler/mevlana eczanesi","direction":"https://www.google.com.tr/maps/dir/My+Location/41.0112058,28.8288267"},{"lat":41.005521,"lng":28.8285001,"name":"Niğdeli Eczanesi","address1":"Çobançeşme, Dr. Sadık Ahmet Sk. 23a, 34196 Bahçelievler/İstanbul, Turkey","address2":"istanbul/bahçelievler/niğdeli eczanesi","direction":"https://www.google.com.tr/maps/dir/My+Location/41.005521,28.8285001"},{"lat":40.9962476,"lng":28.8633886,"name":"Nil Eczanesi","address1":"Bahçelievler Merkez, Ressam Halim Sk. Erkam Apt. No:82, 34180 Bahçelievler/İstanbul, Turkey","address2":"istanbul/bahçelievler/nil eczanesi","direction":"https://www.google.com.tr/maps/dir/My+Location/40.9962476,28.8633886"},{"lat":41.050112,"lng":28.9068181,"name":"Nusret Eczanesi","address1":"Muratpaşa, Kamil Cd. No:96, 34040 Bayrampaşa/İstanbul, Turkey","address2":"istanbul/bayrampaşa/nusret eczanesi","direction":"https://www.google.com.tr/maps/dir/My+Location/41.050112,28.9068181"},{"lat":41.00313,"lng":28.855408,"name":"Odabaş Eczanesi","address1":"Siyavuşpaşa Mh., Ulubatlı Hasan Cad. No:15, 34182 Bahçelievler/İstanbul, Turkey","address2":"istanbul/bahçelievler/odabaş eczanesi","direction":"https://www.google.com.tr/maps/dir/My+Location/41.00313,28.855408"},{"lat":41.0160587,"lng":28.8576199,"name":"Onur Eczanesi","address1":"Cumhuriyet, Kıbrıs Cd. 56a, 34186 Bahçelievler/İstanbul, Turkey","address2":"istanbul/bahçelievler/onur eczanesi","direction":"https://www.google.com.tr/maps/dir/My+Location/41.0160587,28.8576199"},{"lat":40.9984099,"lng":28.856096,"name":"Özdilek Eczanesi","address1":"Siyavuşpaşa, Siyavuşpaşa Cd. No:10, 34182 Bahçelievler/İstanbul, Turkey","address2":"istanbul/bahçelievler/özdilek eczanesi","direction":"https://www.google.com.tr/maps/dir/My+Location/40.9984099,28.856096"},{"lat":41.011232,"lng":28.83456,"name":"Özkan Eczanesi","address1":"Zafer, Emir Sultan Sk. No:2, 34194 Bahçelievler/İstanbul, Turkey","address2":"istanbul/bahçelievler/özkan eczanesi","direction":"https://www.google.com.tr/maps/dir/My+Location/41.011232,28.83456"},{"lat":41.0053809,"lng":28.8451686,"name":"Özperk Eczanesi","address1":"ŞİRİNEVLER MAH, Gamsız Sk. NO:1/B, 34168 Bahçelievler/İstanbul, Turkey","address2":"istanbul/bahçelievler/özperk eczanesi","direction":"https://www.google.com.tr/maps/dir/My+Location/41.0053809,28.8451686"},{"lat":41.0010438,"lng":28.8571863,"name":"Pınar Eczanesi","address1":"Siyavuşpaşa, Çamlık Cd. No:22, 34182 Bahçelievler/İstanbul, Turkey","address2":"istanbul/bahçelievler/pınar eczanesi","direction":"https://www.google.com.tr/maps/dir/My+Location/41.0010438,28.8571863"},{"lat":40.9974597,"lng":28.8557775,"name":"Plevne Eczanesi","address1":"Siyavuşpaşa, Eski Londra Asf Cd No:124 D:124/B, 34188 Bahçelievler/İstanbul, Turkey","address2":"istanbul/bahçelievler/plevne eczanesi","direction":"https://www.google.com.tr/maps/dir/My+Location/40.9974597,28.8557775"},{"lat":41.0083226,"lng":28.8412782,"name":"Sami Eczanesi","address1":"Hürriyet, Şirinevler, Mahmutbey Cd. No:209/3 (ŞHT MAHİR AYABAK ORTA OKULU KARŞISI, Hürriyet, Mahmutbey Cd., 34192 Bahçelievler/İstanbul, Turkey","address2":"istanbul/bahçelievler/sami eczanesi","direction":"https://www.google.com.tr/maps/dir/My+Location/41.0083226,28.8412782"},{"lat":41.0015448,"lng":28.8573144,"name":"Saray Eczanesi","address1":"Siyavuşpaşa Mh. Şebboy Sk. Pk:34182 Bahçelievler/istanbul, Siyavuşpaşa, 34100 Bahçelievler/İstanbul, Turkey","address2":"istanbul/bahçelievler/saray eczanesi","direction":"https://www.google.com.tr/maps/dir/My+Location/41.0015448,28.8573144"},{"lat":41.0050246,"lng":28.8440514,"name":"Saydam Eczanesi","address1":"Şirinevler, Hastane Cd No: 16, 34188 Bahçelievler/İstanbul, Turkey","address2":"istanbul/bahçelievler/saydam eczanesi","direction":"https://www.google.com.tr/maps/dir/My+Location/41.0050246,28.8440514"},{"lat":41.0183726,"lng":28.8324042,"name":"Selmin Eczanesi","address1":"Kocasinan Merkez, Eski Edirne Yolu Cd. No:72, 34186 Bahçelievler/İstanbul, Turkey","address2":"istanbul/bahçelievler/selmin eczanesi","direction":"https://www.google.com.tr/maps/dir/My+Location/41.0183726,28.8324042"},{"lat":41.012294,"lng":28.855101,"name":"Soğanlı Eczanesi","address1":"Soğanlı, Yahya Kemal Beyatlı Sk. No:25, 34180 Bahçelievler/İstanbul, Turkey","address2":"istanbul/bahçelievler/soğanlı eczanesi","direction":"https://www.google.com.tr/maps/dir/My+Location/41.012294,28.855101"},{"lat":40.9961901,"lng":28.8633413,"name":"Su Eczanesi","address1":"Bahçelievler Merkez, Kültür Sk. NO:4/B, 34180 Bahçelievler/İstanbul, Turkey","address2":"istanbul/bahçelievler/su eczanesi","direction":"https://www.google.com.tr/maps/dir/My+Location/40.9961901,28.8633413"},{"lat":41.011403,"lng":28.8765696,"name":"Taç Eczanesi","address1":"Güven, Eski Londra Asf Cd No:49/C, 34180 Bahçelievler/İstanbul, Turkey","address2":"istanbul/bahçelievler/taç eczanesi","direction":"https://www.google.com.tr/maps/dir/My+Location/41.011403,28.8765696"},{"lat":41.0079188,"lng":28.8588305,"name":"Tuğrul Örnek Eczanesi","address1":"Bahçelievler Merkez, Ferit Selim Paşa Cd. No:48, 34180 Bahçelievler/İstanbul, Turkey","address2":"istanbul/bahçelievler/tuğrul örnek eczanesi","direction":"https://www.google.com.tr/maps/dir/My+Location/41.0079188,28.8588305"},{"lat":41.005651,"lng":28.841476,"name":"Üçevler Eczanesi","address1":"Kocasinan Merkez, 34192 Bahçelievler/İstanbul, Turkey","address2":"istanbul/bahçelievler/üçevler eczanesi","direction":"https://www.google.com.tr/maps/dir/My+Location/41.005651,28.841476"},{"lat":41.0046242,"lng":28.8436993,"name":"Volkan Eczanesi","address1":"Şirinevler, Camcı Sk. No:4, 34188 Bahçelievler/İstanbul, Turkey","address2":"istanbul/bahçelievler/volkan eczanesi","direction":"https://www.google.com.tr/maps/dir/My+Location/41.0046242,28.8436993"},{"lat":41.0000157,"lng":28.8609086,"name":"Yayla Eczanesi","address1":"Bahçelievler Merkez, Eski Londra Asf Cd 113/1, 34180 Bahçelievler/İstanbul, Turkey","address2":"istanbul/bahçelievler/yayla eczanesi","direction":"https://www.google.com.tr/maps/dir/My+Location/41.0000157,28.8609086"},{"lat":40.992327,"lng":28.844673,"name":"Yeni Emek Eczanesi","address1":"Şirinevler, Şirinevler Meydanı Toyak İş Merkezi No:48 D:1, 34188 Bahçelievler/İstanbul, Turkey","address2":"istanbul/bahçelievler/yeni emek eczanesi","direction":"https://www.google.com.tr/maps/dir/My+Location/40.992327,28.844673"},{"lat":41.0152495,"lng":28.8258213,"name":"Yeni Handan Eczanesi","address1":"Merkez Mahallesi, Şehit Selim Ayaydın Caddesi, Yenibosna 5A/1A, 34197 Bahçelievler/İstanbul, Turkey","address2":"istanbul/bahçelievler/yeni handan eczanesi","direction":"https://www.google.com.tr/maps/dir/My+Location/41.0152495,28.8258213"},{"lat":40.9974597,"lng":28.8557775,"name":"Yeni Plevne Eczanesi","address1":"Siyavuşpaşa, Eski Londra Asf Cd No:124 D:124/B, 34188 Bahçelievler/İstanbul, Turkey","address2":"istanbul/bahçelievler/yeni plevne eczanesi","direction":"https://www.google.com.tr/maps/dir/My+Location/40.9974597,28.8557775"},{"lat":40.9978036,"lng":28.8348149,"name":"Yenibosna Hayat Eczanesi","address1":"Zafer, Yıldırım Beyazıt Cd. No:56, 34194 Bahçelievler/İstanbul, Turkey","address2":"istanbul/bahçelievler/yenibosna hayat eczanesi","direction":"https://www.google.com.tr/maps/dir/My+Location/40.9978036,28.8348149"},{"lat":41.0034875,"lng":28.8519795,"name":"Zeytin Eczanesi","address1":"Siyavuşpaşa Mh. Kaman Sk. Pk:34182 Bahçelievler/istanbul, Siyavuşpaşa, 34100 Bahçelievler/İstanbul, Turkey","address2":"istanbul/bahçelievler/zeytin eczanesi","direction":"https://www.google.com.tr/maps/dir/My+Location/41.0034875,28.8519795"},{"lat":40.9919016,"lng":28.8822824,"name":"Akay Eczanesi","address1":"Osmaniye Mah., Cemiyet Sk. 55/A, 34144 Bakırköy/İstanbul, Turkey","address2":"istanbul/bakırköy/akay eczanesi","direction":"https://www.google.com.tr/maps/dir/My+Location/40.9919016,28.8822824"},{"lat":40.9874258,"lng":28.7974139,"name":"Akvaryum Eczanesi","address1":"Şenlikköy, Eski Halkalı Cd. No:33, 34295 Bakırköy/İstanbul, Turkey","address2":"istanbul/bakırköy/akvaryum eczanesi","direction":"https://www.google.com.tr/maps/dir/My+Location/40.9874258,28.7974139"},{"lat":40.994708,"lng":28.883728,"name":"Altan Eczanesi","address1":"Osmaniye, 34144 Bakırköy/İstanbul, Turkey","address2":"istanbul/bakırköy/altan eczanesi","direction":"https://www.google.com.tr/maps/dir/My+Location/40.994708,28.883728"},{"lat":40.9845337,"lng":28.846764,"name":"Altın Eczanesi","address1":"Ataköy 7-8-9-10, Defne Sokağı 1-2, 34158 Bakırköy/İstanbul, Turkey","address2":"istanbul/bakırköy/altın eczanesi","direction":"https://www.google.com.tr/maps/dir/My+Location/40.9845337,28.846764"},{"lat":40.9790421,"lng":28.8707625,"name":"Ataköy Erzen Eczanesi","address1":"Zeytinlik, Cumhuriyetçi Sk. 17/A, 34140 Bakırköy/İstanbul, Turkey","address2":"istanbul/bakırköy/ataköy erzen eczanesi","direction":"https://www.google.com.tr/maps/dir/My+Location/40.9790421,28.8707625"},{"lat":40.981226,"lng":28.848951,"name":"Ataköy Martı Eczanesi","address1":"Ataköy 7-8-9-10 Mh. Defne Sk. Pk:34158 Bakırköy/istanbul, Ataköy 7-8-9-10, 34158 ATAKÖY/Bakırköy/İstanbul, Turkey","address2":"istanbul/bakırköy/ataköy martı eczanesi","direction":"https://www.google.com.tr/maps/dir/My+Location/40.981226,28.848951"},{"lat":40.963807,"lng":28.837484,"name":"Aytaç Eczanesi","address1":"Yeşilyurt, Ekin Sk. No:21, 34149 Bakırköy/İstanbul, Turkey","address2":"istanbul/bakırköy/aytaç eczanesi","direction":"https://www.google.com.tr/maps/dir/My+Location/40.963807,28.837484"},{"lat":40.9787171,"lng":28.8789374,"name":"Bakırköy Betül Eczanesi","address1":"Yenimahalle, Hazırlık Sk. No:7/B, 34160 Bakırköy/İstanbul, Turkey","address2":"istanbul/bakırköy/bakırköy betül eczanesi","direction":"https://www.google.com.tr/maps/dir/My+Location/40.9787171,28.8789374"},{"lat":40.9941768,"lng":28.8665755,"name":"Bakırköy Çiçek Eczanesi","address1":"Zuhuratbaba, Şenyuva Sok. D:1-2, 34147 Bakırköy/Istanbul - Europe, Turkey","address2":"istanbul - europe/bakırköy/bakırköy çiçek eczanesi","direction":"https://www.google.com.tr/maps/dir/My+Location/40.9941768,28.8665755"},{"lat":40.980948,"lng":28.870006,"name":"Bakırköy Demet Eczanesi","address1":"Zuhuratbaba, Şükran Çiftliği Sk. 35/A, 34147 Bakırköy/İstanbul, Turkey","address2":"istanbul/bakırköy/bakırköy demet eczanesi","direction":"https://www.google.com.tr/maps/dir/My+Location/40.980948,28.870006"},{"lat":40.993333,"lng":28.867737,"name":"Bakırköy Hayat Eczanesi","address1":"Zuhuratbaba, Dr. Tevfik Sağlam Cd. 21/A, 34147 Bakırköy/İstanbul, Turkey","address2":"istanbul/bakırköy/bakırköy hayat eczanesi","direction":"https://www.google.com.tr/maps/dir/My+Location/40.993333,28.867737"},{"lat":40.9859272,"lng":28.8684074,"name":"Bakırköy Nur Eczanesi","address1":"Zuhuratbaba mh, Yüce Tarla Cd. No:29/A, 34147 Bakırköy/İstanbul, Turkey","address2":"istanbul/bakırköy/bakırköy nur eczanesi","direction":"https://www.google.com.tr/maps/dir/My+Location/40.9859272,28.8684074"},{"lat":40.9848945,"lng":28.8667475,"name":"Başarı Eczanesi","address1":"Zuhuratbaba, Demirkapı Cd., 34147 Bakırköy/İstanbul, Turkey","address2":"istanbul/bakırköy/başarı eczanesi","direction":"https://www.google.com.tr/maps/dir/My+Location/40.9848945,28.8667475"},{"lat":40.981186,"lng":28.7934004,"name":"Biblos Eczanesi","address1":"Şenlikköy, Florya Cd. 25/1, 34153 Bakırköy/İstanbul, Turkey","address2":"istanbul/bakırköy/biblos eczanesi","direction":"https://www.google.com.tr/maps/dir/My+Location/40.981186,28.7934004"},{"lat":40.9614,"lng":28.821926,"name":"Buse Eczanesi","address1":"Yeşilköy, İstasyon Cad./ümran Sok. Tan Apt. No:30, 34149 Bakırköy/İstanbul - Avrupa, Turkey","address2":"istanbul - avrupa/bakırköy/buse eczanesi","direction":"https://www.google.com.tr/maps/dir/My+Location/40.9614,28.821926"},{"lat":40.9596383,"lng":28.8195389,"name":"Büyük Umut Eczanesi","address1":"Yeşilköy, Çekmece Cd. No:11, 34149 Bakırköy/İstanbul, Turkey","address2":"istanbul/bakırköy/büyük umut eczanesi","direction":"https://www.google.com.tr/maps/dir/My+Location/40.9596383,28.8195389"},{"lat":40.9789628,"lng":28.8718148,"name":"Erem Eczanesi","address1":"Zeytinlik, Yakut Sk. 30/13, 34140 Bakırköy/İstanbul, Turkey","address2":"istanbul/bakırköy/erem eczanesi","direction":"https://www.google.com.tr/maps/dir/My+Location/40.9789628,28.8718148"},{"lat":40.975757,"lng":28.874615,"name":"Eylül Eczanesi","address1":"Zeytinlik, Ömer Naci Sk. No:34 D:2, 34140 Bakırköy/İstanbul, Turkey","address2":"istanbul/bakırköy/eylül eczanesi","direction":"https://www.google.com.tr/maps/dir/My+Location/40.975757,28.874615"},{"lat":40.9743836,"lng":28.8702084,"name":"Galleria Eczanesi","address1":"Ataköy Mah., Galleria Alisveris Merkezi D:349, 34158 Bakırköy/İstanbul, Turkey","address2":"istanbul/bakırköy/galleria eczanesi","direction":"https://www.google.com.tr/maps/dir/My+Location/40.9743836,28.8702084"},{"lat":40.9807029,"lng":28.8760788,"name":"Gözde Eczanesi","address1":"Cevizlik, Hatboyu Çıkışı Sokağı No:26, 34142 Bakırköy/İstanbul, Turkey","address2":"istanbul/bakırköy/gözde eczanesi","direction":"https://www.google.com.tr/maps/dir/My+Location/40.9807029,28.8760788"},{"lat":40.9638841,"lng":28.8375815,"name":"Gün Eczanesi","address1":"Yeşilyurt, Ekin Sk. No:21, 34149 Bakırköy/İstanbul, Turkey","address2":"istanbul/bakırköy/gün eczanesi","direction":"https://www.google.com.tr/maps/dir/My+Location/40.9638841,28.8375815"},{"lat":40.9727641,"lng":28.8044598,"name":"Hijenya Eczanesi","address1":"Şenlikköy, Harman Sokaği Flyinn Alışveriş Merkezi, 34153 Bakırköy/İstanbul, Turkey","address2":"istanbul/bakırköy/hijenya eczanesi","direction":"https://www.google.com.tr/maps/dir/My+Location/40.9727641,28.8044598"},{"lat":40.9888455,"lng":28.8745396,"name":"Humay Eczanesi","address1":"Kartaltepe, Umut Sk., 34144 Bakırköy/İstanbul, Turkey","address2":"istanbul/bakırköy/humay eczanesi","direction":"https://www.google.com.tr/maps/dir/My+Location/40.9888455,28.8745396"},{"lat":40.980638,"lng":28.7931215,"name":"İnan Eczanesi","address1":"Basınköy, Florya Cd. No:21, 34153 Bakırköy/İstanbul, Turkey","address2":"istanbul/bakırköy/inan eczanesi","direction":"https://www.google.com.tr/maps/dir/My+Location/40.980638,28.7931215"},{"lat":40.97811,"lng":28.8698853,"name":"Kalaycıoğlu Eczanesi","address1":"Zeytinlik, CAPACITY AVM ve TİTANİC OTEL KARŞISI, Fişekhane Cd. NO:56/D, 34140 Bakırköy/İstanbul, Turkey","address2":"istanbul/bakırköy/kalaycıoğlu eczanesi","direction":"https://www.google.com.tr/maps/dir/My+Location/40.97811,28.8698853"},{"lat":40.9783649,"lng":28.8720935,"name":"Lokman Hekim Eczanesi","address1":"Zeytinlik, Fişekhane Cd. No:32, 34140 Bakırköy/İstanbul, Turkey","address2":"istanbul/bakırköy/lokman hekim eczanesi","direction":"https://www.google.com.tr/maps/dir/My+Location/40.9783649,28.8720935"},{"lat":40.9812801,"lng":28.7929371,"name":"Nimet Eczanesi","address1":"Şenlikköy, Çekmece Cad No:6, 34153 Bakırköy/İstanbul, Turkey","address2":"istanbul/bakırköy/nimet eczanesi","direction":"https://www.google.com.tr/maps/dir/My+Location/40.9812801,28.7929371"},{"lat":40.961196,"lng":28.8227464,"name":"Nur Eczanesi","address1":"Yeşilköy, Ümran Sokağı 9/2, 34149 Bakırköy/İstanbul, Turkey","address2":"istanbul/bakırköy/nur eczanesi","direction":"https://www.google.com.tr/maps/dir/My+Location/40.961196,28.8227464"},{"lat":40.9882432,"lng":28.8695354,"name":"Nurcan Eczanesi","address1":"Zuhuratbaba, Bingöl Sk. Acar Apt. No:18 D:2, 34147 Bakırköy/İstanbul, Turkey","address2":"istanbul/bakırköy/nurcan eczanesi","direction":"https://www.google.com.tr/maps/dir/My+Location/40.9882432,28.8695354"},{"lat":40.989147,"lng":28.870114,"name":"Okan Eczanesi","address1":"Zuhuratbaba, İncirli Cd. No:11/A, 34147 Bakırköy/İstanbul, Turkey","address2":"istanbul/bakırköy/okan eczanesi","direction":"https://www.google.com.tr/maps/dir/My+Location/40.989147,28.870114"},{"lat":40.9833852,"lng":28.7796103,"name":"Oral Eczanesi","address1":"Basınköy, Ahmet Cevdet İkdam Cd. No:47, 34153 Bakırköy/İstanbul, Turkey","address2":"istanbul/bakırköy/oral eczanesi","direction":"https://www.google.com.tr/maps/dir/My+Location/40.9833852,28.7796103"},{"lat":40.995891,"lng":28.873108,"name":"Öykü Eczanesi","address1":"Kartaltepe Mh, Limon Çiçeği Sk. no:16/1, 34144 Bakırköy/İstanbul, Turkey","address2":"istanbul/bakırköy/öykü eczanesi","direction":"https://www.google.com.tr/maps/dir/My+Location/40.995891,28.873108"},{"lat":40.9942388,"lng":28.8664108,"name":"Oylum Eczanesi","address1":"Zuhuratbaba, Baharözü Sk. No:2, 34147 Bakırköy/İstanbul, Turkey","address2":"istanbul/bakırköy/oylum eczanesi","direction":"https://www.google.com.tr/maps/dir/My+Location/40.9942388,28.8664108"},{"lat":40.9856545,"lng":28.8783745,"name":"Özgür Eczanesi","address1":"Kartaltepe, Koşuyolu Cd. No:15, 34145 Bakırköy/İstanbul, Turkey","address2":"istanbul/bakırköy/özgür eczanesi","direction":"https://www.google.com.tr/maps/dir/My+Location/40.9856545,28.8783745"},{"lat":40.9790924,"lng":28.8502733,"name":"Pharmataköy Eczanesi","address1":"Ataköy 2-5-6 Mah., Adnan Kahveci Blv., 34144 Bakırköy/İstanbul, Turkey","address2":"istanbul/bakırköy/pharmataköy eczanesi","direction":"https://www.google.com.tr/maps/dir/My+Location/40.9790924,28.8502733"},{"lat":40.9832085,"lng":28.8667267,"name":"Rubin Eczanesi","address1":"Zuhuratbaba mahallesi zuhuratbaba caddesi, Zuhuratbaba, türbe karşısı NO/1/A, 34147 Bakırköy/İstanbul, Turkey","address2":"istanbul/bakırköy/rubin eczanesi","direction":"https://www.google.com.tr/maps/dir/My+Location/40.9832085,28.8667267"},{"lat":40.9772887,"lng":28.8679128,"name":"Saadet Eczanesi","address1":"Ataköy 1., Zübeyde Hanım Cd. No:1, 34158 Bakırköy/İstanbul, Turkey","address2":"istanbul/bakırköy/saadet eczanesi","direction":"https://www.google.com.tr/maps/dir/My+Location/40.9772887,28.8679128"},{"lat":40.9825509,"lng":28.8604297,"name":"Serpil Eczanesi","address1":"Ataköy 4 Mah., Cevat Dursunoğlu Sok. Ataköy 4. Kısım Çarşısı No:21, 34158 Bakırköy/İstanbul, Turkey","address2":"istanbul/bakırköy/serpil eczanesi","direction":"https://www.google.com.tr/maps/dir/My+Location/40.9825509,28.8604297"},{"lat":40.9825148,"lng":28.8728328,"name":"Uçkunkaya Eczanesi","address1":"Zuhuratbaba, İncirli Cd. 3/b, 34147 Bakırköy/İstanbul, Turkey","address2":"istanbul/bakırköy/uçkunkaya eczanesi","direction":"https://www.google.com.tr/maps/dir/My+Location/40.9825148,28.8728328"},{"lat":40.9582155,"lng":28.8214418,"name":"Ufuk Eczanesi","address1":"Yeşilköy, Yeşilbahçe Sk. No:79 D:1, 34149 Bakırköy/İstanbul, Turkey","address2":"istanbul/bakırköy/ufuk eczanesi","direction":"https://www.google.com.tr/maps/dir/My+Location/40.9582155,28.8214418"},{"lat":40.959301,"lng":28.822664,"name":"Yeşilköy Eczanesi","address1":"Yeşilköy, Seyit Ali Sokağı No:55A, 34149 Bakırköy/İstanbul, Turkey","address2":"istanbul/bakırköy/yeşilköy eczanesi","direction":"https://www.google.com.tr/maps/dir/My+Location/40.959301,28.822664"},{"lat":40.9641343,"lng":28.838373,"name":"Yeşilyurt Eczanesi","address1":"Yeşilyurt, Sipahioğlu Cd No: 13/B, 34149 Bakırköy/İstanbul, Turkey","address2":"istanbul/bakırköy/yeşilyurt eczanesi","direction":"https://www.google.com.tr/maps/dir/My+Location/40.9641343,28.838373"},{"lat":40.9809308,"lng":28.7942227,"name":"Yıldız Eczanesi","address1":"Şenlikköy, Şenlikköy polis Merkezi Ve Kim Market Arası, Meydan Sk. No:3/a, 34153 Bakırköy/İstanbul, Turkey","address2":"istanbul/bakırköy/yıldız eczanesi","direction":"https://www.google.com.tr/maps/dir/My+Location/40.9809308,28.7942227"},{"lat":40.981281,"lng":28.8759705,"name":"Yunt Eczanesi","address1":"Kartaltepe, 34144 Bakırköy/İstanbul, Turkey","address2":"istanbul/bakırköy/yunt eczanesi","direction":"https://www.google.com.tr/maps/dir/My+Location/40.981281,28.8759705"},{"lat":40.9955067,"lng":28.8738617,"name":"Zeynep Eczanesi","address1":"Kartaltepe Mh. Bahçe Saray Sk. Pk:34144 Bakırköy/istanbul, Kartaltepe, 34153 Bakırköy/İstanbul, Turkey","address2":"istanbul/bakırköy/zeynep eczanesi","direction":"https://www.google.com.tr/maps/dir/My+Location/40.9955067,28.8738617"},{"lat":41.0628184,"lng":28.6826381,"name":"3.Cadde Eczanesi","address1":"Bahçeşehir 2.Kısım Mahallesi, Şehit Polis Gaffar Okkan Caddesi D Blok No: 20/C Bahçeşehir-Başakşehir/İSTANBUL, Bahçeşehir 2. Kısım, 34488 Başakşehir/İstanbul, Turkey","address2":"istanbul/başakşehir/3.cadde eczanesi","direction":"https://www.google.com.tr/maps/dir/My+Location/41.0628184,28.6826381"},{"lat":41.1094329,"lng":28.8035281,"name":"Akasya Eczanesi","address1":"Başak, Yeşilvadi Cd. 6/A, 34480 Başakşehir/İstanbul, Turkey","address2":"istanbul/başakşehir/akasya eczanesi","direction":"https://www.google.com.tr/maps/dir/My+Location/41.1094329,28.8035281"},{"lat":41.0785136,"lng":28.6674204,"name":"Anadolu Eczanesi","address1":"Bahçeşehir 2. Kısım, Anadolu Cd. 221/1, 34488 Başakşehir/İstanbul, Turkey","address2":"istanbul/başakşehir/anadolu eczanesi","direction":"https://www.google.com.tr/maps/dir/My+Location/41.0785136,28.6674204"},{"lat":41.0817249,"lng":28.7517415,"name":"Anıl Eczanesi","address1":"Güvercintepe, Gül Sk. 113/B, 34494 Başakşehir/İstanbul, Turkey","address2":"istanbul/başakşehir/anıl eczanesi","direction":"https://www.google.com.tr/maps/dir/My+Location/41.0817249,28.7517415"},{"lat":41.0679155,"lng":28.6905477,"name":"Armağan Eczanesi","address1":"Bahçeşehir 1. Kısım, Doğa Parkı Cad. Golet Mevkii D:ZK.08, 34488 Başakşehir/İstanbul, Turkey","address2":"istanbul/başakşehir/armağan eczanesi","direction":"https://www.google.com.tr/maps/dir/My+Location/41.0679155,28.6905477"},{"lat":41.1020577,"lng":28.7868203,"name":"Arterium Eczanesi","address1":"Başakşehir Mahallesi, Toros Cd. No:3/F, 34846 Başakşehir/İstanbul, Turkey","address2":"istanbul/başakşehir/arterium eczanesi","direction":"https://www.google.com.tr/maps/dir/My+Location/41.1020577,28.7868203"},{"lat":41.0982016,"lng":28.8048152,"name":"Aynur Eczanesi","address1":"Başak Mah., Ertuğrul Gazi Cad. Başakcenter Çarşı No:23 D:1, 34480 Başakşehir/İstanbul, Turkey","address2":"istanbul/başakşehir/aynur eczanesi","direction":"https://www.google.com.tr/maps/dir/My+Location/41.0982016,28.8048152"},{"lat":41.070478,"lng":28.6875486,"name":"Bahçeşehir Aydın Eczanesi","address1":"Bahçeşehir 2. Kısım, Avni Akyol Blv., 34488 Başakşehir/İstanbul, Turkey","address2":"istanbul/başakşehir/bahçeşehir aydın eczanesi","direction":"https://www.google.com.tr/maps/dir/My+Location/41.070478,28.6875486"},{"lat":41.0622158,"lng":28.6884196,"name":"Bahçeşehir Eczanesi","address1":"Bahçeşehir 1. Kısım, Süzer Blv. Bahçeşehir Ticaret Merkez 4-6/A, 34538 Başakşehir/İstanbul, Turkey","address2":"istanbul/başakşehir/bahçeşehir eczanesi","direction":"https://www.google.com.tr/maps/dir/My+Location/41.0622158,28.6884196"},{"lat":41.072417,"lng":28.684618,"name":"Bahçeşehir Park Eczanesi","address1":"Barış Sokak Bahçeşehir Park Çarşısı No: 1 J Bahçeşehir 2. kısım mahallesi, Bahçeşehir 2. Kısım, 34538 Başakşehir/İstanbul, Turkey","address2":"istanbul/başakşehir/bahçeşehir park eczanesi","direction":"https://www.google.com.tr/maps/dir/My+Location/41.072417,28.684618"},{"lat":41.1036791,"lng":28.7919983,"name":"Başakşehir Eczanesi","address1":"Başakşehir, Cihangir Sk., 34480 Başakşehir/İstanbul, Turkey","address2":"istanbul/başakşehir/başakşehir eczanesi","direction":"https://www.google.com.tr/maps/dir/My+Location/41.1036791,28.7919983"},{"lat":41.0867811,"lng":28.7511107,"name":"Bayramtepe Eczanesi","address1":"Güvercintepe Mh, Fatih Cd. 221/A, 34306 Başakşehir/İstanbul, Turkey","address2":"istanbul/başakşehir/bayramtepe eczanesi","direction":"https://www.google.com.tr/maps/dir/My+Location/41.0867811,28.7511107"},{"lat":41.0703629,"lng":28.6660055,"name":"Boğazköy Eczanesi","address1":"Bahçeşehir 2. Kısım, 1. Cd. 1/A, 34488 Başakşehir/İstanbul, Turkey","address2":"istanbul/başakşehir/boğazköy eczanesi","direction":"https://www.google.com.tr/maps/dir/My+Location/41.0703629,28.6660055"},{"lat":41.119753,"lng":28.80769,"name":"Çağrı Yancar Eczanesi","address1":"Başak Mahallesi, Başakşehir, Yunus Emre Caddesi (Başakşehir Devlet Hastanesi Yanı - Sular Vadisi Karşısı), 34480 Başakşehir/İstanbul, Turkey","address2":"istanbul/başakşehir/çağrı yancar eczanesi","direction":"https://www.google.com.tr/maps/dir/My+Location/41.119753,28.80769"},{"lat":41.0868444,"lng":28.7526727,"name":"Çıra Eczanesi","address1":"3/A, Güvercintepe, 37. Sk., 34494 Başakşehir/İstanbul, Turkey","address2":"istanbul/başakşehir/çıra eczanesi","direction":"https://www.google.com.tr/maps/dir/My+Location/41.0868444,28.7526727"},{"lat":41.108254,"lng":28.757801,"name":"Defne Eczanesi","address1":"KAYAŞEHİR TOKİ, Kayabaşı, 34498 Kayaşehir/Başakşehir/İstanbul, Turkey","address2":"istanbul/başakşehir/defne eczanesi","direction":"https://www.google.com.tr/maps/dir/My+Location/41.108254,28.757801"},{"lat":41.0637282,"lng":28.687542,"name":"Dilek Öz Eczanesi","address1":"BAŞAKŞEHİR BAHÇEŞEHİR 1. KISIM MAH KEMAL SUNAL CADDE DEFNE 03 VILLA -04 NO-17/A, Bahçeşehir 1. Kısım, 34600 Başakşehir/İstanbul, Turkey","address2":"istanbul/başakşehir/dilek öz eczanesi","direction":"https://www.google.com.tr/maps/dir/My+Location/41.0637282,28.687542"},{"lat":41.068731,"lng":28.683916,"name":"Elvin Eczanesi","address1":"Eczane Elvin Süzer Bulvarı No: 47/B Bahçeşehir/İstanbul, Bahçeşehir 2. Kısım, Telefon: 0 212 669 18 27, 34488 Bahçeşehir/Başakşehir/İstanbul, Turkey","address2":"istanbul/başakşehir/elvin eczanesi","direction":"https://www.google.com.tr/maps/dir/My+Location/41.068731,28.683916"},{"lat":41.0356725,"lng":28.7887177,"name":"Emre Vural Eczanesi","address1":"Halkalı Merkez, İkitelli Cd No:4 D:1, 34303 Küçükçekmece/İstanbul, Turkey","address2":"istanbul/küçükçekmece/emre vural eczanesi","direction":"https://www.google.com.tr/maps/dir/My+Location/41.0356725,28.7887177"},{"lat":41.1005225,"lng":28.8103862,"name":"Ezel Dündar Eczanesi","address1":"Başak, İstanbul Çarsısı, Başakşehir 4. Etap D:17, 34306 Başakşehir/İstanbul, Turkey","address2":"istanbul/başakşehir/ezel dündar eczanesi","direction":"https://www.google.com.tr/maps/dir/My+Location/41.1005225,28.8103862"},{"lat":41.0995667,"lng":28.7893163,"name":"Funda Eczanesi","address1":"MEVLANA PİDE YANI, Başakşehir Mahallesi Prof. Dr. Necmettin Erbakan Cd New Istalıfe Carşı 5/A44 1. Etap, Başakşehir, 34488 Başakşehir/İstanbul, Turkey","address2":"istanbul/başakşehir/funda eczanesi","direction":"https://www.google.com.tr/maps/dir/My+Location/41.0995667,28.7893163"},{"lat":41.1019792,"lng":28.7987404,"name":"Gülcan Eczanesi","address1":"Başak Mah Deliorman Cad 1GC, Başak, Gocmen Konutlari, 34480 Başakşehir/İstanbul, Turkey","address2":"istanbul/başakşehir/gülcan eczanesi","direction":"https://www.google.com.tr/maps/dir/My+Location/41.1019792,28.7987404"},{"lat":41.1072391,"lng":28.7846821,"name":"İkinci Etap Eczanesi","address1":"MEHMET AKİF ERSOY CAD.SERAP SOK. NO: 3/B, Başakşehir, BAŞAKŞEHİR 2.ETAP, 34480 Başakşehir/İstanbul, Turkey","address2":"istanbul/başakşehir/ikinci etap eczanesi","direction":"https://www.google.com.tr/maps/dir/My+Location/41.1072391,28.7846821"},{"lat":41.1049177,"lng":28.8036195,"name":"İlknur Eczanesi","address1":"Başak Mahallesi Yeşil Vadi Cad, Başak, PETROL OFİSİ ÇAPRAZI, Metrokent Sitesi No:28, 34480 Başakşehir/İstanbul, Turkey","address2":"istanbul/başakşehir/ilknur eczanesi","direction":"https://www.google.com.tr/maps/dir/My+Location/41.1049177,28.8036195"},{"lat":41.1269933,"lng":28.7764994,"name":"Kayaşehir Deva Eczanesi","address1":"Kayabaşı, Kayaşehir Bulvarı No:8, 34494 Başakşehir/İstanbul, Turkey","address2":"istanbul/başakşehir/kayaşehir deva eczanesi","direction":"https://www.google.com.tr/maps/dir/My+Location/41.1269933,28.7764994"},{"lat":41.1071353,"lng":28.769573,"name":"Kayaşehir Eczanesi","address1":"Kayabaşı, Albayrak sokak, 34494 Başakşehir/İstanbul, Turkey","address2":"istanbul/başakşehir/kayaşehir eczanesi","direction":"https://www.google.com.tr/maps/dir/My+Location/41.1071353,28.769573"},{"lat":41.107608,"lng":28.757978,"name":"Kıvanç Eczanesi","address1":"KAYABAŞI MAH. ŞEHİT MUSTAFA BOZOKLU CAD .MERKEZ KAYAŞEHİR AVM, Başakşehir, 34494 Başakşehir/İstanbul, Turkey","address2":"istanbul/başakşehir/kıvanç eczanesi","direction":"https://www.google.com.tr/maps/dir/My+Location/41.107608,28.757978"},{"lat":41.1079281,"lng":28.789882,"name":"Mavera Başakşehir Eczanesi","address1":"Başakşehir, 34480 Başakşehir/İstanbul, Turkey","address2":"istanbul/başakşehir/mavera başakşehir eczanesi","direction":"https://www.google.com.tr/maps/dir/My+Location/41.1079281,28.789882"},{"lat":41.0634242,"lng":28.6880655,"name":"Mavi Eczanesi","address1":"Bahçeşehir 1. Kısım, Kemal Sunal Cd. 19/B, 34488 Başakşehir/İstanbul, Turkey","address2":"istanbul/başakşehir/mavi eczanesi","direction":"https://www.google.com.tr/maps/dir/My+Location/41.0634242,28.6880655"},{"lat":41.081385,"lng":28.8083452,"name":"Melita Eczanesi","address1":"Yunus Emre Mahallesi, Mevlana Caddesi Başakşehir 4 Etap 1. Kısım No:17, 34490 Başakşehir/İstanbul, Turkey","address2":"istanbul/başakşehir/melita eczanesi","direction":"https://www.google.com.tr/maps/dir/My+Location/41.081385,28.8083452"},{"lat":41.0933095,"lng":28.8056078,"name":"Misstanbul Eczanesi","address1":"Başak, Mevlana Celaleddin Rumi Cd. Misstanbul AVM, 34290 Başakşehir/İstanbul, Turkey","address2":"istanbul/başakşehir/misstanbul eczanesi","direction":"https://www.google.com.tr/maps/dir/My+Location/41.0933095,28.8056078"},{"lat":41.0712981,"lng":28.6883581,"name":"Neval Biricik Eczanesi","address1":"Bahçeşehir 2. Kısım, 34488 Başakşehir/İstanbul, Turkey","address2":"istanbul/başakşehir/neval biricik eczanesi","direction":"https://www.google.com.tr/maps/dir/My+Location/41.0712981,28.6883581"},{"lat":41.0635151,"lng":28.6853553,"name":"Oksijen Eczanesi","address1":"Bahçeşehir 2. Kısım Mahallesi Süzer Bulv. 3. Cad. Şehr-i Bazaar Alışveriş Merkezi, Bahçeşehir 2. Kısım, 34488 Başakşehir/İstanbul, Turkey","address2":"istanbul/başakşehir/oksijen eczanesi","direction":"https://www.google.com.tr/maps/dir/My+Location/41.0635151,28.6853553"},{"lat":41.0619479,"lng":28.6882443,"name":"Olimpa Eczanesi","address1":"Bahçeşehir 1. Kısım, Süzer Blv. No:4, 34488 Başakşehir/İstanbul, Turkey","address2":"istanbul/başakşehir/olimpa eczanesi","direction":"https://www.google.com.tr/maps/dir/My+Location/41.0619479,28.6882443"},