[{"lat":38.0768998,"lng":42.7720191,"name":"Onur Eczanesi","address1":"Bahçesaray/Van, Turkey","address2":"van/bahçesaray/onur eczanesi","direction":"https://www.google.com.tr/maps/dir/My+Location/38.0768998,42.7720191"},{"lat":38.5007065,"lng":43.3785962,"name":"Afşar Eczanesi","address1":"Bahçıvan, Kazım Karabekir Cad. Kaval İş Merkezi D:10, 65130 Merkez/İpekyolu/Van, Turkey","address2":"van/ipekyolu/afşar eczanesi","direction":"https://www.google.com.tr/maps/dir/My+Location/38.5007065,43.3785962"},{"lat":38.5037328,"lng":43.3989758,"name":"Akay Eczanesi","address1":"Vali Mithat Bey, Hastane Cad. Akay Sağlık İş Merkezi No:58, 65130 İpekyolu/Van, Turkey","address2":"van/ipekyolu/akay eczanesi","direction":"https://www.google.com.tr/maps/dir/My+Location/38.5037328,43.3989758"},{"lat":38.502751,"lng":43.3980158,"name":"Akköprü Eczanesi","address1":"Şerefiye, 65100 Van Merkez/Van, Turkey","address2":"van/van merkez/akköprü eczanesi","direction":"https://www.google.com.tr/maps/dir/My+Location/38.502751,43.3980158"},{"lat":38.5093076,"lng":43.3748362,"name":"Altınbaşak Eczanesi","address1":"Alipaşa, İpek Yolu Cad. No:7, 65130 Van Merkez/Van, Turkey","address2":"van/van merkez/altınbaşak eczanesi","direction":"https://www.google.com.tr/maps/dir/My+Location/38.5093076,43.3748362"},{"lat":38.4941371,"lng":43.3976174,"name":"Arı Eczanesi","address1":"Serhat, Garipler 2. Sk. No:65, 65100 İpekyolu/Van, Turkey","address2":"van/ipekyolu/arı eczanesi","direction":"https://www.google.com.tr/maps/dir/My+Location/38.4941371,43.3976174"},{"lat":38.4967895,"lng":43.3889372,"name":"Aysel Eczanesi","address1":"Cumhuriyet, Zübeyde Hanım Cd. 84/A, 65300 Van Merkez/Van, Turkey","address2":"van/van merkez/aysel eczanesi","direction":"https://www.google.com.tr/maps/dir/My+Location/38.4967895,43.3889372"},{"lat":38.5040562,"lng":43.3961274,"name":"Beşyol Eczanesi","address1":"Vali Mithat Bey, 65100 Van Merkez/Van, Turkey","address2":"van/van merkez/beşyol eczanesi","direction":"https://www.google.com.tr/maps/dir/My+Location/38.5040562,43.3961274"},{"lat":38.4626099,"lng":43.3379833,"name":"Bölge Eczanesi","address1":"Eminpaşa, Unnamed Road, 65300 Edremit/Van, Turkey","address2":"van/edremit/bölge eczanesi","direction":"https://www.google.com.tr/maps/dir/My+Location/38.4626099,43.3379833"},{"lat":38.512331,"lng":43.39587,"name":"Büyükşehir Eczanesi","address1":"Akköprü, Defterdarlık Cd. No:16, 65030 Van Merkez/Van, Turkey","address2":"van/van merkez/büyükşehir eczanesi","direction":"https://www.google.com.tr/maps/dir/My+Location/38.512331,43.39587"},{"lat":38.4949525,"lng":43.3746511,"name":"Emir Eczanesi","address1":"Halilağa, İpek Yolu Cad. No:9, 65140 Van Merkez/Van, Turkey","address2":"van/van merkez/emir eczanesi","direction":"https://www.google.com.tr/maps/dir/My+Location/38.4949525,43.3746511"},{"lat":38.5031029,"lng":43.3981775,"name":"Esin Eczanesi","address1":"Şerefiye, Urartu 1. Sok. No:9, 65140 Van Merkez/Van, Turkey","address2":"van/van merkez/esin eczanesi","direction":"https://www.google.com.tr/maps/dir/My+Location/38.5031029,43.3981775"},{"lat":38.502851,"lng":43.3996977,"name":"Ferhat Eczanesi","address1":"Şerefiye Mh. İrfanbaştuğ Cd, Şerefiye, Urartu Sk. No4/c, 65100 İpekyolu/Van, Turkey","address2":"van/ipekyolu/ferhat eczanesi","direction":"https://www.google.com.tr/maps/dir/My+Location/38.502851,43.3996977"},{"lat":38.4877114,"lng":43.393573,"name":"Gülseven Eczanesi","address1":"Bahçıvan, Cumhuriyet 4. Sk. No:6, 65130 İpekyolu/Van, Turkey","address2":"van/ipekyolu/gülseven eczanesi","direction":"https://www.google.com.tr/maps/dir/My+Location/38.4877114,43.393573"},{"lat":38.4812231,"lng":43.3853756,"name":"Gültepe Eczanesi","address1":"Süphan, No:13, 65300 Van Merkez/Van, Turkey","address2":"van/van merkez/gültepe eczanesi","direction":"https://www.google.com.tr/maps/dir/My+Location/38.4812231,43.3853756"},{"lat":38.4949955,"lng":43.3604826,"name":"Gümüş Eczanesi","address1":"Terzioğlu Cd., İpekyolu/Van, Turkey","address2":"van/ipekyolu/gümüş eczanesi","direction":"https://www.google.com.tr/maps/dir/My+Location/38.4949955,43.3604826"},{"lat":38.4984911,"lng":43.3944326,"name":"Harman Eczanesi","address1":"Bahçıvan, 65200 Van Merkez/Van, Turkey","address2":"van/van merkez/harman eczanesi","direction":"https://www.google.com.tr/maps/dir/My+Location/38.4984911,43.3944326"},{"lat":38.4941302,"lng":43.3972322,"name":"İncir Eczanesi","address1":"Serhat, Milli Egemenlik Cd No:52, 65100 İpekyolu/Van, Turkey","address2":"van/ipekyolu/incir eczanesi","direction":"https://www.google.com.tr/maps/dir/My+Location/38.4941302,43.3972322"},{"lat":38.4853015,"lng":43.3650595,"name":"İpekyolu Eczanesi","address1":"Halilağa, İpek Yolu Cd. No:64, 65000 Van Merkez/Van, Turkey","address2":"van/van merkez/ipekyolu eczanesi","direction":"https://www.google.com.tr/maps/dir/My+Location/38.4853015,43.3650595"},{"lat":38.5631208,"lng":43.2854199,"name":"Kampüs Eczanesi","address1":"yyu kampus, Bardakçı, 65090 Tuşba/Van, Turkey","address2":"van/tuşba/kampüs eczanesi","direction":"https://www.google.com.tr/maps/dir/My+Location/38.5631208,43.2854199"},{"lat":38.502257,"lng":43.399377,"name":"Kaplan Eczanesi","address1":"Şerefiye, Urartu Sk. No.6/A, 65100 İpekyolu/Van, Turkey","address2":"van/ipekyolu/kaplan eczanesi","direction":"https://www.google.com.tr/maps/dir/My+Location/38.502257,43.399377"},{"lat":38.5006312,"lng":43.3785326,"name":"Karaalp Eczanesi","address1":"Alipaşa, Kazım Karabekir Blv. No:162, 65130 Van Merkez/Van, Turkey","address2":"van/van merkez/karaalp eczanesi","direction":"https://www.google.com.tr/maps/dir/My+Location/38.5006312,43.3785326"},{"lat":38.49835,"lng":43.3968278,"name":"Kayci Eczanesi","address1":"Şerefiye, 65100 Van Merkez/Van, Turkey","address2":"van/van merkez/kayci eczanesi","direction":"https://www.google.com.tr/maps/dir/My+Location/38.49835,43.3968278"},{"lat":38.503884,"lng":43.398559,"name":"Mermit Eczanesi","address1":"Vali Mithat Bey, Kışla Yolu Sk. No:2, 65130 Van Merkez/Van, Turkey","address2":"van/van merkez/mermit eczanesi","direction":"https://www.google.com.tr/maps/dir/My+Location/38.503884,43.398559"},{"lat":38.4916355,"lng":43.3698661,"name":"Mızrak Eczanesi","address1":"Alipaşa, Hatuniye, İpek Yolu Cd. No:17, 65300 İpekyolu/Van, Turkey","address2":"van/ipekyolu/mızrak eczanesi","direction":"https://www.google.com.tr/maps/dir/My+Location/38.4916355,43.3698661"},{"lat":38.5022394,"lng":43.3993995,"name":"Nehir Eczanesi","address1":"Şerefiye, Urartu Sk., 65140 İpekyolu/Van, Turkey","address2":"van/ipekyolu/nehir eczanesi","direction":"https://www.google.com.tr/maps/dir/My+Location/38.5022394,43.3993995"},{"lat":38.501593,"lng":43.394502,"name":"Oben Eczanesi","address1":"Bahçıvan, Cumhuriyet 4. Sk. No:8, 65130 Van Merkez/Van, Turkey","address2":"van/van merkez/oben eczanesi","direction":"https://www.google.com.tr/maps/dir/My+Location/38.501593,43.394502"},{"lat":38.4917394,"lng":43.3696498,"name":"Oflas Eczanesi","address1":"Hatuniye, 65040 Van Merkez/Van, Turkey","address2":"van/van merkez/oflas eczanesi","direction":"https://www.google.com.tr/maps/dir/My+Location/38.4917394,43.3696498"},{"lat":38.5109547,"lng":43.3803443,"name":"Ömer Eczanesi","address1":"Akköprü, Hıdrellez Cd., Tuşba/Van, Turkey","address2":"van/tuşba/ömer eczanesi","direction":"https://www.google.com.tr/maps/dir/My+Location/38.5109547,43.3803443"},{"lat":38.4990666,"lng":43.3897931,"name":"Saydan Eczanesi","address1":"BAHÇİVAN MAH KAZIM KARABEKİR CAD. NO:41/D, Bahçıvan, 65200 Van Merkez/İpekyolu/Van, Turkey","address2":"van/ipekyolu/saydan eczanesi","direction":"https://www.google.com.tr/maps/dir/My+Location/38.4990666,43.3897931"},{"lat":38.50302,"lng":43.3983538,"name":"Serhat Eczanesi","address1":"Şerefiye, Hastane Cadddesi Urartu 1. Sok. No:10, 65140 İpekyolu/Van, Turkey","address2":"van/ipekyolu/serhat eczanesi","direction":"https://www.google.com.tr/maps/dir/My+Location/38.50302,43.3983538"},{"lat":38.468146,"lng":43.34667,"name":"Talay Eczanesi","address1":"Eminpaşa Mh. İpek Yolu Cd. No:72 Pk:65040 Merkez/van, Eminpaşa, 65300 Edremit/Van, Turkey","address2":"van/edremit/talay eczanesi","direction":"https://www.google.com.tr/maps/dir/My+Location/38.468146,43.34667"},{"lat":38.503903,"lng":43.398527,"name":"Urartu Eczanesi","address1":"Vali Mithat Bey, 65100 Van Merkez/Van, Turkey","address2":"van/van merkez/urartu eczanesi","direction":"https://www.google.com.tr/maps/dir/My+Location/38.503903,43.398527"},{"lat":38.5972516,"lng":43.3894878,"name":"Van Eczanesi","address1":"Van Merkez, Van, Turkey","address2":"van/van merkez/van eczanesi","direction":"https://www.google.com.tr/maps/dir/My+Location/38.5972516,43.3894878"},{"lat":38.4981,"lng":43.397,"name":"Vangölü Eczanesi","address1":"Şerefiye Mh. Mareşal Fevzi Çakmak Cd. 65100 Merkez Van, Şerefiye, 65140 İpekyolu/Van, Turkey","address2":"van/ipekyolu/vangölü eczanesi","direction":"https://www.google.com.tr/maps/dir/My+Location/38.4981,43.397"},{"lat":38.5030471,"lng":43.3989192,"name":"Vefa Eczanesi","address1":"ŞEREFİYE MAHALLESİ HASTANE CAD.URARTU 1.SOK NO :9, Şerefiye, 65140 İpekyolu/Van, Turkey","address2":"van/ipekyolu/vefa eczanesi","direction":"https://www.google.com.tr/maps/dir/My+Location/38.5030471,43.3989192"},{"lat":38.498021,"lng":43.39373,"name":"Yağmur Eczanesi","address1":"Bahçıvan, 65200 Van Merkez/Van, Turkey","address2":"van/van merkez/yağmur eczanesi","direction":"https://www.google.com.tr/maps/dir/My+Location/38.498021,43.39373"},{"lat":38.492145,"lng":43.369628,"name":"Yeni Derman Eczanesi","address1":"Akdamar Hastanesi Acil yanı. İpekyolu. Hatuniye mahallesi terzioğlu, Hatuniye, Eski ikinisan kedili kavşağı, 65100 Ipekyolu/İpekyolu/Van, Turkey","address2":"van/ipekyolu/yeni derman eczanesi","direction":"https://www.google.com.tr/maps/dir/My+Location/38.492145,43.369628"}]