[{"lat":36.7162624,"lng":37.1139944,"name":"Abide Eczanesi","address1":"Tekye, Mevlevihane Sk. No:22, 79000 Kilis Merkez/Kilis, Turkey","address2":"kilis/kilis merkez/abide eczanesi","direction":"https://www.google.com.tr/maps/dir/My+Location/36.7162624,37.1139944"},{"lat":36.7092059,"lng":37.1105742,"name":"Belgin Eczanesi","address1":"Kartalbey, Mustafa Baytaz Caddesi No:35/B, 79000 Kilis Merkez/Kilis, Turkey","address2":"kilis/kilis merkez/belgin eczanesi","direction":"https://www.google.com.tr/maps/dir/My+Location/36.7092059,37.1105742"},{"lat":36.7126868,"lng":37.1368529,"name":"Canözer Eczanesi","address1":"Doğan Güreş Paşa, Mehmet Eren Cd. NO:36, 79000 Kilis Merkez/Kilis, Turkey","address2":"kilis/kilis merkez/canözer eczanesi","direction":"https://www.google.com.tr/maps/dir/My+Location/36.7126868,37.1368529"},{"lat":36.7187544,"lng":37.1114969,"name":"Deniz Eczanesi","address1":"Yedi Aralık, Murtaza Cd., 79000 Kilis Merkez/Kilis, Turkey","address2":"kilis/kilis merkez/deniz eczanesi","direction":"https://www.google.com.tr/maps/dir/My+Location/36.7187544,37.1114969"},{"lat":36.7075271,"lng":37.11138,"name":"Derman Eczanesi","address1":"İzzettin İyigün Blv., Kilis Merkez/Kilis, Turkey","address2":"kilis/kilis merkez/derman eczanesi","direction":"https://www.google.com.tr/maps/dir/My+Location/36.7075271,37.11138"},{"lat":36.7157867,"lng":37.1229958,"name":"Ergezen Eczanesi","address1":"Şehit Sakıp, Cumhuriyet Cd. No:240, 79000 Kilis Merkez/Kilis, Turkey","address2":"kilis/kilis merkez/ergezen eczanesi","direction":"https://www.google.com.tr/maps/dir/My+Location/36.7157867,37.1229958"},{"lat":36.7043562,"lng":37.110624,"name":"Eruçan Eczanesi","address1":"Kazım Karabekir Mh., Kazım Karabekir, İzzettin İyiğün Paşa Bulv. No:60/5, 79000 Kilis Merkez/Kilis, Turkey","address2":"kilis/kilis merkez/eruçan eczanesi","direction":"https://www.google.com.tr/maps/dir/My+Location/36.7043562,37.110624"},{"lat":36.7234702,"lng":37.1050879,"name":"Günal Eczanesi","address1":"İsmet Paşa, Metin Dirimtekin Cad. 28/B, 79000 Kilis Merkez/Kilis, Turkey","address2":"kilis/kilis merkez/günal eczanesi","direction":"https://www.google.com.tr/maps/dir/My+Location/36.7234702,37.1050879"},{"lat":36.7144621,"lng":37.1079525,"name":"Halk Eczanesi","address1":"Hürriyet, Abdullah Gül Cad. No:5, 79000 Kilis Merkez/Kilis, Turkey","address2":"kilis/kilis merkez/halk eczanesi","direction":"https://www.google.com.tr/maps/dir/My+Location/36.7144621,37.1079525"},{"lat":36.7126868,"lng":37.1368529,"name":"Hamdemirci Eczanesi","address1":"Doğan Güreş Paşa, Mehmet Eren Cd. NO:36, 79000 Kilis Merkez/Kilis, Turkey","address2":"kilis/kilis merkez/hamdemirci eczanesi","direction":"https://www.google.com.tr/maps/dir/My+Location/36.7126868,37.1368529"},{"lat":36.7152589,"lng":37.1143508,"name":"İtimat Eczanesi","address1":"Tekye, Mevlevihane Sk., 79000 Kilis Merkez/Kilis, Turkey","address2":"kilis/kilis merkez/itimat eczanesi","direction":"https://www.google.com.tr/maps/dir/My+Location/36.7152589,37.1143508"},{"lat":36.7156527,"lng":37.1128254,"name":"Kepekçi Eczanesi","address1":"Şehitler, Cambazlar Sk. NO:8, 79000 MERKEZ/Kilis, Turkey","address2":"kilis/merkez/kepekçi eczanesi","direction":"https://www.google.com.tr/maps/dir/My+Location/36.7156527,37.1128254"},{"lat":36.724269,"lng":37.1044095,"name":"Kılıç Eczanesi","address1":"İsmet Paşa, Ali Metin Dirimtekin Cd. NO 32, 79000 Kilis Merkez/Kilis, Turkey","address2":"kilis/kilis merkez/kılıç eczanesi","direction":"https://www.google.com.tr/maps/dir/My+Location/36.724269,37.1044095"},{"lat":36.712693,"lng":37.136623,"name":"Köksal Eczanesi","address1":"doğan güreş paşa mah.kazım karabekir cad.no:21 BEŞEVLER SAĞLIK OCAĞI YANI, Doğan Güreş Paşa, 79000 Kilis Merkez/Kilis, Turkey","address2":"kilis/kilis merkez/köksal eczanesi","direction":"https://www.google.com.tr/maps/dir/My+Location/36.712693,37.136623"},{"lat":36.7144683,"lng":37.1075335,"name":"Muhtaroğlu Eczanesi","address1":"Hürriyet, Abdullah Gül Bulv. 4/A, 79000 Kilis Merkez/Kilis, Turkey","address2":"kilis/kilis merkez/muhtaroğlu eczanesi","direction":"https://www.google.com.tr/maps/dir/My+Location/36.7144683,37.1075335"},{"lat":36.7163478,"lng":37.1125345,"name":"Özkaptan Eczanesi","address1":"Yedi Aralık, neşet topaloğlu caddesi no:27, 79000 merkez/Kilis, Turkey","address2":"kilis/merkez/özkaptan eczanesi","direction":"https://www.google.com.tr/maps/dir/My+Location/36.7163478,37.1125345"},{"lat":36.7165325,"lng":37.114237,"name":"Polat Eczanesi","address1":"Yedi Aralık Mh. Cumhuriyet Cd. Pk:79000 Merkez/kilis, Yedi Aralık, 79000 Kilis Merkez/Kilis, Turkey","address2":"kilis/kilis merkez/polat eczanesi","direction":"https://www.google.com.tr/maps/dir/My+Location/36.7165325,37.114237"},{"lat":36.7208574,"lng":37.1095836,"name":"Sağıroğlu Eczanesi","address1":"No:k, İsmet Paşa, İsmet Paşa Cd. No:16, 79000 Merkez/Kilis Merkez/Kilis, Turkey","address2":"kilis/kilis merkez/sağıroğlu eczanesi","direction":"https://www.google.com.tr/maps/dir/My+Location/36.7208574,37.1095836"},{"lat":36.720992,"lng":37.1085239,"name":"Şiltelioğlu Eczanesi","address1":"Nedim Ökmen, 79000 Kilis Merkez/Kilis, Turkey","address2":"kilis/kilis merkez/şiltelioğlu eczanesi","direction":"https://www.google.com.tr/maps/dir/My+Location/36.720992,37.1085239"},{"lat":36.7163213,"lng":37.1144246,"name":"Sipahi Eczanesi","address1":"Tekye, Mevlevihane Sk. No:22, 79000 Kilis Merkez/Kilis, Turkey","address2":"kilis/kilis merkez/sipahi eczanesi","direction":"https://www.google.com.tr/maps/dir/My+Location/36.7163213,37.1144246"},{"lat":36.7223543,"lng":37.0985073,"name":"Star Eczanesi","address1":"Ekrem Çetin Mah., Turgut Reis Cad. No:25, 79000 Merkez/Kilis Merkez/Kilis, Turkey","address2":"kilis/kilis merkez/star eczanesi","direction":"https://www.google.com.tr/maps/dir/My+Location/36.7223543,37.0985073"},{"lat":36.7187216,"lng":37.116628,"name":"Tutoğlu Eczanesi","address1":"Karaaili Mahallesi, Türbedar Sk. No:6/A, 79000 Merkez/Kilis, Turkey","address2":"kilis/merkez/tutoğlu eczanesi","direction":"https://www.google.com.tr/maps/dir/My+Location/36.7187216,37.116628"},{"lat":36.722106,"lng":37.09819,"name":"Zeytin Eczanesi","address1":"Ekrem Çetin, TURGUT REİS CADDESİ NO:23, 79000 MERKEZ/Kilis, Turkey","address2":"kilis/merkez/zeytin eczanesi","direction":"https://www.google.com.tr/maps/dir/My+Location/36.722106,37.09819"}]