[{"lat":40.851402,"lng":26.6409698,"name":"Serap Eczanesi","address1":"Yukarı Zaferiye, Gazeteci Çetin Emeç Cd. No:2, 22800 Keşan/Edirne, Turkey","address2":"edirne/keşan/serap eczanesi","direction":"https://www.google.com.tr/maps/dir/My+Location/40.851402,26.6409698"},{"lat":40.72486,"lng":26.086846,"name":"Hayat Eczanesi","address1":"Gaziömerbey, Milli Egemenlik Cd. No:9/A, 22700 Evros/Enez/Edirne, Turkey","address2":"edirne/enez/hayat eczanesi","direction":"https://www.google.com.tr/maps/dir/My+Location/40.72486,26.086846"},{"lat":40.724829,"lng":26.0842314,"name":"Sağlık Eczanesi","address1":"Gaziömerbey, Kale Cd. No:9/A, 22700 Evros/Enez/Edirne, Turkey","address2":"edirne/enez/sağlık eczanesi","direction":"https://www.google.com.tr/maps/dir/My+Location/40.724829,26.0842314"},{"lat":40.7248819,"lng":26.0843807,"name":"Saygın Eczanesi","address1":"Gaziömerbey, Kale Cd. No:3, 22700 Evros/Enez/Edirne, Turkey","address2":"edirne/enez/saygın eczanesi","direction":"https://www.google.com.tr/maps/dir/My+Location/40.7248819,26.0843807"},{"lat":41.549765,"lng":26.8222201,"name":"Derman Eczanesi","address1":"Hacıisa, 23 Kasım Cd. No:4, 22500 Havsa/Edirne, Turkey","address2":"edirne/havsa/derman eczanesi","direction":"https://www.google.com.tr/maps/dir/My+Location/41.549765,26.8222201"},{"lat":41.5495054,"lng":26.8209552,"name":"Gün Eczanesi","address1":"Hacı İsa Mahallesi, Fatih Cd. NO:204/B, 22500 Havsa/Edirne, Turkey","address2":"edirne/havsa/gün eczanesi","direction":"https://www.google.com.tr/maps/dir/My+Location/41.5495054,26.8209552"},{"lat":41.549532,"lng":26.8208438,"name":"Havsa Eczanesi","address1":"Cumhuriyet, Fatih Cd. No:20, 22500 Havsa/Edirne, Turkey","address2":"edirne/havsa/havsa eczanesi","direction":"https://www.google.com.tr/maps/dir/My+Location/41.549532,26.8208438"},{"lat":41.548907,"lng":26.8216628,"name":"Yavuz Eczanesi","address1":"Hacıisa, Edirne Havsa Yolu No:5, 22500 Havsa/Edirne, Turkey","address2":"edirne/havsa/yavuz eczanesi","direction":"https://www.google.com.tr/maps/dir/My+Location/41.548907,26.8216628"},{"lat":40.9228138,"lng":26.3836665,"name":"Çınar Eczanesi","address1":"Köprü, Enez Cd. No:1, 22400 İpsala/Edirne, Turkey","address2":"edirne/ipsala/çınar eczanesi","direction":"https://www.google.com.tr/maps/dir/My+Location/40.9228138,26.3836665"},{"lat":40.922107,"lng":26.3835024,"name":"Coşkun Eczanesi","address1":"Bayrambey, Enez Cd. No:2, 22400 İpsala/Edirne, Turkey","address2":"edirne/ipsala/coşkun eczanesi","direction":"https://www.google.com.tr/maps/dir/My+Location/40.922107,26.3835024"},{"lat":40.922107,"lng":26.3835024,"name":"Devranoğlu Eczanesi","address1":"Bayrambey, Enez Cd. No:2, 22400 İpsala/Edirne, Turkey","address2":"edirne/ipsala/devranoğlu eczanesi","direction":"https://www.google.com.tr/maps/dir/My+Location/40.922107,26.3835024"},{"lat":40.918054,"lng":26.3850592,"name":"Tuncalı Eczanesi","address1":"Bozkurt, Hastane Cd. No:21/A, 22400 İpsala/Edirne, Turkey","address2":"edirne/ipsala/tuncalı eczanesi","direction":"https://www.google.com.tr/maps/dir/My+Location/40.918054,26.3850592"},{"lat":40.9220111,"lng":26.3848553,"name":"Uysal Eczanesi","address1":"Saraç İlyas, Çarşı Sk. No:8, 22400 İpsala/Edirne, Turkey","address2":"edirne/ipsala/uysal eczanesi","direction":"https://www.google.com.tr/maps/dir/My+Location/40.9220111,26.3848553"},{"lat":40.8507347,"lng":26.6358258,"name":"Alkan Eczanesi","address1":"Yukarı Zaferiye, 22800 Keşan/Edirne, Turkey","address2":"edirne/keşan/alkan eczanesi","direction":"https://www.google.com.tr/maps/dir/My+Location/40.8507347,26.6358258"},{"lat":40.852412,"lng":26.639479,"name":"Banguoğlu Eczanesi","address1":"Mustafa Kemal Paşa Mah. Köşkler Cad. Ensa Apt. No:103/20, Mustafa Kemal Paşa, 22800 Keşan/Edirne, Turkey","address2":"edirne/keşan/banguoğlu eczanesi","direction":"https://www.google.com.tr/maps/dir/My+Location/40.852412,26.639479"},{"lat":40.8531833,"lng":26.6325381,"name":"Birgül Eczanesi","address1":"Büyük Cami, Demirciler Cd. No:24, 22800 Keşan/Edirne, Turkey","address2":"edirne/keşan/birgül eczanesi","direction":"https://www.google.com.tr/maps/dir/My+Location/40.8531833,26.6325381"},{"lat":40.849115,"lng":26.627961,"name":"Deniz Eczanesi","address1":"Aşağı Zaferiye Mahallesi Ensaray 2 Apt no:25/A, Aşağı Zaferiye, 22800 Keşan/Edirne, Turkey","address2":"edirne/keşan/deniz eczanesi","direction":"https://www.google.com.tr/maps/dir/My+Location/40.849115,26.627961"},{"lat":40.8516028,"lng":26.6321694,"name":"Ebru Eczanesi","address1":"no:a, Selçukbey, Volkan Cd. No:9, 22800 Keşan/Yıldırım/Edirne, Turkey","address2":"edirne/yıldırım/ebru eczanesi","direction":"https://www.google.com.tr/maps/dir/My+Location/40.8516028,26.6321694"},{"lat":40.854388,"lng":26.63269,"name":"Erkan Eczanesi","address1":"Büyük Cami, Güven Sk. No:1, 22800 Keşan/Edirne, Turkey","address2":"edirne/keşan/erkan eczanesi","direction":"https://www.google.com.tr/maps/dir/My+Location/40.854388,26.63269"},{"lat":40.857535,"lng":26.626618,"name":"Gökhan Eczanesi","address1":"Büyük Cami, Kurtuluş Cad. No:103/B, 22800 Keşan/Edirne, Turkey","address2":"edirne/keşan/gökhan eczanesi","direction":"https://www.google.com.tr/maps/dir/My+Location/40.857535,26.626618"},{"lat":40.853222,"lng":26.6326139,"name":"Gölemen Eczanesi","address1":"Büyük Cami, Demirciler Cd. No:25, 22800 Keşan/Edirne, Turkey","address2":"edirne/keşan/gölemen eczanesi","direction":"https://www.google.com.tr/maps/dir/My+Location/40.853222,26.6326139"},{"lat":40.852994,"lng":26.632258,"name":"Güven Eczanesi","address1":"Büyük Cami, Demirciler Cd. No:11, 22800 Keşan/Edirne, Turkey","address2":"edirne/keşan/güven eczanesi","direction":"https://www.google.com.tr/maps/dir/My+Location/40.852994,26.632258"},{"lat":40.8532512,"lng":26.633384,"name":"Kanık Eczanesi","address1":"Yukarı Zaferiye, Rasim Ergene Cad. Şapçı Apt. No:36 D:1-2, 22800 Keşan/Edirne, Turkey","address2":"edirne/keşan/kanık eczanesi","direction":"https://www.google.com.tr/maps/dir/My+Location/40.8532512,26.633384"},{"lat":40.8495782,"lng":26.6278038,"name":"Kuran Eczanesi","address1":"Aşağı Zaferiye, Mithat Gücüyeter Cd. No:31, 22800 Keşan/Edirne, Turkey","address2":"edirne/keşan/kuran eczanesi","direction":"https://www.google.com.tr/maps/dir/My+Location/40.8495782,26.6278038"},{"lat":40.847517,"lng":26.640829,"name":"Mankaliye Eczanesi","address1":"Cumhuriyet, Kalebayırı 10. Sk., 22800 Keşan/Edirne, Turkey","address2":"edirne/keşan/mankaliye eczanesi","direction":"https://www.google.com.tr/maps/dir/My+Location/40.847517,26.640829"},{"lat":40.852367,"lng":26.63132,"name":"Meriç Eczanesi","address1":"Yukarı Zaferiye, Demirciler Cd. No:6, 22800 Keşan/Edirne, Turkey","address2":"edirne/keşan/meriç eczanesi","direction":"https://www.google.com.tr/maps/dir/My+Location/40.852367,26.63132"},{"lat":40.855169,"lng":26.6324429,"name":"Merkez Eczanesi","address1":"Büyük Cami, Fevzi Çakmak Cd. No:32, 22800 Keşan/Edirne, Turkey","address2":"edirne/keşan/merkez eczanesi","direction":"https://www.google.com.tr/maps/dir/My+Location/40.855169,26.6324429"},{"lat":40.8615409,"lng":26.6300282,"name":"Pınar Eczanesi","address1":"No:74/A-, İspat Cami, Kurtuluş Cd. No:9, 22900 Keşan/Edirne, Turkey","address2":"edirne/keşan/pınar eczanesi","direction":"https://www.google.com.tr/maps/dir/My+Location/40.8615409,26.6300282"},{"lat":40.848732,"lng":26.6376971,"name":"Sayan Eczanesi","address1":"Yukarı Zaferiye, Hastane Sk. No:38, 22800 Keşan/Edirne, Turkey","address2":"edirne/keşan/sayan eczanesi","direction":"https://www.google.com.tr/maps/dir/My+Location/40.848732,26.6376971"},{"lat":40.8562218,"lng":26.628773,"name":"Sultan Eczanesi","address1":"İspat Cami, İstiklal Cd. No:1, 22900 Keşan/Edirne, Turkey","address2":"edirne/keşan/sultan eczanesi","direction":"https://www.google.com.tr/maps/dir/My+Location/40.8562218,26.628773"},{"lat":40.8503037,"lng":26.6374898,"name":"Toker Eczanesi","address1":"Yukarı Zaferiye, Necati İşcan Cd. No:7, 22800 Keşan/Edirne, Turkey","address2":"edirne/keşan/toker eczanesi","direction":"https://www.google.com.tr/maps/dir/My+Location/40.8503037,26.6374898"},{"lat":40.858615,"lng":26.630041,"name":"Türkkal Eczanesi","address1":"Keşan, Edirne, Turkey","address2":"edirne/keşan/türkkal eczanesi","direction":"https://www.google.com.tr/maps/dir/My+Location/40.858615,26.630041"},{"lat":40.851017,"lng":26.6372962,"name":"Yasemin Eczanesi","address1":"Yukarı Zaferiye, Yasemin Sk., 22800 Keşan/Edirne, Turkey","address2":"edirne/keşan/yasemin eczanesi","direction":"https://www.google.com.tr/maps/dir/My+Location/40.851017,26.6372962"},{"lat":40.8537544,"lng":26.6312255,"name":"Yeni Eczanesi","address1":"Büyük Cami, İnönü Cad. No:31, 22800 Keşan/Edirne, Turkey","address2":"edirne/keşan/yeni eczanesi","direction":"https://www.google.com.tr/maps/dir/My+Location/40.8537544,26.6312255"},{"lat":41.8392497,"lng":26.735343,"name":"Beyhan Eczanesi","address1":"Merkez, Yeşil Sok. 1/B, 22950 Edirne Merkez/Edirne, Turkey","address2":"edirne/edirne merkez/beyhan eczanesi","direction":"https://www.google.com.tr/maps/dir/My+Location/41.8392497,26.735343"},{"lat":41.8390935,"lng":26.7327494,"name":"Sevil Eczanesi","address1":"Merkez, Cumhuriyet Cad. 36/B, 22950 Lalapaşa/Edirne, Turkey","address2":"edirne/lalapaşa/sevil eczanesi","direction":"https://www.google.com.tr/maps/dir/My+Location/41.8390935,26.7327494"},{"lat":41.1906363,"lng":26.4188786,"name":"Öden Eczanesi","address1":"Büyük Doğanca, Ali Çetinkol Sk. No:1, 22600 Meriç/Edirne, Turkey","address2":"edirne/meriç/öden eczanesi","direction":"https://www.google.com.tr/maps/dir/My+Location/41.1906363,26.4188786"},{"lat":41.190593,"lng":26.419111,"name":"Yeni Meriç Eczanesi","address1":"Büyük Doğanca, Artezyan Cad. No:1, 22600 Meriç/Edirne, Turkey","address2":"edirne/meriç/yeni meriç eczanesi","direction":"https://www.google.com.tr/maps/dir/My+Location/41.190593,26.419111"},{"lat":41.6763485,"lng":26.5528527,"name":"Akın Eczanesi","address1":"Mithat Paşa, Saraçlar Cd. No:26, 22020 Edirne Merkez/Edirne, Turkey","address2":"edirne/edirne merkez/akın eczanesi","direction":"https://www.google.com.tr/maps/dir/My+Location/41.6763485,26.5528527"},{"lat":41.6517857,"lng":26.5940941,"name":"Altıerler Eczanesi","address1":"Koca Sinan, Muammer Aksoy Cad. Firuz Apt. No:81, 22030 Edirne Merkez/Edirne, Turkey","address2":"edirne/edirne merkez/altıerler eczanesi","direction":"https://www.google.com.tr/maps/dir/My+Location/41.6517857,26.5940941"},{"lat":41.6770089,"lng":26.5503574,"name":"Aytaç Eczanesi","address1":"Çavuşbey, Talat Paşa Cd. No:204, 22000 Edirne Merkez/Edirne, Turkey","address2":"edirne/edirne merkez/aytaç eczanesi","direction":"https://www.google.com.tr/maps/dir/My+Location/41.6770089,26.5503574"},{"lat":41.6717569,"lng":26.5843523,"name":"Baca Eczanesi","address1":"Şükrüpaşa, Prof. ömer Lütfü Barkan Cd., 22030 Edirne Merkez/Edirne, Turkey","address2":"edirne/edirne merkez/baca eczanesi","direction":"https://www.google.com.tr/maps/dir/My+Location/41.6717569,26.5843523"},{"lat":41.66415,"lng":26.585149,"name":"Baraj Eczanesi","address1":"1. Murat, Zübeyde Hanım Cad. No:1, 22030 Edirne Merkez/Edirne, Turkey","address2":"edirne/edirne merkez/baraj eczanesi","direction":"https://www.google.com.tr/maps/dir/My+Location/41.66415,26.585149"},{"lat":41.665678,"lng":26.563127,"name":"Baran Eczanesi","address1":"Abdurrahman, Uzun Kaldırım Cd. No:97, 22100 Edirne Merkez/Edirne, Turkey","address2":"edirne/edirne merkez/baran eczanesi","direction":"https://www.google.com.tr/maps/dir/My+Location/41.665678,26.563127"},{"lat":41.65685,"lng":26.598841,"name":"Berkay Eczanesi","address1":"Fatih Mah Fatih Konak'ları Altı Bim Yanı, Fatih, Ümran Akkan Cd., 22020 Edirne Merkez/Edirne, Turkey","address2":"edirne/edirne merkez/berkay eczanesi","direction":"https://www.google.com.tr/maps/dir/My+Location/41.65685,26.598841"},{"lat":41.669396,"lng":26.5680832,"name":"Çakbil Eczanesi","address1":"Abdurrahman, Talat Paşa Asfaltı No:200, 34186 Edirne Merkez/Edirne, Turkey","address2":"edirne/edirne merkez/çakbil eczanesi","direction":"https://www.google.com.tr/maps/dir/My+Location/41.669396,26.5680832"},{"lat":41.6704411,"lng":26.5685076,"name":"Çebe Eczanesi","address1":"Atatürk Caddesi, Beyaz Apt, Yancıkçı Şahin, Şht. Mehmet Alkan Sk. No:2/B, 22030 Edirne Merkez/Edirne, Turkey","address2":"edirne/edirne merkez/çebe eczanesi","direction":"https://www.google.com.tr/maps/dir/My+Location/41.6704411,26.5685076"},{"lat":41.6751235,"lng":26.5542594,"name":"Cent Eczanesi","address1":"Sabuni, Çilingirler Cad./çilingirler Çarşısı D:29, 22100 Edirne Merkez/Edirne, Turkey","address2":"edirne/edirne merkez/cent eczanesi","direction":"https://www.google.com.tr/maps/dir/My+Location/41.6751235,26.5542594"},{"lat":41.669368,"lng":26.585272,"name":"Dinçer Eczanesi","address1":"Şükrüpaşa, Bahriye Üçok Cd., 22030 Edirne Merkez/Edirne, Turkey","address2":"edirne/edirne merkez/dinçer eczanesi","direction":"https://www.google.com.tr/maps/dir/My+Location/41.669368,26.585272"},{"lat":41.6523136,"lng":26.5988907,"name":"Doruk Eczanesi","address1":"Koca Sinan Mah. Şevki Arman Cad. Çelik 27 Altınköşk Apt No: 10 10, Fatih, 22030 Edirne Merkez/Edirne, Turkey","address2":"edirne/edirne merkez/doruk eczanesi","direction":"https://www.google.com.tr/maps/dir/My+Location/41.6523136,26.5988907"},{"lat":41.6656696,"lng":26.580968,"name":"Emek Eczanesi","address1":"1. Murat, Zübeyde Hanım Cd. No:1, 22030 Edirne Merkez/Edirne, Turkey","address2":"edirne/edirne merkez/emek eczanesi","direction":"https://www.google.com.tr/maps/dir/My+Location/41.6656696,26.580968"},{"lat":41.672361,"lng":26.553535,"name":"Eray Eczanesi","address1":"Sabuni, Çilingirler Cd. No:41, 22100 Edirne Merkez/Edirne, Turkey","address2":"edirne/edirne merkez/eray eczanesi","direction":"https://www.google.com.tr/maps/dir/My+Location/41.672361,26.553535"},{"lat":41.6691361,"lng":26.5851173,"name":"Erkin Eczanesi","address1":"No:, Şükrü Paşa, Bahriye Üçok Cd. No:28, 22030 Edirne Merkez/Edirne, Turkey","address2":"edirne/edirne merkez/erkin eczanesi","direction":"https://www.google.com.tr/maps/dir/My+Location/41.6691361,26.5851173"},{"lat":41.6593325,"lng":26.5953352,"name":"Fıçıcıoğlu Eczanesi","address1":"FATİH MAH.ŞEHİT YÜCEL ERCAN SOK. NİTAŞ APT. ALTI, Fatih, MERKEZ NO3, 22100 MERKEZ/Edirne, Turkey","address2":"edirne/merkez/fıçıcıoğlu eczanesi","direction":"https://www.google.com.tr/maps/dir/My+Location/41.6593325,26.5953352"},{"lat":41.6691812,"lng":26.5911003,"name":"Gölet Eczanesi","address1":"Şükrü Paşa, Bülent Ecevit Blv 20 B, 22030 Edirne Merkez/Edirne, Turkey","address2":"edirne/edirne merkez/gölet eczanesi","direction":"https://www.google.com.tr/maps/dir/My+Location/41.6691812,26.5911003"},{"lat":41.663342,"lng":26.585582,"name":"Gülden Eczanesi","address1":"1. Murat, Güngör Mazlum Cd. No:1, 22030 Edirne Merkez/Edirne, Turkey","address2":"edirne/edirne merkez/gülden eczanesi","direction":"https://www.google.com.tr/maps/dir/My+Location/41.663342,26.585582"},{"lat":41.672898,"lng":26.5917193,"name":"Gürak Eczanesi","address1":"Şükrü Paşa Mahallesi MİTHAT VARDAR CAD.EZGİ KENT SİT MEVLANA CAMİİ KARŞISI, Şükrüpaşa, D:NO.17, 22030 Edirne Merkez/Edirne, Turkey","address2":"edirne/edirne merkez/gürak eczanesi","direction":"https://www.google.com.tr/maps/dir/My+Location/41.672898,26.5917193"},{"lat":41.6530262,"lng":26.5958997,"name":"Gürkan Eczanesi","address1":"Kocasinan mah, Muammer Aksoy Cd. 34. Sok, 22100 Edirne Merkez/Edirne, Turkey","address2":"edirne/edirne merkez/gürkan eczanesi","direction":"https://www.google.com.tr/maps/dir/My+Location/41.6530262,26.5958997"},{"lat":41.6699196,"lng":26.563396,"name":"Hatipoğlu Eczanesi","address1":"Talatpaşa, Uzun Kaldırım Cd. No:19 D:19, 22100 Edirne Merkez/Edirne, Turkey","address2":"edirne/edirne merkez/hatipoğlu eczanesi","direction":"https://www.google.com.tr/maps/dir/My+Location/41.6699196,26.563396"},{"lat":41.6785074,"lng":26.569499,"name":"İncinur Eczanesi","address1":"Barutluk, Kıyık Cad. No:63, 22020 Edirne Merkez/Edirne, Turkey","address2":"edirne/edirne merkez/incinur eczanesi","direction":"https://www.google.com.tr/maps/dir/My+Location/41.6785074,26.569499"},{"lat":41.6741811,"lng":26.5508962,"name":"Kaleiçi Eczanesi","address1":"Mithat Paşa, Balık Pazarı Cd. No:34/B, 22020 Edirne Merkez/Edirne, Turkey","address2":"edirne/edirne merkez/kaleiçi eczanesi","direction":"https://www.google.com.tr/maps/dir/My+Location/41.6741811,26.5508962"},{"lat":41.675123,"lng":26.561345,"name":"Kaya Eczanesi","address1":"Sarıcapaşa, Çukur Sk. No:5, 22030 Edirne Merkez/Edirne, Turkey","address2":"edirne/edirne merkez/kaya eczanesi","direction":"https://www.google.com.tr/maps/dir/My+Location/41.675123,26.561345"},{"lat":41.6784021,"lng":26.5690846,"name":"Kıyık Eczanesi","address1":"Nişancıpaşa, Kıyık Cd. No:142 D:1, 22030 Edirne Merkez/Edirne, Turkey","address2":"edirne/edirne merkez/kıyık eczanesi","direction":"https://www.google.com.tr/maps/dir/My+Location/41.6784021,26.5690846"},{"lat":41.6753711,"lng":26.5540348,"name":"Koray Eczanesi","address1":"Sabuni, Şair Fuzuli Sk. No:7, 22100 Edirne Merkez/Edirne, Turkey","address2":"edirne/edirne merkez/koray eczanesi","direction":"https://www.google.com.tr/maps/dir/My+Location/41.6753711,26.5540348"},{"lat":41.6748555,"lng":26.5616767,"name":"Korkut Eczanesi","address1":"Sarıcapaşa, Çukur Sk. No:17, 22030 Edirne Merkez/Edirne, Turkey","address2":"edirne/edirne merkez/korkut eczanesi","direction":"https://www.google.com.tr/maps/dir/My+Location/41.6748555,26.5616767"},{"lat":41.650974,"lng":26.593951,"name":"Kutlutaş Eczanesi","address1":"Koca Sinan, 22030 Edirne Merkez/Edirne, Turkey","address2":"edirne/edirne merkez/kutlutaş eczanesi","direction":"https://www.google.com.tr/maps/dir/My+Location/41.650974,26.593951"},{"lat":41.6743175,"lng":26.5535531,"name":"Mehmet Ay Eczanesi","address1":"Sabuni, Çilingirler Cd. No:88, 22100 Edirne Merkez/Edirne, Turkey","address2":"edirne/edirne merkez/mehmet ay eczanesi","direction":"https://www.google.com.tr/maps/dir/My+Location/41.6743175,26.5535531"},{"lat":41.6767872,"lng":26.5501203,"name":"Mercan Eczanesi","address1":"Mithat Paşa, Londra Asf. 25/B, 22020 Edirne Merkez/Edirne, Turkey","address2":"edirne/edirne merkez/mercan eczanesi","direction":"https://www.google.com.tr/maps/dir/My+Location/41.6767872,26.5501203"},{"lat":41.675225,"lng":26.56119,"name":"Murat Eczanesi","address1":"Sarıcapaşa, Çukur Sk. No:1, 22030 Edirne Merkez/Edirne, Turkey","address2":"edirne/edirne merkez/murat eczanesi","direction":"https://www.google.com.tr/maps/dir/My+Location/41.675225,26.56119"},{"lat":41.67253,"lng":26.5535435,"name":"Okan Eczanesi","address1":"Talatpaşa, Saraçlar Cad. No:87, 22100 Edirne Merkez/Edirne, Turkey","address2":"edirne/edirne merkez/okan eczanesi","direction":"https://www.google.com.tr/maps/dir/My+Location/41.67253,26.5535435"},{"lat":41.666604,"lng":26.584521,"name":"Olcay Eczanesi","address1":"Şükrüpaşa Mahallesi Şehit Üsteğmen Efkan Yıldırım Caddesi Çelik Apartmanı No:14, Şükrüpaşa, İlhami Ertem Lisesi Arkası Yunanistan Konsolosluğu Yanı, 22030 Edirne Merkez/Edirne, Turkey","address2":"edirne/edirne merkez/olcay eczanesi","direction":"https://www.google.com.tr/maps/dir/My+Location/41.666604,26.584521"},{"lat":41.6753597,"lng":26.554315,"name":"Ömür Eczanesi","address1":"Sabuni, Çilingirler Çarşısı No:10/A D:No:10/A, 22100 Edirne Merkez/Edirne, Turkey","address2":"edirne/edirne merkez/ömür eczanesi","direction":"https://www.google.com.tr/maps/dir/My+Location/41.6753597,26.554315"},{"lat":41.6601031,"lng":26.5964536,"name":"Özdemir Eczanesi","address1":"FATİH MAHALLESİ ÜMRAN AKKAN CADDESİ VİLLA 2000 SİTESİ 17/B ESENTEPE MARGİ MARKET YANI, Fatih, 22030 Edirne Merkez/Edirne, Turkey","address2":"edirne/edirne merkez/özdemir eczanesi","direction":"https://www.google.com.tr/maps/dir/My+Location/41.6601031,26.5964536"},{"lat":41.672752,"lng":26.552419,"name":"Özgür Eczanesi","address1":"Dilaverbey, Osmaniye Cd. No:87, 22030 Edirne Merkez/Edirne, Turkey","address2":"edirne/edirne merkez/özgür eczanesi","direction":"https://www.google.com.tr/maps/dir/My+Location/41.672752,26.552419"},{"lat":41.674976,"lng":26.561565,"name":"Reyhan Eczanesi","address1":"Sarıcapaşa, Çukur Sk. No:13, 22030 Edirne Merkez/Edirne, Turkey","address2":"edirne/edirne merkez/reyhan eczanesi","direction":"https://www.google.com.tr/maps/dir/My+Location/41.674976,26.561565"},{"lat":41.6521943,"lng":26.5941978,"name":"Sağlam Eczanesi","address1":"Muammer Aksoy Caddesi, Koca Sinan, Ersin Nizam Apt No:42, 22030 Edirne Merkez/Edirne, Turkey","address2":"edirne/edirne merkez/sağlam eczanesi","direction":"https://www.google.com.tr/maps/dir/My+Location/41.6521943,26.5941978"},{"lat":41.6729827,"lng":26.5556275,"name":"Şahin Eczanesi","address1":"Sabuni, Eski İstanbul Cd. No:57, 22100 Edirne Merkez/Edirne, Turkey","address2":"edirne/edirne merkez/şahin eczanesi","direction":"https://www.google.com.tr/maps/dir/My+Location/41.6729827,26.5556275"},{"lat":41.677027,"lng":26.558656,"name":"Selimiye Eczanesi","address1":"Sarıcapaşa, 22030 Edirne Merkez/Edirne, Turkey","address2":"edirne/edirne merkez/selimiye eczanesi","direction":"https://www.google.com.tr/maps/dir/My+Location/41.677027,26.558656"},{"lat":41.6916123,"lng":26.5759427,"name":"Şeren Eczanesi","address1":"Barutluk, 22020 Edirne Merkez/Edirne, Turkey","address2":"edirne/edirne merkez/şeren eczanesi","direction":"https://www.google.com.tr/maps/dir/My+Location/41.6916123,26.5759427"},{"lat":41.678383,"lng":26.568077,"name":"Serhat Eczanesi","address1":"Meydan, 22000 Edirne Merkez/Edirne, Turkey","address2":"edirne/edirne merkez/serhat eczanesi","direction":"https://www.google.com.tr/maps/dir/My+Location/41.678383,26.568077"},{"lat":41.6741319,"lng":26.550336,"name":"Sıhhat Eczanesi","address1":"Dilaverbey, Balık Pazarı Cd. No:67 D:3, 22020 Edirne Merkez/Edirne, Turkey","address2":"edirne/edirne merkez/sıhhat eczanesi","direction":"https://www.google.com.tr/maps/dir/My+Location/41.6741319,26.550336"},{"lat":41.666347,"lng":26.56294,"name":"Sözer Eczanesi","address1":"Talatpaşa, Mezarlık Sk., 22100 Edirne Merkez/Edirne, Turkey","address2":"edirne/edirne merkez/sözer eczanesi","direction":"https://www.google.com.tr/maps/dir/My+Location/41.666347,26.56294"},{"lat":41.6519856,"lng":26.5938426,"name":"Süer Eczanesi","address1":"Koca Sinan, Muammer Aksoy Cd. No:46, 22030 Edirne Merkez/Edirne, Turkey","address2":"edirne/edirne merkez/süer eczanesi","direction":"https://www.google.com.tr/maps/dir/My+Location/41.6519856,26.5938426"},{"lat":41.670486,"lng":26.568471,"name":"Tekin Eczanesi","address1":"Yancıkçı Şahin Mh., Şht. Mehmet Alkan Sk., 22030 Edirne Merkez/Edirne, Turkey","address2":"edirne/edirne merkez/tekin eczanesi","direction":"https://www.google.com.tr/maps/dir/My+Location/41.670486,26.568471"},{"lat":41.6755817,"lng":26.5584305,"name":"Trakya Eczanesi","address1":"Sarıcapaşa, özek trakya hastanesi acil karşısı, Kadirhane Cd. 27. Sok, 22030 Edirne Merkez/Edirne, Turkey","address2":"edirne/edirne merkez/trakya eczanesi","direction":"https://www.google.com.tr/maps/dir/My+Location/41.6755817,26.5584305"},{"lat":41.6774387,"lng":26.5664027,"name":"Tülin Eczanesi","address1":"Nişancıpaşa, Kıyık Cad. No:72, 22030 Merkez/Edirne Merkez/Edirne, Turkey","address2":"edirne/edirne merkez/tülin eczanesi","direction":"https://www.google.com.tr/maps/dir/My+Location/41.6774387,26.5664027"},{"lat":41.6790398,"lng":26.552778,"name":"Ülkü Eczanesi","address1":"Babademirtaş, Hükümet Cd. No:18, 22020 Edirne Merkez/Edirne, Turkey","address2":"edirne/edirne merkez/ülkü eczanesi","direction":"https://www.google.com.tr/maps/dir/My+Location/41.6790398,26.552778"},{"lat":41.6665805,"lng":26.5844893,"name":"Umut Eczanesi","address1":"Şükrüpaşa Mah. Efkan Yıldırım Cad. Çelik Apt No:14, Şükrüpaşa, 22030 Edirne Merkez/Edirne, Turkey","address2":"edirne/edirne merkez/umut eczanesi","direction":"https://www.google.com.tr/maps/dir/My+Location/41.6665805,26.5844893"},{"lat":41.662404,"lng":26.587325,"name":"Uygar Eczanesi","address1":"Fatih Mh. Ali Rıza Ataktürk Cd., Fatih, Emine Ören St., A Blok, No:18, 22030 Merkez/Edirne Merkez/Edirne, Turkey","address2":"edirne/edirne merkez/uygar eczanesi","direction":"https://www.google.com.tr/maps/dir/My+Location/41.662404,26.587325"},{"lat":41.6743912,"lng":26.5626285,"name":"Yaşam Eczanesi","address1":"Medrese Ali Bey, Çukur Çeşme Sk. No:1, 22030 Edirne Merkez/Edirne, Turkey","address2":"edirne/edirne merkez/yaşam eczanesi","direction":"https://www.google.com.tr/maps/dir/My+Location/41.6743912,26.5626285"},{"lat":41.268596,"lng":26.685202,"name":"Aylin Eczanesi","address1":"Rızaefendi, Telli Çeşme Myd. No:13/A, 22300 Uzunköprü/Edirne, Turkey","address2":"edirne/uzunköprü/aylin eczanesi","direction":"https://www.google.com.tr/maps/dir/My+Location/41.268596,26.685202"},{"lat":41.2657509,"lng":26.6886621,"name":"Aytin Eczanesi","address1":"Mescit, 19 Mayıs Cd No:25, 22200 Kırkkavak/Uzunköprü/Edirne, Turkey","address2":"edirne/uzunköprü/aytin eczanesi","direction":"https://www.google.com.tr/maps/dir/My+Location/41.2657509,26.6886621"},{"lat":41.2675902,"lng":26.6866672,"name":"Başak Eczanesi","address1":"Muradiye, Gazi Cad. No:92, 22300 Uzunköprü/Edirne, Turkey","address2":"edirne/uzunköprü/başak eczanesi","direction":"https://www.google.com.tr/maps/dir/My+Location/41.2675902,26.6866672"},{"lat":41.271131,"lng":26.7039248,"name":"Bizim Eczanesi","address1":"Kavak, 22200 Uzunköprü/Edirne, Turkey","address2":"edirne/uzunköprü/bizim eczanesi","direction":"https://www.google.com.tr/maps/dir/My+Location/41.271131,26.7039248"},{"lat":41.2672422,"lng":26.6880621,"name":"Çağla Eczanesi","address1":"Muradiye, Anabacı Cd. No:25/a, 22300 Uzunköprü/Edirne, Turkey","address2":"edirne/uzunköprü/çağla eczanesi","direction":"https://www.google.com.tr/maps/dir/My+Location/41.2672422,26.6880621"},{"lat":41.2671012,"lng":26.6875107,"name":"Deva Eczanesi","address1":"Muradiye, Gazi Cad. No:156, 22300 Uzunköprü/Edirne, Turkey","address2":"edirne/uzunköprü/deva eczanesi","direction":"https://www.google.com.tr/maps/dir/My+Location/41.2671012,26.6875107"},{"lat":41.2659523,"lng":26.688807,"name":"Filiz Eczanesi","address1":"Muradiye, Subay Lojmanları Sk. No:4, 22300 Uzunköprü/Edirne, Turkey","address2":"edirne/uzunköprü/filiz eczanesi","direction":"https://www.google.com.tr/maps/dir/My+Location/41.2659523,26.688807"},{"lat":41.2599593,"lng":26.686177,"name":"Gencan Eczanesi","address1":"Habib hoca mah. Yusuf Kirez sokak no:8, Habib Hoca, 22200 Uzunköprü/Edirne, Turkey","address2":"edirne/uzunköprü/gencan eczanesi","direction":"https://www.google.com.tr/maps/dir/My+Location/41.2599593,26.686177"},{"lat":41.2682986,"lng":26.6854298,"name":"Güneş Eczanesi","address1":"Rızaefendi, Gazi Cd. No:50, 22200 Uzunköprü/Edirne, Turkey","address2":"edirne/uzunköprü/güneş eczanesi","direction":"https://www.google.com.tr/maps/dir/My+Location/41.2682986,26.6854298"},{"lat":41.259897,"lng":26.6861736,"name":"Halit Orhon Eczanesi","address1":"Habip hoca Mah, Yusufkirez Sok No:11, 22200 Uzunköprü/Edirne, Turkey","address2":"edirne/uzunköprü/halit orhon eczanesi","direction":"https://www.google.com.tr/maps/dir/My+Location/41.259897,26.6861736"},{"lat":41.258966,"lng":26.6864551,"name":"Kırkpınar Eczanesi","address1":"Habib Hoca Mah, 19 Mayıs Cd no 90 D:C, 22300 Uzunköprü/Edirne, Turkey","address2":"edirne/uzunköprü/kırkpınar eczanesi","direction":"https://www.google.com.tr/maps/dir/My+Location/41.258966,26.6864551"},{"lat":41.2688433,"lng":26.6861388,"name":"Manga Eczanesi","address1":"Muradiye, Hayrabolu Cad. No:2, 22300 Uzunköprü/Edirne, Turkey","address2":"edirne/uzunköprü/manga eczanesi","direction":"https://www.google.com.tr/maps/dir/My+Location/41.2688433,26.6861388"},{"lat":41.2655063,"lng":26.6888174,"name":"Müge Eczanesi","address1":"Kavak, 19 Mayıs Cd 37/A, 22300 Kırkkavak/Uzunköprü/Edirne, Turkey","address2":"edirne/uzunköprü/müge eczanesi","direction":"https://www.google.com.tr/maps/dir/My+Location/41.2655063,26.6888174"},{"lat":41.2671312,"lng":26.6872245,"name":"Özge Eczanesi","address1":"Rızaefendi, Gazi Cd. 94a, 22300 Uzunköprü/Edirne, Turkey","address2":"edirne/uzunköprü/özge eczanesi","direction":"https://www.google.com.tr/maps/dir/My+Location/41.2671312,26.6872245"},{"lat":41.268916,"lng":26.684617,"name":"Şifa Eczanesi","address1":"Rızaefendi, Gazi Cd. 18a, 22300 Uzunköprü/Edirne, Turkey","address2":"edirne/uzunköprü/şifa eczanesi","direction":"https://www.google.com.tr/maps/dir/My+Location/41.268916,26.684617"},{"lat":41.2653874,"lng":26.688423,"name":"Tufan Eczanesi","address1":"Halise Hatun, BODUR PASAJI, 22200 Uzunköprü/Edirne, Turkey","address2":"edirne/uzunköprü/tufan eczanesi","direction":"https://www.google.com.tr/maps/dir/My+Location/41.2653874,26.688423"},{"lat":41.2659503,"lng":26.6888152,"name":"Uğur Eczanesi","address1":"Muradiye, Subay Lojmanları Sk. No:4, 22300 Uzunköprü/Edirne, Turkey","address2":"edirne/uzunköprü/uğur eczanesi","direction":"https://www.google.com.tr/maps/dir/My+Location/41.2659503,26.6888152"},{"lat":41.2616091,"lng":26.6878057,"name":"Vatan Eczanesi","address1":"Mescit, Keşan Cad. No:35, 22200 Uzunköprü/Edirne, Turkey","address2":"edirne/uzunköprü/vatan eczanesi","direction":"https://www.google.com.tr/maps/dir/My+Location/41.2616091,26.6878057"}]